Time,MagX,MagY,MagZ,GyroX,GyroY,GyroZ,AccelX,AccelY,AccelZ,Tri11,Tri12,Tri13,Tri21,Tri22,Tri23,Lat,Lon,Alt,SunVect,MagVect,MagRef,SunRef,Roll,Pitch,Yaw,static_q,dynamic_q
1717779001.833904,6.533333333333334,-22.173333333333336,-41.333333333333336,-4.207317073170732,0.6097560975609757,1.402439024390244,-0.021240234375,-0.181640625,-0.976318359375,0.4838709677419355,0.4604105571847507,0.4398826979472141,0.02346041055718475,0.026392961876832845,0.026392961876832845,42.3,-83.7,0.3,[-0.01146881  0.29796837  0.95450685],[ 0.46820614  0.13795611 -0.87278355],[-0.57202423  0.17286703 -0.80181374],[-0.02994249 -0.13829843  0.98993787],4.611939791955824,10.262551586253142,45.408331722375664,[0.38743474 0.06697289 0.07146197 0.91667995],[ 0.3701756   0.01945856 -0.00805717  0.92872303]
1717779001.8596303,6.5200000000000005,-22.240000000000002,-41.29333333333334,2.6219512195121952,0.24390243902439027,1.5853658536585367,-0.013671875,-0.40966796875,-0.940673828125,0.4838709677419355,0.4604105571847507,0.44281524926686217,0.02346041055718475,0.026392961876832845,0.026392961876832845,42.3,-83.7,0.3,[-0.02302046  0.2791082   0.95998368],[ 0.46966812  0.13769047 -0.87203967],[-0.57202423  0.17286703 -0.80181374],[-0.02994249 -0.13829843  0.98993787],4.385750054974134,9.058155312650157,44.929818604257825,[0.38343756 0.05834371 0.06540128 0.91939889],[0.35297825 0.0658614  0.0996352  0.92797708]
1717779001.8867097,6.5200000000000005,-22.14666666666667,-41.36,-7.01219512195122,-0.3658536585365854,-0.1829268292682927,0.0029296875,-0.25537109375,-0.96875,0.4838709677419355,0.4604105571847507,0.4398826979472141,0.02346041055718475,0.02346041055718475,0.026392961876832845,42.3,-83.7,0.3,[-0.01146881  0.29796837  0.95450685],[ 0.46755454  0.13764851 -0.87318133],[-0.57202423  0.17286703 -0.80181374],[-0.02994249 -0.13829843  0.98993787],4.605710259418758,10.275734132890927,45.434327219747324,[0.38763932 0.06708351 0.07147117 0.91658466],[ 0.39051453  0.03517763 -0.02208175  0.91965936]
1717779001.913797,6.533333333333334,-22.14666666666667,-41.440000000000005,-4.634146341463415,0.5487804878048781,0.7317073170731708,-0.02587890625,-0.3349609375,-0.970703125,0.4838709677419355,0.4604105571847507,0.4398826979472141,0.02346041055718475,0.026392961876832845,0.026392961876832845,42.3,-83.7,0.3,[-0.01146881  0.29796837  0.95450685],[ 0.46684782  0.13772151 -0.87354788],[-0.57202423  0.17286703 -0.80181374],[-0.02994249 -0.13829843  0.98993787],4.593602286768587,10.292993721270655,45.489537748998245,[0.38807413 0.06722852 0.0714641  0.91639057],[ 0.38167124  0.02455561 -0.00808675  0.92393652]
1717779001.9413207,6.533333333333334,-22.093333333333334,-41.57333333333334,-4.085365853658537,0.426829268292683,0.426829268292683,-0.00390625,-0.265625,-0.971923828125,0.4838709677419355,0.4604105571847507,0.4398826979472141,0.02346041055718475,0.026392961876832845,0.026392961876832845,42.3,-83.7,0.3,[-0.01146881  0.29796837  0.95450685],[ 0.46482502  0.1374558  -0.87466771],[-0.57202423  0.17286703 -0.80181374],[-0.02994249 -0.13829843  0.98993787],4.565055759943505,10.338942566934413,45.61648259485241,[0.38907303 0.06761463 0.07146372 0.91593852],[ 3.84508429e-01  2.86187399e-02 -8.83820061e-04  9.22677330e-01]
1717779001.9677904,6.5200000000000005,-22.026666666666667,-41.61333333333334,-6.707317073170732,-0.1829268292682927,0.426829268292683,-0.006591796875,-0.294189453125,-0.958740234375,0.4838709677419355,0.4604105571847507,0.44281524926686217,0.02346041055718475,0.026392961876832845,0.026392961876832845,42.3,-83.7,0.3,[-0.02302046  0.2791082   0.95998368],[ 0.46340065  0.13716884 -0.87546819],[-0.57202423  0.17286703 -0.80181374],[-0.02994249 -0.13829843  0.98993787],4.302407581173153,9.20287584170285,45.34726190320866,[0.38674679 0.05954862 0.06542717 0.91793255],[ 0.38415919  0.02019963 -0.0354854   0.92236353]
1717779001.9951537,6.533333333333334,-21.94666666666667,-41.66666666666667,-4.51219512195122,0.1829268292682927,0.0,-0.018310546875,-0.30908203125,-0.965576171875,0.4838709677419355,0.4604105571847507,0.44281524926686217,0.02346041055718475,0.026392961876832845,0.026392961876832845,42.3,-83.7,0.3,[-0.02302046  0.2791082   0.95998368],[ 0.46160547  0.13741597 -0.87637734],[-0.57202423  0.17286703 -0.80181374],[-0.02994249 -0.13829843  0.98993787],4.2733989762091715,9.247368660410269,45.49529684257638,[0.38791847 0.05991937 0.06542027 0.91741436],[ 0.39100255  0.02301581 -0.01626874  0.91995794]
1717779002.0399842,6.573333333333334,-21.813333333333336,-41.906666666666666,-21.097560975609756,-0.24390243902439027,0.0,-0.006103515625,-0.38427734375,-0.953857421875,0.4868035190615836,0.4633431085043988,0.44281524926686217,0.02346041055718475,0.026392961876832845,0.026392961876832845,42.3,-83.7,0.3,[-0.01140276  0.29625235  0.95504163],[ 0.45731174  0.13780849 -0.87856405],[-0.57202423  0.17286703 -0.80181374],[-0.02994249 -0.13829843  0.98993787],4.386141330794982,10.43509221545255,46.08635995345494,[0.39271964 0.06870379 0.07063687 0.91436399],[ 0.39717553  0.0084827  -0.0746638   0.91466112]
1717779002.0583324,6.640000000000001,-21.546666666666667,-42.24,3.658536585365854,-0.3658536585365854,0.12195121951219513,0.000732421875,-0.21826171875,-0.977294921875,0.4868035190615836,0.4633431085043988,0.44574780058651026,0.02346041055718475,0.026392961876832845,0.026392961876832845,42.3,-83.7,0.3,[-0.02288665  0.27748589  0.96045707],[ 0.45000689  0.13867787 -0.88219173],[-0.57202423  0.17286703 -0.80181374],[-0.02994249 -0.13829843  0.98993787],4.0327386844649125,9.453470926574193,46.34087801902727,[0.39455218 0.06191276 0.06463999 0.91450372],[0.38846753 0.08508577 0.10103783 0.91194558]
1717779002.0795517,6.640000000000001,-21.560000000000002,-42.17333333333334,-9.756097560975611,0.48780487804878053,0.12195121951219513,-0.043212890625,-0.364013671875,-0.96923828125,0.4868035190615836,0.4633431085043988,0.44574780058651026,0.02346041055718475,0.026392961876832845,0.026392961876832845,42.3,-83.7,0.3,[-0.02288665  0.27748589  0.96045707],[ 0.4507824   0.13883094 -0.88177163],[-0.57202423  0.17286703 -0.80181374],[-0.02994249 -0.13829843  0.98993787],4.042459478849361,9.43626294116496,46.29344996711068,[0.3941789  0.06176838 0.06463356 0.9146749 ],[ 0.39720513  0.01122427 -0.04007935  0.91678555]
1717779002.1028552,6.640000000000001,-21.546666666666667,-42.17333333333334,3.658536585365854,-0.06097560975609757,-0.06097560975609757,0.015869140625,-0.18359375,-0.9736328125,0.4868035190615836,0.4633431085043988,0.44574780058651026,0.02346041055718475,0.026392961876832845,0.026392961876832845,42.3,-83.7,0.3,[-0.02288665  0.27748589  0.96045707],[ 0.45056023  0.13884839 -0.88188242],[-0.57202423  0.17286703 -0.80181374],[-0.02994249 -0.13829843  0.98993787],4.038922257724229,9.441638133856213,46.31126579831536,[0.39431919 0.06181351 0.06463317 0.9146114 ],[0.39191576 0.08085795 0.10803598 0.91005069]
1717779002.1298637,6.653333333333333,-21.46666666666667,-42.24,-8.841463414634147,0.3658536585365854,-0.3658536585365854,-0.052490234375,-0.37890625,-0.975830078125,0.4868035190615836,0.4633431085043988,0.44574780058651026,0.02346041055718475,0.026392961876832845,0.026392961876832845,42.3,-83.7,0.3,[-0.02288665  0.27748589  0.96045707],[ 0.44865555  0.13905535 -0.88282037],[-0.57202423  0.17286703 -0.80181374],[-0.02994249 -0.13829843  0.98993787],4.00778398439302,9.488123605506141,46.46829540929176,[0.39555516 0.0622041  0.06462774 0.91405143],[ 0.40376699  0.01349313 -0.03407777  0.91412738]
1717779002.1570563,6.653333333333333,-21.400000000000002,-42.32,-1.524390243902439,0.6707317073170732,0.24390243902439027,-0.007080078125,-0.35009765625,-0.970703125,0.4868035190615836,0.4633431085043988,0.44574780058651026,0.02346041055718475,0.026392961876832845,0.026392961876832845,42.3,-83.7,0.3,[-0.02288665  0.27748589  0.96045707],[ 0.44688104  0.13893685 -0.88373858],[-0.57202423  0.17286703 -0.80181374],[-0.02994249 -0.13829843  0.98993787],3.982455487957818,9.52917798235773,46.59360172710028,[0.39654036 0.06254917 0.06463396 0.91360046],[0.39539592 0.03247899 0.02953329 0.91746115]
1717779002.189252,6.760000000000001,-21.093333333333334,-42.66666666666667,-25.121951219512198,-1.0975609756097562,0.9756097560975611,-0.012939453125,-0.19921875,-0.98828125,0.4897360703812317,0.4662756598240469,0.44574780058651026,0.02346041055718475,0.026392961876832845,0.026392961876832845,42.3,-83.7,0.3,[-0.01133743  0.29455505  0.95556726],[ 0.43877169  0.14061773 -0.88752806],[-0.57202423  0.17286703 -0.80181374],[-0.02994249 -0.13829843  0.98993787],3.990159803633934,10.805465499229985,47.54993750017404,[0.40411099 0.07214049 0.06965319 0.90919662],[ 0.40166522  0.01513928 -0.07742278  0.91238236]
1717779002.212318,6.693333333333333,-21.080000000000002,-42.66666666666667,4.75609756097561,0.9756097560975611,-0.1829268292682927,-0.027587890625,-0.414794921875,-0.955078125,0.4868035190615836,0.4662756598240469,0.44868035190615835,0.02346041055718475,0.026392961876832845,0.026392961876832845,42.3,-83.7,0.3,[-0.01146186  0.25808281  0.96605481],[ 0.43863283  0.13927494 -0.88780839],[-0.57202423  0.17286703 -0.80181374],[-0.02994249 -0.13829843  0.98993787],2.9235314012219593,8.997145536910194,45.395639739219234,[0.38640288 0.06252301 0.05371734 0.91863928],[0.38661178 0.07276315 0.11394441 0.9122793 ]
1717779002.238018,6.773333333333333,-20.986666666666668,-42.77333333333333,-7.926829268292684,-0.48780487804878053,0.853658536585366,0.00732421875,-0.162353515625,-0.981201171875,0.4897360703812317,0.4662756598240469,0.44574780058651026,0.02346041055718475,0.026392961876832845,0.026392961876832845,42.3,-83.7,0.3,[-0.01133743  0.29455505  0.95556726],[ 0.4360997   0.14074882 -0.88882328],[-0.57202423  0.17286703 -0.80181374],[-0.02994249 -0.13829843  0.98993787],3.9428783625750112,10.868668622969048,47.76060666001549,[0.40574826 0.07268225 0.06963137 0.90842563],[ 0.39774709  0.03744805 -0.02884147  0.91627674]
1717779002.2650807,6.786666666666667,-20.96,-42.86666666666667,-4.2682926829268295,1.402439024390244,0.7926829268292683,-0.033935546875,-0.415283203125,-0.988525390625,0.4897360703812317,0.4662756598240469,0.44868035190615835,0.02346041055718475,0.026392961876832845,0.026392961876832845,42.3,-83.7,0.3,[-0.02275433  0.27588154  0.96092227],[ 0.43488364  0.14081156 -0.88940897],[-0.57202423  0.17286703 -0.80181374],[-0.02994249 -0.13829843  0.98993787],3.7227542706911345,9.746928241613134,47.53926030294458,[0.40391659 0.06466331 0.06384279 0.91027147],[ 0.39568604  0.01089147 -0.00467253  0.91830937]
1717779002.2946348,6.786666666666667,-20.693333333333335,-43.06666666666667,-9.878048780487806,-0.7317073170731708,-0.7926829268292683,0.010498046875,-0.13330078125,-0.977294921875,0.4897360703812317,0.4662756598240469,0.44868035190615835,0.02346041055718475,0.026392961876832845,0.026392961876832845,42.3,-83.7,0.3,[-0.02275433  0.27588154  0.96092227],[ 0.42879007  0.14062767 -0.8923917 ],[-0.57202423  0.17286703 -0.80181374],[-0.02994249 -0.13829843  0.98993787],3.628745995898395,9.88876679222989,48.000592585385,[0.40751759 0.06586753 0.06385545 0.90857766],[ 0.41743383  0.02081217 -0.05815859  0.90660544]
1717779002.319045,6.786666666666667,-20.706666666666667,-43.10666666666667,-15.731707317073171,-0.06097560975609757,0.6707317073170732,-0.053466796875,-0.4072265625,-0.96435546875,0.4897360703812317,0.4662756598240469,0.44868035190615835,0.02346041055718475,0.026392961876832845,0.026392961876832845,42.3,-83.7,0.3,[-0.02275433  0.27588154  0.96092227],[ 0.42869847  0.1405071  -0.89245469],[-0.57202423  0.17286703 -0.80181374],[-0.02994249 -0.13829843  0.98993787],3.6288077851419067,9.890118177754182,47.99942653348019,[0.4075083  0.0658787  0.06386001 0.90858069],[ 0.40871467  0.00327331 -0.07508697  0.90956228]
1717779002.3465376,6.840000000000001,-20.560000000000002,-43.17333333333334,4.939024390243903,0.30487804878048785,0.9756097560975611,0.02685546875,-0.195556640625,-0.96875,0.4897360703812317,0.4662756598240469,0.44868035190615835,0.02346041055718475,0.026392961876832845,0.026392961876832845,42.3,-83.7,0.3,[-0.02275433  0.27588154  0.96092227],[ 0.42562308  0.14159834 -0.89375327],[-0.57202423  0.17286703 -0.80181374],[-0.02994249 -0.13829843  0.98993787],3.565611050898572,9.969409079355941,48.31649209216085,[0.40997948 0.06655729 0.06382187 0.90742147],[0.39048761 0.08483466 0.12033125 0.90875899]
1717779002.3731372,6.826666666666667,-20.573333333333334,-43.17333333333334,-7.987804878048781,-1.2804878048780488,0.853658536585366,-0.0458984375,-0.28271484375,-0.9951171875,0.4897360703812317,0.4662756598240469,0.44868035190615835,0.02346041055718475,0.026392961876832845,0.026392961876832845,42.3,-83.7,0.3,[-0.02275433  0.27588154  0.96092227],[ 0.42586568  0.14131123 -0.89368314],[-0.57202423  0.17286703 -0.80181374],[-0.02994249 -0.13829843  0.98993787],3.5731662567289737,9.96185881960427,48.27755611256096,[0.409676   0.06649202 0.06383242 0.90756257],[ 0.4036686   0.04251597 -0.03715338  0.91316137]
1717779002.402606,6.866666666666667,-20.573333333333334,-43.160000000000004,-0.12195121951219513,1.2804878048780488,0.426829268292683,-0.03564453125,-0.378173828125,-0.97705078125,0.4897360703812317,0.4662756598240469,0.44868035190615835,0.02346041055718475,0.026392961876832845,0.026392961876832845,42.3,-83.7,0.3,[-0.02275433  0.27588154  0.96092227],[ 0.42592075  0.1421576  -0.89352265],[-0.57202423  0.17286703 -0.80181374],[-0.02994249 -0.13829843  0.98993787],3.5633312037655354,9.96604953154266,48.33158211609443,[0.41009786 0.06653038 0.0638007  0.90737143],[0.40291807 0.03981364 0.05658198 0.91261733]
1717779002.427176,6.760000000000001,-20.546666666666667,-43.22666666666667,-8.902439024390244,-1.2195121951219514,1.0975609756097562,0.02294921875,-0.17919921875,-0.976806640625,0.4897360703812317,0.4662756598240469,0.44868035190615835,0.02346041055718475,0.026392961876832845,0.026392961876832845,42.3,-83.7,0.3,[-0.02275433  0.27588154  0.96092227],[ 0.42507645  0.13985319 -0.89428804],[-0.57202423  0.17286703 -0.80181374],[-0.02994249 -0.13829843  0.98993787],3.57894548329164,9.97084775306462,48.238971844288805,[0.40937319 0.06656424 0.06388753 0.90769002],[ 0.39911621  0.0324049  -0.04907908  0.91501225]
1717779002.4546835,6.826666666666667,-20.493333333333336,-43.28,-5.853658536585367,0.3658536585365854,0.426829268292683,-0.05322265625,-0.323486328125,-0.984619140625,0.4897360703812317,0.4662756598240469,0.45161290322580644,0.02346041055718475,0.026392961876832845,0.026392961876832845,42.3,-83.7,0.3,[-0.03423397  0.25694487  0.96581953],[ 0.4236712   0.14113185 -0.89475388],[-0.57202423  0.17286703 -0.80181374],[-0.02994249 -0.13829843  0.98993787],3.3459334783730776,8.85030964703526,48.0903887154414,[0.4081264  0.0585713  0.05800644 0.90919607],[ 0.4062766   0.01350267 -0.03648547  0.91292158]
1717779002.4812605,6.920000000000001,-20.240000000000002,-43.50666666666667,-21.52439024390244,1.2804878048780488,0.24390243902439027,-0.00537109375,-0.18994140625,-0.977294921875,0.4897360703812317,0.46920821114369504,0.45161290322580644,0.02346041055718475,0.026392961876832845,0.026392961876832845,42.3,-83.7,0.3,[-0.0113951   0.25657963  0.96645592],[ 0.4174861   0.14273734 -0.89740259],[-0.57202423  0.17286703 -0.80181374],[-0.02994249 -0.13829843  0.98993787],2.5252805752563616,9.41374058547852,47.15694123923352,[0.40021611 0.06640443 0.05294329 0.91247714],[ 0.40281412 -0.00656982 -0.08735879  0.91107961]
1717779002.5082946,6.906666666666667,-20.14666666666667,-43.56,2.8658536585365857,-0.3658536585365854,0.3658536585365854,0.004638671875,-0.21435546875,-0.9833984375,0.49266862170087977,0.46920821114369504,0.45161290322580644,0.02346041055718475,0.026392961876832845,0.02932551319648094,42.3,-83.7,0.3,[-0.02262346  0.27429488  0.96137948],[ 0.41549997  0.14244142 -0.89837087],[-0.57202423  0.17286703 -0.80181374],[-0.02994249 -0.13829843  0.98993787],3.3407382455884003,10.133296193897833,49.08164918213257,[0.41588457 0.0682429  0.0630776  0.90465692],[0.40500194 0.08359422 0.08620829 0.90639592]
1717779002.535796,6.933333333333334,-20.093333333333334,-43.62666666666667,-10.30487804878049,0.6707317073170732,0.12195121951219513,-0.0400390625,-0.16748046875,-1.00634765625,0.49266862170087977,0.46920821114369504,0.45454545454545453,0.02346041055718475,0.026392961876832845,0.02932551319648094,42.3,-83.7,0.3,[-0.0340355   0.25545525  0.96622161],[ 0.41404485  0.14286883 -0.89897462],[-0.57202423  0.17286703 -0.80181374],[-0.02994249 -0.13829843  0.98993787],3.133363837237887,9.017030769529681,48.89686444847081,[0.41439563 0.06025167 0.05733319 0.90628853],[ 0.41697422  0.00475082 -0.04903001  0.9075825 ]
1717779002.563165,6.800000000000001,-20.053333333333335,-43.653333333333336,-3.5975609756097566,1.0365853658536586,0.12195121951219513,0.00927734375,-0.345458984375,-0.977783203125,0.49266862170087977,0.46920821114369504,0.45454545454545453,0.02346041055718475,0.026392961876832845,0.02932551319648094,42.3,-83.7,0.3,[-0.0340355   0.25545525  0.96622161],[ 0.41331798  0.14015437 -0.89973607],[-0.57202423  0.17286703 -0.80181374],[-0.02994249 -0.13829843  0.98993787],3.1543152818160047,9.01601509438028,48.76081191040886,[0.4133304  0.06023608 0.05742377 0.90677015],[ 0.41527872  0.01031273 -0.00609468  0.90961535]
1717779002.5893266,6.933333333333334,-19.733333333333334,-43.96,-18.84146341463415,-0.9756097560975611,1.0365853658536586,-0.02099609375,-0.13818359375,-0.987548828125,0.49266862170087977,0.47214076246334313,0.4574780058651026,0.02346041055718475,0.026392961876832845,0.02932551319648094,42.3,-83.7,0.3,[-0.02271931  0.23610601  0.97146168],[ 0.40535003  0.14242028 -0.90299935],[-0.57202423  0.17286703 -0.80181374],[-0.02994249 -0.13829843  0.98993787],2.0984715421971147,8.448496783670205,47.576118156700105,[0.40342564 0.06002507 0.04641662 0.91186087],[ 0.39755292  0.00233546 -0.09487035  0.91265867]
1717779002.616339,6.960000000000001,-19.720000000000002,-43.96,-11.585365853658537,1.829268292682927,0.06097560975609757,-0.041259765625,-0.48291015625,-0.986572265625,0.49266862170087977,0.47214076246334313,0.4574780058651026,0.02346041055718475,0.026392961876832845,0.02932551319648094,42.3,-83.7,0.3,[-0.02271931  0.23610601  0.97146168],[ 0.40508943  0.14297274 -0.90302898],[-0.57202423  0.17286703 -0.80181374],[-0.02994249 -0.13829843  0.98993787],2.088459611430476,8.457690888891673,47.63932649616468,[0.40392226 0.06010798 0.04640228 0.91163626],[ 0.40920409 -0.01509377 -0.07635133  0.90911752]
1717779002.6433918,6.960000000000001,-19.346666666666668,-44.25333333333334,-1.9512195121951221,-1.2195121951219514,0.1829268292682927,-0.001220703125,0.0556640625,-1.015869140625,0.49266862170087977,0.47214076246334313,0.4604105571847507,0.02346041055718475,0.026392961876832845,0.02932551319648094,42.3,-83.7,0.3,[-0.03415355  0.2169042   0.97559526],[ 0.39647701  0.14263335 -0.90689675],[-0.57202423  0.17286703 -0.80181374],[-0.02994249 -0.13829843  0.98993787],1.7680115614765226,7.477691667420428,47.86244033110665,[0.40564774 0.053351   0.04052003 0.91157101],[ 0.40247298  0.04938471 -0.01774846  0.9139265 ]
1717779002.6703744,6.973333333333334,-19.506666666666668,-44.17333333333334,4.634146341463415,2.987804878048781,-0.5487804878048781,-0.08203125,-0.427734375,-0.97216796875,0.49266862170087977,0.47214076246334313,0.4574780058651026,0.02346041055718475,0.026392961876832845,0.026392961876832845,42.3,-83.7,0.3,[-0.02271931  0.23610601  0.97146168],[ 0.39981234  0.14292676 -0.90538502],[-0.57202423  0.17286703 -0.80181374],[-0.02994249 -0.13829843  0.98993787],2.0146521430697746,8.57359447689648,48.06865232083158,[0.40728186 0.06111766 0.04645049 0.91007058],[0.40844637 0.04569823 0.12451967 0.90309362]
1717779002.7008061,6.920000000000001,-19.333333333333336,-44.28,-4.146341463414634,-0.6707317073170732,0.12195121951219513,0.045166015625,-0.065185546875,-0.981201171875,0.49266862170087977,0.47214076246334313,0.4604105571847507,0.02346041055718475,0.026392961876832845,0.02932551319648094,42.3,-83.7,0.3,[-0.03415355  0.2169042   0.97559526],[ 0.39609648  0.14177522 -0.90719753],[-0.57202423  0.17286703 -0.80181374],[-0.02994249 -0.13829843  0.98993787],1.7721550492161782,7.480489137128972,47.82631469686196,[0.40536197 0.05337139 0.04054602 0.91169578],[ 0.40566693  0.03385017 -0.01699011  0.91323592]
1717779002.7293713,6.960000000000001,-19.400000000000002,-44.30666666666667,-11.707317073170733,-1.2804878048780488,-0.06097560975609757,-0.04345703125,-0.290771484375,-0.994873046875,0.49560117302052786,0.47214076246334313,0.4574780058651026,0.02346041055718475,0.026392961876832845,0.02932551319648094,42.3,-83.7,0.3,[-0.03383923  0.25398219  0.96661676],[ 0.39700435  0.14243043 -0.90669792],[-0.57202423  0.17286703 -0.80181374],[-0.02994249 -0.13829843  0.98993787],2.8277961922348136,9.342622446498153,50.19391859721591,[0.42443352 0.06329739 0.05680309 0.90145606],[ 0.42807871  0.02096714 -0.07435472  0.90043344]
1717779002.7516706,7.026666666666667,-19.173333333333336,-44.413333333333334,-0.9756097560975611,1.5853658536585367,0.3658536585365854,0.009033203125,-0.150146484375,-0.99169921875,0.49560117302052786,0.47214076246334313,0.4574780058651026,0.02346041055718475,0.026392961876832845,0.02932551319648094,42.3,-83.7,0.3,[-0.03383923  0.25398219  0.96661676],[ 0.39223011  0.14374497 -0.90856641],[-0.57202423  0.17286703 -0.80181374],[-0.02994249 -0.13829843  0.98993787],2.7355069414153683,9.462444756475305,50.70001655465331,[0.42834557 0.0643333  0.05680179 0.89953035],[0.42571889 0.02335799 0.03436551 0.90390091]
1717779002.792852,7.013333333333334,-19.053333333333335,-44.61333333333334,-30.243902439024392,-0.6707317073170732,1.0975609756097562,0.017333984375,-0.16943359375,-0.987060546875,0.49560117302052786,0.4750733137829912,0.4604105571847507,0.02346041055718475,0.026392961876832845,0.02932551319648094,42.3,-83.7,0.3,[-0.02258743  0.23473549  0.97179682],[ 0.3887168   0.1430826  -0.91017944],[-0.57202423  0.17286703 -0.80181374],[-0.02994249 -0.13829843  0.98993787],1.8091293319752508,8.752781282215267,48.909958855228744,[0.41381622 0.06293726 0.04591475 0.90702088],[ 0.40941206 -0.0028657  -0.09891419  0.90696722]
1717779002.8150835,7.026666666666667,-18.8,-44.733333333333334,6.585365853658537,0.1829268292682927,0.30487804878048785,0.0,-0.327880859375,-0.97802734375,0.49560117302052786,0.4750733137829912,0.4604105571847507,0.02346041055718475,0.026392961876832845,0.026392961876832845,42.3,-83.7,0.3,[-0.02258743  0.23473549  0.97179682],[ 0.38344316  0.14331528 -0.91237716],[-0.57202423  0.17286703 -0.80181374],[-0.02994249 -0.13829843  0.98993787],1.7281119242766863,8.869852412325425,49.37759591821123,[0.41745094 0.06397043 0.04595547 0.90527929],[0.40593736 0.09220365 0.11800014 0.90154829]
1717779002.8350344,7.4,-18.78666666666667,-44.760000000000005,-13.719512195121952,0.30487804878048785,-0.24390243902439027,-0.028564453125,-0.11572265625,-1.0068359375,0.49560117302052786,0.4750733137829912,0.4604105571847507,0.02346041055718475,0.026392961876832845,0.02932551319648094,42.3,-83.7,0.3,[-0.02258743  0.23473549  0.97179682],[ 0.38259301  0.150702   -0.91154347],[-0.57202423  0.17286703 -0.80181374],[-0.02994249 -0.13829843  0.98993787],1.6280287765121735,8.928208826267692,50.007036298884884,[0.42235126 0.06454628 0.04573156 0.90297387],[ 0.42750573  0.00755202 -0.07012195  0.9012573 ]
1717779002.8627274,7.013333333333334,-18.653333333333336,-44.81333333333334,3.536585365853659,0.6097560975609757,0.12195121951219513,-0.000732421875,-0.26171875,-0.98779296875,0.49560117302052786,0.4750733137829912,0.4604105571847507,0.02346041055718475,0.026392961876832845,0.02932551319648094,42.3,-83.7,0.3,[-0.02258743  0.23473549  0.97179682],[ 0.38033443  0.14299922 -0.91372695],[-0.57202423  0.17286703 -0.80181374],[-0.02994249 -0.13829843  0.98993787],1.6850288200749437,8.936294616420854,49.62150856197823,[0.41934171 0.06455507 0.04599344 0.90436153],[0.41550522 0.07306581 0.0901625  0.90215715]
1717779002.886724,7.04,-18.653333333333336,-44.92,-10.792682926829269,-0.9146341463414634,0.30487804878048785,-0.0166015625,-0.166259765625,-0.997314453125,0.49560117302052786,0.4750733137829912,0.4633431085043988,0.02346041055718475,0.026392961876832845,0.02932551319648094,42.3,-83.7,0.3,[-0.03395404  0.21563709  0.97588307],[ 0.37955051  0.14324708 -0.91401405],[-0.57202423  0.17286703 -0.80181374],[-0.02994249 -0.13829843  0.98993787],1.496797599175205,7.797461750249832,49.27978937896348,[0.41672071 0.05636389 0.04018974 0.90639492],[ 0.41776283  0.01504603 -0.0732481   0.90547366]
1717779002.913789,7.066666666666667,-18.546666666666667,-44.93333333333334,-6.097560975609756,0.48780487804878053,0.6097560975609757,-0.03173828125,-0.2529296875,-0.995361328125,0.49560117302052786,0.4750733137829912,0.4633431085043988,0.02346041055718475,0.026392961876832845,0.02932551319648094,42.3,-83.7,0.3,[-0.03395404  0.21563709  0.97588307],[ 0.37756724  0.14386099 -0.91473876],[-0.57202423  0.17286703 -0.80181374],[-0.02994249 -0.13829843  0.98993787],1.4633926264687644,7.845131276301075,49.505362684402535,[0.41848065 0.05678368 0.04021006 0.90555657],[ 0.41445014  0.00526642 -0.0553652   0.90837109]
1717779002.9412317,7.066666666666667,-18.52,-45.013333333333335,-3.1707317073170733,-0.5487804878048781,1.1585365853658538,0.007568359375,-0.10693359375,-0.993408203125,0.49560117302052786,0.4750733137829912,0.4633431085043988,0.02346041055718475,0.026392961876832845,0.02932551319648094,42.3,-83.7,0.3,[-0.03395404  0.21563709  0.97588307],[ 0.37654035  0.1436763  -0.91519095],[-0.57202423  0.17286703 -0.80181374],[-0.02994249 -0.13829843  0.98993787],1.451401018354979,7.866788763916911,49.58243414195785,[0.41908041 0.05697171 0.04023241 0.90526636],[ 0.4013189   0.03460778 -0.02776437  0.91486315]
1717779002.9677382,7.12,-18.573333333333334,-44.973333333333336,-8.170731707317074,0.426829268292683,0.30487804878048785,-0.03759765625,-0.316650390625,-1.008544921875,0.49560117302052786,0.4750733137829912,0.4633431085043988,0.02346041055718475,0.026392961876832845,0.02932551319648094,42.3,-83.7,0.3,[-0.03395404  0.21563709  0.97588307],[ 0.3776922   0.14478653 -0.91454112],[-0.57202423  0.17286703 -0.80181374],[-0.02994249 -0.13829843  0.98993787],1.4551617697417016,7.847877117953018,49.56788091607716,[0.41897015 0.05681354 0.040186   0.9053294 ],[ 0.41778893  0.00424456 -0.0669194   0.90606633]
1717779002.9948354,7.08,-18.173333333333336,-45.29333333333334,-16.52439024390244,0.6097560975609757,0.0,-0.018798828125,-0.02392578125,-1.0166015625,0.49853372434017595,0.4750733137829912,0.4633431085043988,0.02346041055718475,0.026392961876832845,0.02932551319648094,42.3,-83.7,0.3,[-0.04496654  0.23365299  0.97127972],[ 0.3685219   0.14356943 -0.9184658 ],[-0.57202423  0.17286703 -0.80181374],[-0.02994249 -0.13829843  0.98993787],2.1790432839723186,8.803711264063711,52.404506126684375,[0.44146854 0.06048102 0.05089309 0.89378827],[ 0.44421663 -0.00859561 -0.08643491  0.89169878]
1717779003.021853,7.12,-18.16,-45.26666666666667,-2.0121951219512195,0.9756097560975611,-0.06097560975609757,0.004638671875,-0.323974609375,-0.973876953125,0.49853372434017595,0.4750733137829912,0.4633431085043988,0.02346041055718475,0.026392961876832845,0.02932551319648094,42.3,-83.7,0.3,[-0.04496654  0.23365299  0.97127972],[ 0.36842817  0.14444981 -0.91836536],[-0.57202423  0.17286703 -0.80181374],[-0.02994249 -0.13829843  0.98993787],2.167671403064186,8.810977344132093,52.47924059137919,[0.44204428 0.06054842 0.05087172 0.89350031],[0.4470445  0.0184831  0.00646311 0.89429739]
1717779003.0489013,7.16,-18.040000000000003,-45.38666666666667,-0.6097560975609757,-0.7926829268292683,0.3658536585365854,0.00048828125,-0.043701171875,-1.01025390625,0.49853372434017595,0.4780058651026393,0.4633431085043988,0.02346041055718475,0.026392961876832845,0.02932551319648094,42.3,-83.7,0.3,[-0.02245703  0.23338033  0.97212618],[ 0.36545959  0.14504937 -0.91945634],[-0.57202423  0.17286703 -0.80181374],[-0.02994249 -0.13829843  0.98993787],1.3889662385493406,9.206416859468558,50.98894431493905,[0.42988214 0.06723454 0.04544623 0.8992305 ],[0.42655626 0.06850368 0.02263647 0.90157894]
1717779003.0758862,7.16,-18.080000000000002,-45.38666666666667,-5.060975609756098,1.524390243902439,0.06097560975609757,-0.052734375,-0.309326171875,-0.99658203125,0.49853372434017595,0.4780058651026393,0.4633431085043988,0.02346041055718475,0.026392961876832845,0.02932551319648094,42.3,-83.7,0.3,[-0.02245703  0.23338033  0.97212618],[ 0.36616138  0.14500639 -0.91918387],[-0.57202423  0.17286703 -0.80181374],[-0.02994249 -0.13829843  0.98993787],1.4006409151169192,9.190910813208342,50.92279695136084,[0.42937302 0.06709519 0.04544119 0.89948438],[ 0.43213178  0.01029221 -0.02047871  0.90151917]
1717779003.1029828,7.186666666666667,-17.96,-45.480000000000004,2.1341463414634148,-0.7317073170731708,0.30487804878048785,0.029052734375,-0.061279296875,-0.99169921875,0.49853372434017595,0.4780058651026393,0.4633431085043988,0.02346041055718475,0.026392961876832845,0.02932551319648094,42.3,-83.7,0.3,[-0.02245703  0.23338033  0.97212618],[ 0.36339302  0.14541116 -0.92021797],[-0.57202423  0.17286703 -0.80181374],[-0.02994249 -0.13829843  0.98993787],1.3515651984694084,9.253208403390689,51.202155589772886,[0.43152272 0.06765791 0.04545352 0.89841223],[0.42437574 0.08829862 0.06550339 0.8987869 ]
1717779003.1299033,7.173333333333334,-17.94666666666667,-45.480000000000004,-12.01219512195122,-0.853658536585366,0.5487804878048781,-0.041748046875,-0.19677734375,-1.01806640625,0.49853372434017595,0.4780058651026393,0.4662756598240469,0.02346041055718475,0.026392961876832845,0.02932551319648094,42.3,-83.7,0.3,[-0.03375678  0.21438434  0.97616588],[ 0.36317307  0.1451613  -0.92034424],[-0.57202423  0.17286703 -0.80181374],[-0.02994249 -0.13829843  0.98993787],1.2074207981895217,8.11117004580855,50.815021520649104,[0.42862851 0.05937074 0.0398364  0.90064742],[ 0.42961685  0.01450991 -0.07990324  0.89935216]
1717779003.1570873,7.2,-17.84,-45.53333333333334,-3.1707317073170733,1.6463414634146343,-0.24390243902439027,0.01025390625,-0.15966796875,-0.987548828125,0.49853372434017595,0.4780058651026393,0.4662756598240469,0.02346041055718475,0.026392961876832845,0.02932551319648094,42.3,-83.7,0.3,[-0.03375678  0.21438434  0.97616588],[ 0.36090961  0.14565859 -0.9211557 ],[-0.57202423  0.17286703 -0.80181374],[-0.02994249 -0.13829843  0.98993787],1.1694440274993554,8.163842296809237,51.06476356881343,[0.43056087 0.05984032 0.03986483 0.89969288],[ 0.43951594  0.00427417 -0.01378835  0.89811878]
1717779003.1839137,7.2,-17.62666666666667,-45.720000000000006,-21.097560975609756,-1.2804878048780488,-0.12195121951219513,0.007568359375,-0.072509765625,-1.00830078125,0.49853372434017595,0.4780058651026393,0.4662756598240469,0.02346041055718475,0.026392961876832845,0.02932551319648094,42.3,-83.7,0.3,[-0.03375678  0.21438434  0.97616588],[ 0.35590493  0.1453772  -0.92314525],[-0.57202423  0.17286703 -0.80181374],[-0.02994249 -0.13829843  0.98993787],1.0995191642053226,8.272824129685377,51.511758871589606,[0.43400916 0.06080383 0.03996156 0.89796549],[ 4.35129546e-01 -6.35548128e-04 -1.03027537e-01  8.94453577e-01]
1717779003.217435,7.213333333333334,-17.52,-45.760000000000005,4.878048780487806,0.426829268292683,0.7317073170731708,-0.01220703125,-0.171630859375,-1.005126953125,0.49853372434017595,0.4780058651026393,0.4662756598240469,0.02346041055718475,0.026392961876832845,0.02932551319648094,42.3,-83.7,0.3,[-0.03375678  0.21438434  0.97616588],[ 0.35374381  0.14564338 -0.92393361],[-0.57202423  0.17286703 -0.80181374],[-0.02994249 -0.13829843  0.98993787],1.0645855530753883,8.321907980511881,51.737415657913395,[0.43574814 0.06124238 0.03999386 0.89709165],[0.42034702 0.07980523 0.09552209 0.89878531]
1717779003.2394009,7.253333333333334,-17.48,-45.84,-12.80487804878049,-0.426829268292683,0.6097560975609757,-0.00439453125,-0.070068359375,-1.007080078125,0.49853372434017595,0.4780058651026393,0.4662756598240469,0.02346041055718475,0.026392961876832845,0.02932551319648094,42.3,-83.7,0.3,[-0.03375678  0.21438434  0.97616588],[ 0.35246901  0.14625716 -0.92432377],[-0.57202423  0.17286703 -0.80181374],[-0.02994249 -0.13829843  0.98993787],1.0387775006104467,8.353159284814282,51.90714851020739,[0.43705618 0.06152614 0.04000151 0.89643534],[ 0.4341504   0.0108308  -0.07779391  0.89740973]
1717779003.2657392,7.253333333333334,-17.373333333333335,-45.89333333333334,-8.475609756097562,0.7926829268292683,0.853658536585366,-0.0205078125,-0.287841796875,-1.003173828125,0.49853372434017595,0.4780058651026393,0.46920821114369504,0.02346041055718475,0.026392961876832845,0.02932551319648094,42.3,-83.7,0.3,[-0.04508152  0.1952087   0.97972507],[ 0.35023454  0.14622225 -0.92517827],[-0.57202423  0.17286703 -0.80181374],[-0.02994249 -0.13829843  0.98993787],0.871617030291791,7.2507206591514635,51.7131349602283,[0.43566723 0.05358976 0.03440709 0.89785208],[ 0.42999966 -0.01045379 -0.07475911  0.89966777]
1717779003.2921283,7.2666666666666675,-17.12,-46.093333333333334,-4.634146341463415,-0.48780487804878053,-0.7926829268292683,-0.015869140625,0.03466796875,-1.018798828125,0.49853372434017595,0.4809384164222874,0.46920821114369504,0.02346041055718475,0.026392961876832845,0.02932551319648094,42.3,-83.7,0.3,[-0.02251405  0.19497743  0.98054929],[ 0.34443862  0.14619863 -0.92735538],[-0.57202423  0.17286703 -0.80181374],[-0.02994249 -0.13829843  0.98993787],0.03978591960755618,7.735991004912153,50.33041714007437,[0.42428233 0.06090794 0.02899867 0.90301374],[ 0.43809064  0.02720302 -0.0573624   0.8966862 ]
1717779003.3190389,7.28,-17.173333333333336,-46.053333333333335,4.451219512195122,1.402439024390244,-0.853658536585366,-0.041259765625,-0.3017578125,-0.988525390625,0.49853372434017595,0.4809384164222874,0.46920821114369504,0.02346041055718475,0.026392961876832845,0.02932551319648094,42.3,-83.7,0.3,[-0.02251405  0.19497743  0.98054929],[ 0.34562798  0.14651621 -0.92686261],[-0.57202423  0.17286703 -0.80181374],[-0.02994249 -0.13829843  0.98993787],0.05253871287499185,7.71313616717087,50.24520114895047,[0.42362308 0.06070217 0.02896942 0.90333798],[0.43376757 0.06817496 0.09402345 0.89350851]
1717779003.346439,7.28,-17.013333333333335,-46.160000000000004,-7.25609756097561,-1.0975609756097562,0.3658536585365854,0.01220703125,-0.0478515625,-1.000732421875,0.501466275659824,0.4809384164222874,0.46920821114369504,0.02346041055718475,0.026392961876832845,0.02932551319648094,42.3,-83.7,0.3,[-0.03356175  0.21314571  0.97644381],[ 0.34210546  0.14638682 -0.92818896],[-0.57202423  0.17286703 -0.80181374],[-0.02994249 -0.13829843  0.98993787],0.8415061269687728,8.521476361128755,52.81473545641099,[0.44399789 0.06328423 0.03960104 0.8929125 ],[ 0.44217796  0.03287733 -0.05410596  0.89469005]
1717779003.3731408,7.32,-16.973333333333333,-46.22666666666667,-19.512195121951223,0.06097560975609757,0.0,-0.0400390625,-0.296142578125,-0.991455078125,0.501466275659824,0.4809384164222874,0.46920821114369504,0.02346041055718475,0.026392961876832845,0.02932551319648094,42.3,-83.7,0.3,[-0.03356175  0.21314571  0.97644381],[ 0.34093027  0.1470312  -0.92851945],[-0.57202423  0.17286703 -0.80181374],[-0.02994249 -0.13829843  0.98993787],0.816059190400177,8.550284577227464,52.98060726401265,[0.44526912 0.06355016 0.03960616 0.89226013],[ 0.45127866 -0.0048933  -0.09992927  0.88675688]
1717779003.4002001,7.36,-16.560000000000002,-46.54666666666667,-4.024390243902439,0.48780487804878053,1.8902439024390245,-0.01171875,0.061279296875,-1.026123046875,0.501466275659824,0.4809384164222874,0.46920821114369504,0.02346041055718475,0.026392961876832845,0.02932551319648094,42.3,-83.7,0.3,[-0.03356175  0.21314571  0.97644381],[ 0.331532    0.14734756 -0.93186653],[-0.57202423  0.17286703 -0.80181374],[-0.02994249 -0.13829843  0.98993787],0.6634283652137837,8.757660095797236,53.938385301350344,[0.45257394 0.06542847 0.0397701  0.88843361],[ 0.42810293  0.01551755 -0.03461829  0.90293337]
1717779003.4272518,7.346666666666668,-16.64,-46.413333333333334,-10.426829268292684,0.5487804878048781,-0.48780487804878053,-0.035400390625,-0.288818359375,-1.00537109375,0.501466275659824,0.4809384164222874,0.47214076246334313,0.02346041055718475,0.026392961876832845,0.02932551319648094,42.3,-83.7,0.3,[-0.0448197   0.19407498  0.97996229],[ 0.33379884  0.14737433 -0.9310527 ],[-0.57202423  0.17286703 -0.80181374],[-0.02994249 -0.13829843  0.98993787],0.5966704791131768,7.5704078576488145,53.36060181244186,[0.44833339 0.05665354 0.03428402 0.89141021],[ 0.45453289 -0.0063655  -0.08208112  0.88691715]
1717779003.4599507,7.36,-16.42666666666667,-46.58666666666667,-7.317073170731708,-0.853658536585366,0.48780487804878053,0.01904296875,-0.030517578125,-0.98583984375,0.501466275659824,0.4809384164222874,0.46920821114369504,0.02346041055718475,0.026392961876832845,0.02932551319648094,42.3,-83.7,0.3,[-0.03356175  0.21314571  0.97644381],[ 0.32890702  0.14736743 -0.93279312],[-0.57202423  0.17286703 -0.80181374],[-0.02994249 -0.13829843  0.98993787],0.6205419735654357,8.815181542220062,54.204597691335245,[0.45459709 0.06595167 0.03981771 0.88735924],[ 0.4505633   0.02085693 -0.07259036  0.8895439 ]
1717779003.4813573,7.36,-16.493333333333336,-46.52,-10.060975609756099,0.5487804878048781,0.6707317073170732,-0.0517578125,-0.2841796875,-1.01220703125,0.501466275659824,0.4809384164222874,0.47214076246334313,0.02346041055718475,0.026392961876832845,0.02932551319648094,42.3,-83.7,0.3,[-0.0448197   0.19407498  0.97996229],[ 0.33050781  0.1474861  -0.93220837],[-0.57202423  0.17286703 -0.80181374],[-0.02994249 -0.13829843  0.98993787],0.5486885481257993,7.644563008187267,53.71106474668822,[0.45101719 0.05731343 0.03437595 0.89000953],[ 0.44911992 -0.00814705 -0.0826681   0.88960154]
1717779003.5088885,7.373333333333334,-16.26666666666667,-46.70666666666667,-2.987804878048781,0.30487804878048785,0.24390243902439027,0.010498046875,-0.12646484375,-1.001708984375,0.501466275659824,0.4809384164222874,0.47214076246334313,0.02346041055718475,0.026392961876832845,0.02932551319648094,42.3,-83.7,0.3,[-0.0448197   0.19407498  0.97996229],[ 0.3253019   0.14745242 -0.93404307],[-0.57202423  0.17286703 -0.80181374],[-0.02994249 -0.13829843  0.98993787],0.4734712065341078,7.760833520888803,54.254462326740644,[0.4551676  0.05834969 0.0345259  0.88782077],[ 0.45313336  0.02002964 -0.0269242   0.8908109 ]
1717779003.5386424,7.413333333333334,-16.093333333333334,-46.81333333333334,-24.878048780487806,-1.0365853658536586,0.5487804878048781,-0.02685546875,-0.172119140625,-1.00341796875,0.501466275659824,0.4838709677419355,0.47214076246334313,0.02346041055718475,0.026392961876832845,0.02932551319648094,42.3,-83.7,0.3,[-0.02238334  0.19384545  0.9807767 ],[ 0.32151698  0.14810558 -0.93524947],[-0.57202423  0.17286703 -0.80181374],[-0.02994249 -0.13829843  0.98993787],-0.34210996355297263,8.157715002613473,52.62518633742265,[0.44195314 0.06507932 0.02885989 0.8942087 ],[ 0.44163034 -0.00178747 -0.11499876  0.88979477]
1717779003.5630755,7.386666666666667,-15.96,-46.88,7.8048780487804885,1.6463414634146343,0.0,0.016357421875,-0.287841796875,-0.99609375,0.501466275659824,0.4838709677419355,0.47214076246334313,0.02346041055718475,0.026392961876832845,0.02932551319648094,42.3,-83.7,0.3,[-0.02238334  0.19384545  0.9807767 ],[ 0.31875286  0.14752639 -0.93628659],[-0.57202423  0.17286703 -0.80181374],[-0.02994249 -0.13829843  0.98993787],-0.3771050615571155,8.211679629446818,52.85546282244947,[0.44371298 0.0655773  0.02892696 0.89329818],[0.43753261 0.08418933 0.1174927  0.88750935]
1717779003.5893137,7.426666666666667,-15.933333333333334,-46.93333333333334,-16.28048780487805,-0.7926829268292683,0.48780487804878053,-0.017333984375,-0.021728515625,-1.019287109375,0.501466275659824,0.4838709677419355,0.4750733137829912,0.02346041055718475,0.026392961876832845,0.02932551319648094,42.3,-83.7,0.3,[-0.0336194   0.17469151  0.98404909],[ 0.31791953  0.14818508 -0.93646589],[-0.57202423  0.17286703 -0.80181374],[-0.02994249 -0.13829843  0.98993787],-0.5129735762105576,7.091597684834308,52.55638319172158,[0.44162973 0.0574324  0.02337475 0.89505213],[ 0.44037733  0.00289557 -0.09923127  0.89230744]
1717779003.6163664,7.44,-15.853333333333333,-46.94666666666667,3.048780487804878,1.9512195121951221,0.12195121951219513,-0.001220703125,-0.180908203125,-1.017333984375,0.501466275659824,0.4838709677419355,0.4750733137829912,0.02346041055718475,0.026392961876832845,0.02932551319648094,42.3,-83.7,0.3,[-0.0336194   0.17469151  0.98404909],[ 0.31639212  0.14848344 -0.9369358 ],[-0.57202423  0.17286703 -0.80181374],[-0.02994249 -0.13829843  0.98993787],-0.5360990992542207,7.124464362628176,52.743142811345585,[0.4430672  0.05774008 0.02341507 0.89432057],[0.44083367 0.04290736 0.06917512 0.89389006]
1717779003.6433535,7.426666666666667,-15.733333333333334,-47.0,-9.939024390243903,-1.1585365853658538,0.6707317073170732,0.03857421875,-0.04443359375,-0.995849609375,0.501466275659824,0.4838709677419355,0.4750733137829912,0.02346041055718475,0.026392961876832845,0.02932551319648094,42.3,-83.7,0.3,[-0.0336194   0.17469151  0.98404909],[ 0.31393335  0.14818718 -0.93780937],[-0.57202423  0.17286703 -0.80181374],[-0.02994249 -0.13829843  0.98993787],-0.5660215600194201,7.174073527796712,52.976999480519375,[0.44486236 0.058195   0.02349239 0.89339741],[ 0.43824345  0.01605768 -0.08693499  0.89449826]
1717779003.6703913,7.466666666666667,-15.693333333333335,-47.06666666666667,-6.52439024390244,-0.24390243902439027,0.1829268292682927,-0.0595703125,-0.193359375,-1.01611328125,0.501466275659824,0.4838709677419355,0.4750733137829912,0.02346041055718475,0.026392961876832845,0.02932551319648094,42.3,-83.7,0.3,[-0.0336194   0.17469151  0.98404909],[ 0.31278611  0.14881922 -0.93809258],[-0.57202423  0.17286703 -0.80181374],[-0.02994249 -0.13829843  0.98993787],-0.5876870023547522,7.200408508976579,53.15439951764942,[0.4462264  0.05844802 0.02351636 0.89269973],[ 0.44685165  0.01368796 -0.07911437  0.89099784]
1717779003.6976645,7.466666666666667,-15.56,-47.13333333333333,-5.426829268292684,0.9146341463414634,0.3658536585365854,-0.002685546875,-0.086181640625,-1.001708984375,0.501466275659824,0.4838709677419355,0.4750733137829912,0.02346041055718475,0.026392961876832845,0.02932551319648094,42.3,-83.7,0.3,[-0.0336194   0.17469151  0.98404909],[ 0.30999855  0.1487568  -0.93902732],[-0.57202423  0.17286703 -0.80181374],[-0.02994249 -0.13829843  0.98993787],-0.6249613748169901,7.257766737063144,53.4468377309072,[0.44846748 0.05897981 0.02360022 0.89153874],[ 0.44777639  0.00141714 -0.05978803  0.89214331]
1717779003.725677,7.493333333333334,-15.493333333333334,-47.25333333333334,-9.02439024390244,-0.30487804878048785,0.24390243902439027,-0.016357421875,-0.1689453125,-1.005859375,0.501466275659824,0.4838709677419355,0.4780058651026393,0.02346041055718475,0.026392961876832845,0.02932551319648094,42.3,-83.7,0.3,[-0.0448625   0.15540827  0.9868311 ],[ 0.30808061  0.14900284 -0.93961933],[-0.57202423  0.17286703 -0.80181374],[-0.02994249 -0.13829843  0.98993787],-0.7654394616437395,6.154257316980937,53.214072185572434,[0.44689257 0.05098167 0.01807748 0.89295078],[ 0.44548369 -0.00316088 -0.09645524  0.89007341]
1717779003.7543092,7.506666666666667,-15.32,-47.333333333333336,-1.7682926829268295,0.24390243902439027,0.3658536585365854,-0.02392578125,-0.112548828125,-1.011962890625,0.5043988269794721,0.4838709677419355,0.4750733137829912,0.02346041055718475,0.026392961876832845,0.02932551319648094,42.3,-83.7,0.3,[-0.04456084  0.19295409  0.98019542],[ 0.30448792  0.14919643 -0.94075902],[-0.57202423  0.17286703 -0.80181374],[-0.02994249 -0.13829843  0.98993787],0.10093725721610994,8.176559163842555,56.55119646938887,[0.47256288 0.06237039 0.03454638 0.87840811],[ 0.46533265  0.0338017  -0.0114905   0.88441559]
1717779003.7785895,7.493333333333334,-15.293333333333335,-47.333333333333336,-2.439024390243903,-0.12195121951219513,0.30487804878048785,-0.000732421875,-0.109130859375,-1.00341796875,0.5043988269794721,0.4838709677419355,0.4750733137829912,0.02346041055718475,0.026392961876832845,0.02932551319648094,42.3,-83.7,0.3,[-0.04456084  0.19295409  0.98019542],[ 0.30401895  0.14896133 -0.94094793],[-0.57202423  0.17286703 -0.80181374],[-0.02994249 -0.13829843  0.98993787],0.09584988565108823,8.18608711173025,56.584685131306486,[0.47281405 0.06245431 0.03456492 0.87826624],[ 0.46891439  0.03962709 -0.01261754  0.88226401]
1717779003.8055692,7.533333333333334,-15.293333333333335,-47.32,-1.3414634146341464,0.24390243902439027,0.426829268292683,-0.02294921875,-0.126220703125,-1.010986328125,0.501466275659824,0.4838709677419355,0.4780058651026393,0.02346041055718475,0.026392961876832845,0.02932551319648094,42.3,-83.7,0.3,[-0.0448625   0.15540827  0.9868311 ],[ 0.30405866  0.14977606 -0.94080575],[-0.57202423  0.17286703 -0.80181374],[-0.02994249 -0.13829843  0.98993787],-0.8194685378532164,6.24264123083535,53.73900242569759,[0.45093056 0.05179782 0.01823912 0.89086809],[ 0.44762842  0.03406645 -0.00664272  0.89354583]
1717779003.8326552,7.506666666666667,-15.280000000000001,-47.30666666666667,-7.439024390243903,0.48780487804878053,0.6097560975609757,-0.013427734375,-0.14453125,-1.0068359375,0.5043988269794721,0.4838709677419355,0.4780058651026393,0.02346041055718475,0.026392961876832845,0.02932551319648094,42.3,-83.7,0.3,[-0.05575969  0.17384151  0.98319377],[ 0.30391796  0.14930699 -0.94092576],[-0.57202423  0.17286703 -0.80181374],[-0.02994249 -0.13829843  0.98993787],0.03516014147292721,7.0661483082518055,56.34169671319956,[0.47122167 0.05418029 0.02936313 0.87985933],[ 0.46384831 -0.00169094 -0.06629982  0.88342867]
1717779003.8598087,7.573333333333334,-15.146666666666668,-47.36000000000001,-8.414634146341465,-0.24390243902439027,0.426829268292683,-0.005859375,-0.099853515625,-1.008056640625,0.5043988269794721,0.4868035190615836,0.4750733137829912,0.026392961876832845,0.026392961876832845,0.02932551319648094,42.3,-83.7,0.3,[-0.02225411  0.19272628  0.98100017],[ 0.30114702  0.15057351 -0.94161462],[-0.57202423  0.17286703 -0.80181374],[-0.02994249 -0.13829843  0.98993787],-0.7169033754277949,8.522987000813455,54.83723769772042,[0.45879351 0.06883276 0.02867955 0.88540841],[ 0.45657772  0.01158339 -0.08326005  0.88570332]
1717779003.8867295,7.5600000000000005,-14.933333333333334,-47.54666666666667,-21.890243902439025,0.30487804878048785,0.3658536585365854,-0.036865234375,-0.015869140625,-1.020263671875,0.5043988269794721,0.4868035190615836,0.4780058651026393,0.026392961876832845,0.026392961876832845,0.02932551319648094,42.3,-83.7,0.3,[-0.0334244   0.17367827  0.98423507],[ 0.29625644  0.14997982 -0.94325934],[-0.57202423  0.17286703 -0.80181374],[-0.02994249 -0.13829843  0.98993787],-0.8623523067348854,7.4968529997129645,54.95844818218819,[0.45999031 0.06146326 0.0235032  0.88548223],[ 0.4621138  -0.01306531 -0.11711943  0.87895573]
1717779003.9138281,7.533333333333334,-14.72,-47.58666666666667,6.402439024390245,-0.12195121951219513,-0.9146341463414634,0.03564453125,-0.143310546875,-0.99169921875,0.5043988269794721,0.4868035190615836,0.4780058651026393,0.02346041055718475,0.026392961876832845,0.02932551319648094,42.3,-83.7,0.3,[-0.0334244   0.17367827  0.98423507],[ 0.29219233  0.14953684 -0.94459641],[-0.57202423  0.17286703 -0.80181374],[-0.02994249 -0.13829843  0.98993787],-0.9172806111034452,7.578853321601831,55.37651468525804,[0.46316138 0.06223121 0.02363575 0.88377043],[0.46826537 0.09975981 0.08981317 0.87333219]
1717779003.9411788,7.5600000000000005,-14.653333333333334,-47.733333333333334,-22.31707317073171,-1.4634146341463417,1.829268292682927,-0.056884765625,-0.150634765625,-1.0048828125,0.5043988269794721,0.4868035190615836,0.4780058651026393,0.02346041055718475,0.026392961876832845,0.03225806451612903,42.3,-83.7,0.3,[-0.0334244   0.17367827  0.98423507],[ 0.29015962  0.14970019 -0.94519694],[-0.57202423  0.17286703 -0.80181374],[-0.02994249 -0.13829843  0.98993787],-0.9490330466126963,7.6211146381918455,55.62100872227326,[0.4650146  0.06263488 0.02369572 0.88276656],[ 0.46008002  0.00297633 -0.10945979  0.88109935]
1717779003.9713626,7.573333333333334,-14.493333333333334,-47.77333333333333,5.853658536585367,3.1097560975609757,-1.0975609756097562,0.027587890625,-0.23291015625,-0.999755859375,0.5043988269794721,0.4868035190615836,0.4780058651026393,0.02346041055718475,0.02932551319648094,0.02932551319648094,42.3,-83.7,0.3,[-0.0334244   0.17367827  0.98423507],[ 0.28702746  0.14998307 -0.94610798],[-0.57202423  0.17286703 -0.80181374],[-0.02994249 -0.13829843  0.98993787],-0.9988378850458033,7.686227025574328,56.00299864584087,[0.4679053  0.06325932 0.02378784 0.88119068],[0.47875897 0.05661538 0.10511183 0.86979081]
1717779003.994834,7.613333333333334,-14.453333333333335,-47.85333333333334,-18.231707317073173,-2.378048780487805,0.1829268292682927,-0.01318359375,-0.01318359375,-1.014404296875,0.5043988269794721,0.4868035190615836,0.4809384164222874,0.02346041055718475,0.02932551319648094,0.02932551319648094,42.3,-83.7,0.3,[-0.04460135  0.15450362  0.98698498],[ 0.28583761  0.15056575 -0.94637562],[-0.57202423  0.17286703 -0.80181374],[-0.02994249 -0.13829843  0.98993787],-1.0861345741881179,6.587301732526079,55.83329254987725,[0.46691102 0.05519547 0.01853634 0.88238538],[ 0.466525    0.00177193 -0.11066555  0.87755594]
1717779004.0228024,7.613333333333334,-14.360000000000001,-47.92,-6.2804878048780495,2.804878048780488,1.2195121951219514,-0.0859375,-0.22509765625,-1.02880859375,0.5043988269794721,0.4868035190615836,0.4809384164222874,0.02346041055718475,0.02932551319648094,0.02932551319648094,42.3,-83.7,0.3,[-0.04460135  0.15450362  0.98698498],[ 0.28378677  0.15045705 -0.9470099 ],[-0.57202423  0.17286703 -0.80181374],[-0.02994249 -0.13829843  0.98993787],-1.112074374626527,6.630128787734484,56.07018373305517,[0.46870833 0.05559235 0.01862643 0.88140516],[ 0.46059239 -0.03164078 -0.05786632  0.88515818]
1717779004.048855,7.653333333333334,-14.106666666666667,-48.053333333333335,-8.292682926829269,-0.7926829268292683,0.06097560975609757,0.039306640625,0.01953125,-0.990966796875,0.5043988269794721,0.4868035190615836,0.4809384164222874,0.02346041055718475,0.02932551319648094,0.02932551319648094,42.3,-83.7,0.3,[-0.04460135  0.15450362  0.98698498],[ 0.27844365  0.15106489 -0.94849804],[-0.57202423  0.17286703 -0.80181374],[-0.02994249 -0.13829843  0.98993787],-1.188809984368901,6.744751662990219,56.7755554668957,[0.47405083 0.05667229 0.01885525 0.87846943],[ 0.47002415  0.00526292 -0.09392154  0.87762654]
1717779004.076005,7.640000000000001,-14.120000000000001,-48.040000000000006,-5.182926829268293,-0.30487804878048785,0.30487804878048785,-0.060302734375,-0.203125,-1.026611328125,0.5043988269794721,0.4868035190615836,0.4809384164222874,0.026392961876832845,0.02932551319648094,0.02932551319648094,42.3,-83.7,0.3,[-0.04460135  0.15450362  0.98698498],[ 0.27876705  0.1508343  -0.94843974],[-0.57202423  0.17286703 -0.80181374],[-0.02994249 -0.13829843  0.98993787],-1.18240754454314,6.73718048500545,56.715065959386536,[0.47359265 0.05659775 0.01884306 0.87872159],[ 0.47183226  0.01474902 -0.07160178  0.87865236]
1717779004.102907,7.653333333333334,-13.986666666666668,-48.160000000000004,-4.75609756097561,1.402439024390244,-0.12195121951219513,0.017333984375,-0.001708984375,-1.00244140625,0.5043988269794721,0.4897360703812317,0.4809384164222874,0.02346041055718475,0.02932551319648094,0.03225806451612903,42.3,-83.7,0.3,[-0.02227404  0.1543191   0.98776995],[ 0.27570515  0.1508625  -0.94932986],[-0.57202423  0.17286703 -0.80181374],[-0.02994249 -0.13829843  0.98993787],-2.0138460439416623,7.092761206611433,54.64214893409786,[0.45706096 0.06299808 0.01280329 0.88710912],[ 4.65327117e-01  6.05257382e-05 -5.56724260e-02  8.83386241e-01]
1717779004.129963,7.680000000000001,-13.933333333333334,-48.18666666666667,-6.951219512195123,-0.9146341463414634,0.9756097560975611,-0.026611328125,-0.13134765625,-1.0107421875,0.5043988269794721,0.4897360703812317,0.4809384164222874,0.02346041055718475,0.02932551319648094,0.03225806451612903,42.3,-83.7,0.3,[-0.02227404  0.1543191   0.98776995],[ 0.27457443  0.15134437 -0.94958084],[-0.57202423  0.17286703 -0.80181374],[-0.02994249 -0.13829843  0.98993787],-2.034162152631834,7.115119865319151,54.817564438987496,[0.45839859 0.06323243 0.01283238 0.88640156],[ 0.44716089  0.02009182 -0.09077507  0.88960853]
1717779004.1569479,7.693333333333334,-13.813333333333334,-48.25333333333334,-3.5975609756097566,1.0975609756097562,0.426829268292683,-0.031005859375,-0.07763671875,-1.02001953125,0.5043988269794721,0.4897360703812317,0.4838709677419355,0.026392961876832845,0.02932551319648094,0.02932551319648094,42.3,-83.7,0.3,[-0.03342909  0.13510205  0.99026761],[ 0.27203517  0.15150993 -0.95028501],[-0.57202423  0.17286703 -0.80181374],[-0.02994249 -0.13829843  0.98993787],-2.154718141053314,6.036359955608784,54.664179860614226,[0.45754975 0.05538747 0.00749102 0.88742568],[ 0.4543442   0.00512241 -0.05300112  0.88923337]
1717779004.1839058,7.693333333333334,-13.693333333333333,-48.34666666666667,-21.463414634146343,0.12195121951219513,0.24390243902439027,0.00390625,-0.1611328125,-0.997314453125,0.5043988269794721,0.4897360703812317,0.4838709677419355,0.026392961876832845,0.02932551319648094,0.02932551319648094,42.3,-83.7,0.3,[-0.03342909  0.13510205  0.99026761],[ 0.26937355  0.1513423  -0.95106961],[-0.57202423  0.17286703 -0.80181374],[-0.02994249 -0.13829843  0.98993787],-2.184884438149931,6.087015767670439,54.97365985956683,[0.45991193 0.05587945 0.0076114  0.88617186],[ 0.45874056 -0.01687897 -0.13059027  0.87875957]
1717779004.2109444,7.746666666666667,-13.426666666666668,-48.480000000000004,3.7195121951219514,-0.24390243902439027,0.7926829268292683,0.01220703125,-0.090087890625,-1.00830078125,0.5043988269794721,0.4897360703812317,0.4838709677419355,0.026392961876832845,0.02932551319648094,0.02932551319648094,42.3,-83.7,0.3,[-0.03342909  0.13510205  0.99026761],[ 0.26379606  0.15220011 -0.95249502],[-0.57202423  0.17286703 -0.80181374],[-0.02994249 -0.13829843  0.98993787],-2.259627092853368,6.196381687415051,55.74983803054937,[0.46582673 0.0569723  0.00786013 0.883005  ],[0.44913822 0.07799592 0.04412118 0.88895715]
1717779004.2419455,7.773333333333333,-13.373333333333335,-48.6,-19.32926829268293,-0.9146341463414634,0.9146341463414634,-0.04638671875,-0.05712890625,-1.0302734375,0.5073313782991202,0.4897360703812317,0.4838709677419355,0.026392961876832845,0.02932551319648094,0.02932551319648094,42.3,-83.7,0.3,[-0.04434319  0.15360931  0.98713619],[ 0.26221059  0.15241154 -0.95289891],[-0.57202423  0.17286703 -0.80181374],[-0.02994249 -0.13829843  0.98993787],-1.4589493172737416,7.045319309245391,58.832975297988334,[0.4895053  0.05975848 0.01910668 0.86974043],[ 4.85381919e-01  3.98753350e-04 -1.14041122e-01  8.66832657e-01]
1717779004.2653682,7.786666666666667,-13.213333333333335,-48.653333333333336,5.853658536585367,-0.12195121951219513,-0.30487804878048785,0.00244140625,-0.25390625,-1.011962890625,0.5073313782991202,0.4897360703812317,0.4838709677419355,0.026392961876832845,0.02932551319648094,0.02932551319648094,42.3,-83.7,0.3,[-0.04434319  0.15360931  0.98713619],[ 0.2590167   0.15263951 -0.95373557],[-0.57202423  0.17286703 -0.80181374],[-0.02994249 -0.13829843  0.98993787],-1.5080941087900044,7.1124575286956,59.26615144889433,[0.49273935 0.06040518 0.01924976 0.86786438],[0.48857683 0.09838941 0.08051949 0.86320844]
1717779004.2926614,7.840000000000001,-13.213333333333335,-48.653333333333336,-15.000000000000002,-1.829268292682927,1.0975609756097562,-0.003173828125,0.043701171875,-1.009033203125,0.5073313782991202,0.4897360703812317,0.4838709677419355,0.02346041055718475,0.02932551319648094,0.03225806451612903,42.3,-83.7,0.3,[-0.04434319  0.15360931  0.98713619],[ 0.25897524  0.15366038 -0.95358288],[-0.57202423  0.17286703 -0.80181374],[-0.02994249 -0.13829843  0.98993787],-1.5177615309375143,7.115629263296618,59.360895311461135,[0.49345047 0.06045486 0.01924021 0.86745701],[ 0.49008437  0.01004631 -0.1048025   0.86529349]
1717779004.3191218,7.773333333333333,-13.08,-48.733333333333334,-2.7439024390243905,2.1341463414634148,0.1829268292682927,-0.02099609375,-0.11865234375,-1.027587890625,0.5073313782991202,0.4897360703812317,0.4838709677419355,0.026392961876832845,0.02932551319648094,0.02932551319648094,42.3,-83.7,0.3,[-0.04434319  0.15360931  0.98713619],[ 0.25620237  0.1522589  -0.95455622],[-0.57202423  0.17286703 -0.80181374],[-0.02994249 -0.13829843  0.98993787],-1.5468657366482834,7.170227512545973,59.600164990676646,[0.49522498 0.06095275 0.019383   0.86640711],[ 0.49825562 -0.00245543 -0.0208402   0.86677621]
1717779004.34617,7.8133333333333335,-12.986666666666668,-48.81333333333334,-4.2682926829268295,-0.24390243902439027,0.12195121951219513,0.043212890625,0.03466796875,-0.994873046875,0.5073313782991202,0.4897360703812317,0.4838709677419355,0.026392961876832845,0.02932551319648094,0.02932551319648094,42.3,-83.7,0.3,[-0.04434319  0.15360931  0.98713619],[ 0.25408221  0.15286671 -0.95502565],[-0.57202423  0.17286703 -0.80181374],[-0.02994249 -0.13829843  0.98993787],-1.5844365288110434,7.2156169611265675,59.931932977825134,[0.49769421 0.06140183 0.01947353 0.86495727],[ 0.49658683  0.02058504 -0.05073488  0.86625848]
1717779004.3731425,7.8133333333333335,-12.946666666666667,-48.78666666666667,-6.402439024390245,-0.6707317073170732,0.1829268292682927,-0.056884765625,-0.155029296875,-1.029541015625,0.5073313782991202,0.4897360703812317,0.4838709677419355,0.02346041055718475,0.02932551319648094,0.03225806451612903,42.3,-83.7,0.3,[-0.04434319  0.15360931  0.98713619],[ 0.25347627  0.15297332 -0.95516959],[-0.57202423  0.17286703 -0.80181374],[-0.02994249 -0.13829843  0.98993787],-1.5946407109539784,7.2284187305481185,60.02115689495908,[0.4983572  0.06152752 0.01950019 0.86456591],[ 0.49850558  0.01740679 -0.07778152  0.86321447]
1717779004.4001846,7.8133333333333335,-12.826666666666668,-48.88,-10.060975609756099,0.48780487804878053,0.30487804878048785,-0.0068359375,0.008544921875,-1.01025390625,0.5073313782991202,0.49266862170087977,0.4838709677419355,0.026392961876832845,0.02932551319648094,0.03225806451612903,42.3,-83.7,0.3,[-0.02214517  0.15342621  0.98791193],[ 0.25083747  0.15279705 -0.95589415],[-0.57202423  0.17286703 -0.80181374],[-0.02994249 -0.13829843  0.98993787],-2.419691525003161,7.516199137442962,57.7152949389185,[0.48027787 0.06756077 0.01317435 0.87441132],[ 0.48354894 -0.00401279 -0.09921842  0.86966662]
1717779004.4272106,7.8933333333333335,-12.72,-48.93333333333334,-16.219512195121954,-0.1829268292682927,0.426829268292683,-0.01611328125,-0.1787109375,-1.0166015625,0.5073313782991202,0.49266862170087977,0.4868035190615836,0.026392961876832845,0.02932551319648094,0.03225806451612903,42.3,-83.7,0.3,[-0.03323508  0.13431798  0.99038079],[ 0.24857341  0.154251   -0.956252  ],[-0.57202423  0.17286703 -0.80181374],[-0.02994249 -0.13829843  0.98993787],-2.4971167991831997,6.454290283999307,57.80808978549811,[0.48138929 0.05978548 0.00815803 0.87442753],[ 0.48080847 -0.01323353 -0.12600522  0.86762364]
1717779004.4542215,7.906666666666667,-12.373333333333335,-49.14666666666667,-6.158536585365854,-0.7317073170731708,0.12195121951219513,-0.030517578125,0.1484375,-1.024169921875,0.5073313782991202,0.49266862170087977,0.4868035190615836,0.026392961876832845,0.02932551319648094,0.03225806451612903,42.3,-83.7,0.3,[-0.03323508  0.13431798  0.99038079],[ 0.24122677  0.15414598 -0.95814856],[-0.57202423  0.17286703 -0.80181374],[-0.02994249 -0.13829843  0.98993787],-2.5955515965051563,6.593339605102888,58.77558981949416,[0.4886456  0.06118883 0.00851058 0.87029246],[ 0.48809466  0.01674244 -0.09541919  0.86739753]
