Time,MagX,MagY,MagZ,GyroX,GyroY,GyroZ,AccelX,AccelY,AccelZ,Tri11,Tri12,Tri13,Tri21,Tri22,Tri23,Lat,Lon,Alt,SunVect,MagVect,MagRef,SunRef,Roll,Pitch,Yaw,static_q,dynamic_q
1717778974.3474107,7.773333333333333,-12.200000000000001,-49.21333333333334,-4.085365853658537,-1.1585365853658538,-0.06097560975609757,-0.02294921875,-0.051025390625,-1.021728515625,0.5043988269794721,0.4868035190615836,0.4868035190615836,0.026392961876832845,0.02932551319648094,0.02932551319648094,42.3,-83.7,0.3,[-0.06690804  0.11588812  0.99100618],[ 0.23783814  0.15154059 -0.95941048],[-0.57202423  0.17286703 -0.80181374],[-0.02994249 -0.13829843  0.98993787],-1.734937993365169,5.407536338616733,61.906586382975526,[0.51309523 0.0482278  0.01129062 0.85690133],[ 0.51721612  0.02804838 -0.0581      0.85341969]
1717778974.3731341,7.8133333333333335,-12.24,-49.160000000000004,9.817073170731708,1.524390243902439,0.3658536585365854,-0.002685546875,-0.004638671875,-1.015625,0.5043988269794721,0.4868035190615836,0.4838709677419355,0.026392961876832845,0.02932551319648094,0.02932551319648094,42.3,-83.7,0.3,[-0.05576817  0.13523064  0.98924344],[ 0.23878341  0.15242601 -0.95903534],[-0.57202423  0.17286703 -0.80181374],[-0.02994249 -0.13829843  0.98993787],-1.7605508082018042,6.484851127091504,61.967651085862215,[0.51316635 0.05638077 0.01596395 0.85628655],[0.49942484 0.09848552 0.1200683  0.85232566]
1717778974.400228,7.773333333333333,-12.346666666666668,-49.053333333333335,7.926829268292684,-0.48780487804878053,0.0,0.0126953125,0.01953125,-1.01123046875,0.5043988269794721,0.4838709677419355,0.4838709677419355,0.026392961876832845,0.02932551319648094,0.02932551319648094,42.3,-83.7,0.3,[-0.07811066  0.13529163  0.98772208],[ 0.24125379  0.15189089 -0.95850183],[-0.57202423  0.17286703 -0.80181374],[-0.02994249 -0.13829843  0.98993787],-0.8650611610170531,6.351394698586524,64.68264059917828,[0.53377173 0.05083535 0.02326678 0.8437785 ],[0.52282492 0.11712458 0.12443374 0.83513603]
1717778974.4271877,7.720000000000001,-12.666666666666668,-48.94666666666667,2.6219512195121952,0.6097560975609757,0.3658536585365854,-0.0234375,-0.156005859375,-1.023193359375,0.5043988269794721,0.4838709677419355,0.4838709677419355,0.02346041055718475,0.02932551319648094,0.03225806451612903,42.3,-83.7,0.3,[-0.07811066  0.13529163  0.98772208],[ 0.2476615   0.15094317 -0.95701617],[-0.57202423  0.17286703 -0.80181374],[-0.02994249 -0.13829843  0.98993787],-0.7685171087966021,6.189490801369265,63.61750008664784,[0.52599737 0.04940774 0.02276428 0.84874462],[0.5154445  0.07560998 0.0819912  0.84963377]
1717778974.4542043,7.746666666666667,-12.64,-48.906666666666666,-6.341463414634147,-0.3658536585365854,0.426829268292683,0.0,0.050537109375,-1.0087890625,0.5043988269794721,0.4838709677419355,0.4838709677419355,0.026392961876832845,0.02932551319648094,0.02932551319648094,42.3,-83.7,0.3,[-0.07811066  0.13529163  0.98772208],[ 0.24733764  0.15158562 -0.95699838],[-0.57202423  0.17286703 -0.80181374],[-0.02994249 -0.13829843  0.98993787],-0.7773228476667953,6.199492934313138,63.72238859612677,[0.52676724 0.04950137 0.02279034 0.84826086],[ 0.52251327  0.00806087 -0.05497925  0.85081854]
1717778974.4812818,7.720000000000001,-12.666666666666668,-48.906666666666666,-0.06097560975609757,1.2195121951219514,0.3658536585365854,-0.0390625,-0.161865234375,-1.0185546875,0.5043988269794721,0.4838709677419355,0.4838709677419355,0.026392961876832845,0.02932551319648094,0.02932551319648094,42.3,-83.7,0.3,[-0.07811066  0.13529163  0.98772208],[ 0.247847    0.15105622 -0.9569503 ],[-0.57202423  0.17286703 -0.80181374],[-0.02994249 -0.13829843  0.98993787],-0.7667286498126935,6.185222598567475,63.5990828320474,[0.52586299 0.04937159 0.02274997 0.84883037],[0.52088514 0.02284944 0.02254141 0.85302313]
1717778974.508297,7.706666666666667,-12.613333333333333,-48.93333333333334,0.24390243902439027,-0.24390243902439027,0.24390243902439027,0.009521484375,0.04150390625,-1.0068359375,0.5043988269794721,0.4838709677419355,0.4838709677419355,0.02346041055718475,0.02932551319648094,0.02932551319648094,42.3,-83.7,0.3,[-0.07811066  0.13529163  0.98772208],[ 0.2467536   0.15076488 -0.95727875],[-0.57202423  0.17286703 -0.80181374],[-0.02994249 -0.13829843  0.98993787],-0.7798489004393228,6.211545365646983,63.74044204927424,[0.52689617 0.04959856 0.02283493 0.84817391],[0.52199572 0.0521933  0.02422877 0.85100487]
1717778974.5358121,7.720000000000001,-12.693333333333333,-48.93333333333334,-4.207317073170732,-0.7926829268292683,0.6097560975609757,-0.038330078125,-0.068359375,-1.02490234375,0.5043988269794721,0.4838709677419355,0.4838709677419355,0.026392961876832845,0.02932551319648094,0.02932551319648094,42.3,-83.7,0.3,[-0.07811066  0.13529163  0.98772208],[ 0.24821273  0.15096131 -0.95687049],[-0.57202423  0.17286703 -0.80181374],[-0.02994249 -0.13829843  0.98993787],-0.7610631510342134,6.175829705474985,63.53525037414866,[0.52539531 0.04928871 0.02272133 0.84912551],[ 0.5187524   0.02406559 -0.0451723   0.85339103]
1717778974.564319,7.720000000000001,-12.706666666666667,-48.906666666666666,30.670731707317074,0.3658536585365854,0.9146341463414634,0.0009765625,0.114013671875,-1.00830078125,0.501466275659824,0.4838709677419355,0.4838709677419355,0.02346041055718475,0.02932551319648094,0.03225806451612903,42.3,-83.7,0.3,[-0.06730145  0.11656953  0.99089962],[ 0.24858138  0.15102688 -0.95676443],[-0.57202423  0.17286703 -0.80181374],[-0.02994249 -0.13829843  0.98993787],-1.5806503007833232,5.193238478955938,60.333752169012804,[0.50141622 0.0460889  0.01085103 0.86390962],[0.48383649 0.12325433 0.14220878 0.85468549]
1717778974.5926723,7.666666666666667,-13.266666666666667,-48.56,17.5,0.7926829268292683,0.12195121951219513,-0.022705078125,-0.278564453125,-1.008544921875,0.501466275659824,0.4838709677419355,0.4838709677419355,0.02346041055718475,0.02932551319648094,0.02932551319648094,42.3,-83.7,0.3,[-0.06730145  0.11656953  0.99089962],[ 0.26053893  0.1505627  -0.95365106],[-0.57202423  0.17286703 -0.80181374],[-0.02994249 -0.13829843  0.98993787],-1.454153840379817,4.917002092180695,58.52872031138741,[0.48787577 0.04361557 0.00990764 0.87176646],[0.47304345 0.11531635 0.14825047 0.86078675]
1717778974.616803,7.680000000000001,-13.346666666666668,-48.50666666666667,8.719512195121952,-1.2195121951219514,0.6097560975609757,0.00634765625,0.0966796875,-1.010498046875,0.501466275659824,0.4838709677419355,0.4809384164222874,0.026392961876832845,0.02932551319648094,0.02932551319648094,42.3,-83.7,0.3,[-0.05609556  0.13602451  0.98911608],[ 0.26225385  0.15090731 -0.95312638],[-0.57202423  0.17286703 -0.80181374],[-0.02994249 -0.13829843  0.98993787],-1.4072987335703335,6.00789501696647,58.6365531611249,[0.48838977 0.05169406 0.01496563 0.87096452],[0.47356574 0.12861622 0.11978671 0.86304375]
1717778974.6447995,7.626666666666667,-13.546666666666667,-48.38666666666667,-9.085365853658537,0.30487804878048785,0.7926829268292683,-0.06201171875,-0.07177734375,-1.039306640625,0.5043988269794721,0.4838709677419355,0.4809384164222874,0.02346041055718475,0.02932551319648094,0.02932551319648094,42.3,-83.7,0.3,[-0.0669486   0.15461116  0.98570446],[ 0.26654751  0.15006415 -0.95206784],[-0.57202423  0.17286703 -0.80181374],[-0.02994249 -0.13829843  0.98993787],-0.5297894979411631,6.821365092430875,60.88723794718288,[0.50555024 0.05362802 0.02616515 0.8607313 ],[ 0.49887786  0.00314259 -0.06427445  0.86427993]
1717778974.6705227,7.640000000000001,-13.493333333333334,-48.42666666666667,12.865853658536587,1.2804878048780488,-0.1829268292682927,0.059326171875,-0.0224609375,-0.986572265625,0.501466275659824,0.4838709677419355,0.4809384164222874,0.02346041055718475,0.02932551319648094,0.02932551319648094,42.3,-83.7,0.3,[-0.05609556  0.13602451  0.98911608],[ 0.26536285  0.15024991 -0.95236943],[-0.57202423  0.17286703 -0.80181374],[-0.02994249 -0.13829843  0.98993787],-1.3640748068068251,5.937485025021453,58.15483475324503,[0.48476554 0.05103762 0.01477897 0.8730287 ],[0.47838439 0.10089649 0.12893409 0.86275389]
1717778974.6975703,7.640000000000001,-13.680000000000001,-48.333333333333336,-5.0,-1.9512195121951221,0.30487804878048785,-0.072509765625,-0.14453125,-1.0341796875,0.501466275659824,0.4838709677419355,0.4809384164222874,0.02346041055718475,0.02932551319648094,0.02932551319648094,42.3,-83.7,0.3,[-0.05609556  0.13602451  0.98911608],[ 0.26924006  0.15036506 -0.95126239],[-0.57202423  0.17286703 -0.80181374],[-0.02994249 -0.13829843  0.98993787],-1.3181463068159647,5.852929790628602,57.64825232133326,[0.48094752 0.05026435 0.01454832 0.87518645],[ 0.48279992  0.04519352 -0.05546993  0.87280288]
1717778974.7255173,7.640000000000001,-13.706666666666667,-48.29333333333334,8.902439024390244,1.3414634146341464,-0.12195121951219513,-0.014404296875,-0.05712890625,-1.0146484375,0.501466275659824,0.4809384164222874,0.4809384164222874,0.02346041055718475,0.02932551319648094,0.02932551319648094,42.3,-83.7,0.3,[-0.0785687   0.13608498  0.98757675],[ 0.26992882  0.15045644 -0.95105273],[-0.57202423  0.17286703 -0.80181374],[-0.02994249 -0.13829843  0.98993787],-0.4446083281247161,5.675207553860133,60.425789090915416,[0.50242766 0.04473029 0.02156281 0.86319215],[0.49072702 0.08442659 0.12193236 0.85859865]
1717778974.75154,7.613333333333334,-13.88,-48.26666666666667,-5.182926829268293,-1.1585365853658538,0.426829268292683,-0.006103515625,-0.159423828125,-1.0078125,0.501466275659824,0.4809384164222874,0.4809384164222874,0.02346041055718475,0.02932551319648094,0.02932551319648094,42.3,-83.7,0.3,[-0.0785687   0.13608498  0.98757675],[ 0.27324696  0.14987898 -0.95019597],[-0.57202423  0.17286703 -0.80181374],[-0.02994249 -0.13829843  0.98993787],-0.40161288969217246,5.590033374778001,59.90339137229548,[0.49852462 0.04399791 0.02131264 0.8654959 ],[ 0.49548337  0.02461317 -0.0471239   0.8669889 ]
1717778974.778502,7.6000000000000005,-13.893333333333334,-48.160000000000004,15.975609756097562,0.5487804878048781,-0.12195121951219513,-0.016357421875,-0.133544921875,-1.017822265625,0.501466275659824,0.4809384164222874,0.4780058651026393,0.02346041055718475,0.026392961876832845,0.02932551319648094,42.3,-83.7,0.3,[-0.06734035  0.15551588  0.98553543],[ 0.27404729  0.1499107  -0.94996046],[-0.57202423  0.17286703 -0.80181374],[-0.02994249 -0.13829843  0.98993787],-0.3871605507664819,6.689412232910882,59.98477743778313,[0.49885988 0.05221613 0.02624341 0.86471012],[0.4864194  0.11486054 0.14512543 0.85389802]
1717778974.805588,7.586666666666667,-14.120000000000001,-48.053333333333335,-2.1341463414634148,-0.30487804878048785,0.6707317073170732,-0.01318359375,-0.08154296875,-1.006591796875,0.501466275659824,0.4809384164222874,0.4780058651026393,0.02346041055718475,0.026392961876832845,0.02932551319648094,42.3,-83.7,0.3,[-0.06734035  0.15551588  0.98553543],[ 0.27874157  0.14976766 -0.94861625],[-0.57202423  0.17286703 -0.80181374],[-0.02994249 -0.13829843  0.98993787],-0.3205989560135725,6.577257507478457,59.35153510488628,[0.49413456 0.0512245  0.02597444 0.86748626],[0.48569839 0.04743444 0.00498709 0.87282425]
1717778974.8327167,7.586666666666667,-14.200000000000001,-47.973333333333336,13.231707317073171,1.1585365853658538,-0.06097560975609757,-0.005615234375,-0.197509765625,-0.990478515625,0.501466275659824,0.4809384164222874,0.4780058651026393,0.02346041055718475,0.026392961876832845,0.02932551319648094,42.3,-83.7,0.3,[-0.06734035  0.15551588  0.98553543],[ 0.28061716  0.14992598 -0.94803808],[-0.57202423  0.17286703 -0.80181374],[-0.02994249 -0.13829843  0.98993787],-0.2962073666486656,6.533320305210491,59.11972349754038,[0.49240126 0.05083919 0.02586673 0.86849714],[0.48026749 0.10497249 0.14696478 0.85832702]
1717778974.8597593,7.5600000000000005,-14.4,-47.906666666666666,-2.1951219512195124,-0.6707317073170732,0.24390243902439027,-0.013671875,-0.01318359375,-1.0205078125,0.501466275659824,0.4809384164222874,0.4780058651026393,0.02346041055718475,0.026392961876832845,0.02932551319648094,42.3,-83.7,0.3,[-0.06734035  0.15551588  0.98553543],[ 0.28462932  0.14943039 -0.94691959],[-0.57202423  0.17286703 -0.80181374],[-0.02994249 -0.13829843  0.98993787],-0.23834358554064913,6.435874807287412,58.55541488984479,[0.48816911 0.04997896 0.02564054 0.87093948],[0.48703825 0.04933678 0.00161671 0.87198453]
1717778974.8868706,7.5600000000000005,-14.493333333333334,-47.78666666666667,10.487804878048781,1.829268292682927,0.426829268292683,0.00634765625,-0.179931640625,-1.007080078125,0.501466275659824,0.4809384164222874,0.4780058651026393,0.02346041055718475,0.02932551319648094,0.02932551319648094,42.3,-83.7,0.3,[-0.06734035  0.15551588  0.98553543],[ 0.28696712  0.14968754 -0.94617309],[-0.57202423  0.17286703 -0.80181374],[-0.02994249 -0.13829843  0.98993787],-0.2095148034924663,6.381451835929421,58.27746232106697,[0.48608139 0.04950457 0.02550771 0.87213734],[0.47065382 0.09018239 0.14055866 0.86636908]
1717778974.9137847,7.506666666666667,-14.533333333333335,-47.760000000000005,2.378048780487805,-0.853658536585366,0.7317073170731708,-0.001708984375,0.07568359375,-1.015869140625,0.501466275659824,0.4809384164222874,0.4780058651026393,0.02346041055718475,0.02932551319648094,0.02932551319648094,42.3,-83.7,0.3,[-0.06734035  0.15551588  0.98553543],[ 0.28788275  0.1486954  -0.94605137],[-0.57202423  0.17286703 -0.80181374],[-0.02994249 -0.13829843  0.98993787],-0.18974837246579912,6.355238603125351,58.07245583679361,[0.48453538 0.04926687 0.02545881 0.87301208],[0.47125989 0.09104034 0.07074424 0.87442611]
1717778974.9406931,7.466666666666667,-14.786666666666667,-47.653333333333336,-0.426829268292683,1.3414634146341464,-0.853658536585366,-0.04931640625,-0.282958984375,-1.00927734375,0.501466275659824,0.4809384164222874,0.4750733137829912,0.02346041055718475,0.026392961876832845,0.02932551319648094,42.3,-83.7,0.3,[-0.05608495  0.17485557  0.98299543],[ 0.2930935   0.14800032 -0.94455921],[-0.57202423  0.17286703 -0.80181374],[-0.02994249 -0.13829843  0.98993787],-0.07413568187417933,7.359084860877445,57.62582466192126,[0.48092117 0.05654203 0.030364   0.87441172],[0.49199144 0.03456863 0.04240782 0.86887917]
1717778974.9722936,7.5200000000000005,-14.72,-47.653333333333336,0.1829268292682927,-1.4634146341463417,0.9756097560975611,0.03369140625,0.082763671875,-0.9892578125,0.501466275659824,0.4780058651026393,0.4750733137829912,0.02346041055718475,0.026392961876832845,0.02932551319648094,42.3,-83.7,0.3,[-0.07855291  0.17493123  0.98144205],[ 0.29183903  0.14909168 -0.94477598],[-0.57202423  0.17286703 -0.80181374],[-0.02994249 -0.13829843  0.98993787],0.705901470528748,7.246505683143444,60.42129078711367,[0.50250163 0.05151793 0.03711098 0.86224172],[0.48583434 0.07524833 0.02673565 0.87039525]
1717778974.9948127,7.493333333333334,-15.266666666666667,-47.480000000000004,6.097560975609756,1.6463414634146343,0.24390243902439027,-0.08740234375,-0.3056640625,-1.013916015625,0.501466275659824,0.4809384164222874,0.4750733137829912,0.02346041055718475,0.026392961876832845,0.02932551319648094,42.3,-83.7,0.3,[-0.05608495  0.17485557  0.98299543],[ 0.30270685  0.14857751 -0.94143151],[-0.57202423  0.17286703 -0.80181374],[-0.02994249 -0.13829843  0.98993787],0.060352647202581405,7.140838737951057,56.53392010149691,[0.47269001 0.05460002 0.0299553  0.87902541],[0.46122707 0.08002394 0.12173728 0.87524042]
1717778975.0219953,7.493333333333334,-14.893333333333334,-47.54666666666667,-0.12195121951219513,0.30487804878048785,0.30487804878048785,0.034912109375,0.031005859375,-0.995849609375,0.501466275659824,0.4809384164222874,0.4750733137829912,0.02346041055718475,0.026392961876832845,0.02932551319648094,42.3,-83.7,0.3,[-0.05608495  0.17485557  0.98299543],[ 0.29559069  0.14872155 -0.94366734],[-0.57202423  0.17286703 -0.80181374],[-0.02994249 -0.13829843  0.98993787],-0.043814403851308234,7.304693186222798,57.38723216035859,[0.4791292  0.05606285 0.0302504  0.87542965],[0.47115827 0.05412743 0.04378259 0.87929699]
1717778975.0489595,7.506666666666667,-14.986666666666668,-47.480000000000004,-6.341463414634147,-1.2195121951219514,0.30487804878048785,-0.041748046875,-0.144775390625,-1.017822265625,0.501466275659824,0.4809384164222874,0.4750733137829912,0.02346041055718475,0.026392961876832845,0.02932551319648094,42.3,-83.7,0.3,[-0.05608495  0.17485557  0.98299543],[ 0.29763933  0.14908447 -0.94296588],[-0.57202423  0.17286703 -0.80181374],[-0.02994249 -0.13829843  0.98993787],-0.017148911078469827,7.2592140690759255,57.17395564511504,[0.47752419 0.05566014 0.0301604  0.87633495],[ 0.47596265  0.0266021  -0.06104871  0.87694067]
1717778975.0761015,7.48,-14.946666666666667,-47.52,14.817073170731708,1.524390243902439,0.30487804878048785,0.021728515625,-0.033203125,-0.996337890625,0.501466275659824,0.4780058651026393,0.4750733137829912,0.02346041055718475,0.02932551319648094,0.02932551319648094,42.3,-83.7,0.3,[-0.07855291  0.17493123  0.98144205],[ 0.29671603  0.14849036 -0.94335052],[-0.57202423  0.17286703 -0.80181374],[-0.02994249 -0.13829843  0.98993787],0.784486286844932,7.119371889652716,59.75032515936883,[0.49750779 0.05043284 0.03685088 0.8652078 ],[0.4799633  0.10041524 0.1561055  0.85742818]
1717778975.1312447,7.28,-15.133333333333335,-47.373333333333335,-5.853658536585367,-1.1585365853658538,0.7926829268292683,0.0068359375,0.0673828125,-1.008056640625,0.501466275659824,0.4809384164222874,0.4750733137829912,0.02346041055718475,0.026392961876832845,0.02932551319648094,42.3,-83.7,0.3,[-0.05608495  0.17485557  0.98299543],[ 0.30109014  0.1448416  -0.94253151],[-0.57202423  0.17286703 -0.80181374],[-0.02994249 -0.13829843  0.98993787],0.07154345234404277,7.161215925369505,56.4041984537305,[0.47169481 0.05474424 0.03006324 0.8795472 ],[ 0.46731703  0.03345272 -0.04200077  0.88245773]
1717778975.1840558,7.2666666666666675,-15.466666666666667,-46.906666666666666,5.426829268292684,-0.853658536585366,0.5487804878048781,0.019775390625,0.060791015625,-0.99853515625,0.501466275659824,0.4780058651026393,0.4750733137829912,0.02346041055718475,0.026392961876832845,0.02932551319648094,42.3,-83.7,0.3,[-0.07855291  0.17493123  0.98144205],[ 0.30981345  0.1455589  -0.9395894 ],[-0.57202423  0.17286703 -0.80181374],[-0.02994249 -0.13829843  0.98993787],0.9965434472468887,6.7694335235246905,57.87548369974819,[0.48344599 0.04746627 0.03616332 0.87333793],[0.46626886 0.09692638 0.09543414 0.87412296]
1717778975.2212524,7.44,-15.613333333333335,-47.080000000000005,4.51219512195122,-1.5853658536585367,0.5487804878048781,-0.04833984375,-0.1455078125,-1.0234375,0.501466275659824,0.4780058651026393,0.47214076246334313,0.02346041055718475,0.026392961876832845,0.02932551319648094,42.3,-83.7,0.3,[-0.06727522  0.19420683  0.97865099],[ 0.31129345  0.14833625 -0.9386654 ],[-0.57202423  0.17286703 -0.80181374],[-0.02994249 -0.13829843  0.98993787],1.0283181072309948,7.872683023703737,58.12552272126391,[0.48514037 0.05565324 0.04117091 0.87169174],[0.47098887 0.11964704 0.10031675 0.86821116]
1717778975.2625449,7.413333333333334,-15.8,-46.96,3.2926829268292686,-0.7317073170731708,1.0365853658536586,0.02490234375,0.048095703125,-0.99169921875,0.49853372434017595,0.4780058651026393,0.4750733137829912,0.02346041055718475,0.026392961876832845,0.02932551319648094,42.3,-83.7,0.3,[-0.06773665  0.15643109  0.98536341],[ 0.31538     0.14797576 -0.93735726],[-0.57202423  0.17286703 -0.80181374],[-0.02994249 -0.13829843  0.98993787],0.18551853606033694,5.74395549016924,54.75438135678726,[0.45934017 0.04374911 0.02447615 0.88684471],[0.44119222 0.09456568 0.07697354 0.88909045]
1717778975.284361,7.4,-16.013333333333335,-46.800000000000004,10.731707317073171,2.0121951219512195,0.06097560975609757,-0.00830078125,-0.243408203125,-1.00830078125,0.49853372434017595,0.4780058651026393,0.47214076246334313,0.02346041055718475,0.026392961876832845,0.02932551319648094,42.3,-83.7,0.3,[-0.05641396  0.17588132  0.98279358],[ 0.32017531  0.14795778 -0.93573301],[-0.57202423  0.17286703 -0.80181374],[-0.02994249 -0.13829843  0.98993787],0.3410698039280388,6.787059003693333,54.6009508640659,[0.45800721 0.05123728 0.02978968 0.88697052],[0.44170727 0.08944796 0.15552505 0.87903681]
1717778975.304681,7.36,-15.893333333333334,-46.94666666666667,-10.609756097560977,-1.4634146341463417,0.853658536585366,-0.0029296875,-0.05224609375,-1.0146484375,0.49853372434017595,0.4780058651026393,0.47214076246334313,0.02346041055718475,0.026392961876832845,0.02932551319648094,42.3,-83.7,0.3,[-0.05641396  0.17588132  0.98279358],[ 0.317185    0.14688433 -0.93691978],[-0.57202423  0.17286703 -0.80181374],[-0.02994249 -0.13829843  0.98993787],0.3112169077399134,6.8503442767688965,54.84273805968732,[0.45985055 0.0517835  0.02992071 0.88598007],[ 0.45320513  0.01628959 -0.07558601  0.88804646]
1717778975.3560169,7.386666666666667,-16.2,-46.64,16.463414634146343,1.4634146341463417,-0.426829268292683,-0.042724609375,-0.297607421875,-1.005126953125,0.49853372434017595,0.4750733137829912,0.47214076246334313,0.02346041055718475,0.02932551319648094,0.02932551319648094,42.3,-83.7,0.3,[-0.07901318  0.17595623  0.98122185],[ 0.32450061  0.14796159 -0.93424125],[-0.57202423  0.17286703 -0.80181374],[-0.02994249 -0.13829843  0.98993787],1.2141028460356615,6.460601318199258,56.44530741763681,[0.47264733 0.04464537 0.03596661 0.87938484],[0.46171854 0.09459116 0.15836739 0.86763372]
1717778975.3738446,7.386666666666667,-16.226666666666667,-46.693333333333335,1.7682926829268295,1.2804878048780488,0.30487804878048785,-0.00830078125,-0.117919921875,-1.005859375,0.49853372434017595,0.4780058651026393,0.47214076246334313,0.02346041055718475,0.026392961876832845,0.02932551319648094,42.3,-83.7,0.3,[-0.05641396  0.17588132  0.98279358],[ 0.32465446  0.14778847 -0.93421521],[-0.57202423  0.17286703 -0.80181374],[-0.02994249 -0.13829843  0.98993787],0.40055322748350475,6.68328729658054,54.091077357872834,[0.45410411 0.05032838 0.02961198 0.88903298],[0.44541175 0.05225154 0.08684493 0.88957074]
1717778975.4002385,7.693333333333334,-16.240000000000002,-46.64,-4.329268292682928,-0.9146341463414634,0.9146341463414634,-0.005615234375,-0.148193359375,-1.00390625,0.49853372434017595,0.4780058651026393,0.47214076246334313,0.02346041055718475,0.026392961876832845,0.02932551319648094,42.3,-83.7,0.3,[-0.05641396  0.17588132  0.98279358],[ 0.32491604  0.15392164 -0.93313327],[-0.57202423  0.17286703 -0.80181374],[-0.02994249 -0.13829843  0.98993787],0.35019816279541377,6.708665652726514,54.5869566605672,[0.45791958 0.05059749 0.02954104 0.88706081],[ 0.4450416   0.03323081 -0.03516585  0.89420191]
1717778975.427259,7.640000000000001,-16.240000000000002,-46.64,0.9146341463414634,0.5487804878048781,0.1829268292682927,-0.03369140625,-0.19482421875,-1.01025390625,0.49853372434017595,0.4780058651026393,0.47214076246334313,0.02346041055718475,0.026392961876832845,0.02932551319648094,42.3,-83.7,0.3,[-0.05641396  0.17588132  0.98279358],[ 0.32496924  0.15287962 -0.93328603],[-0.57202423  0.17286703 -0.80181374],[-0.02994249 -0.13829843  0.98993787],0.359959090533608,6.7023168321092985,54.49284318297272,[0.45719652 0.05053362 0.02954975 0.88743704],[0.45169928 0.0462798  0.04015119 0.89006394]
1717778975.4544098,7.773333333333333,-16.240000000000002,-46.64,2.1341463414634148,-0.06097560975609757,0.426829268292683,0.00341796875,-0.06494140625,-1.00732421875,0.49853372434017595,0.4750733137829912,0.47214076246334313,0.02346041055718475,0.026392961876832845,0.02932551319648094,42.3,-83.7,0.3,[-0.07901318  0.17595623  0.98122185],[ 0.32483561  0.15548371 -0.93290227],[-0.57202423  0.17286703 -0.80181374],[-0.02994249 -0.13829843  0.98993787],1.1586565306287833,6.494889270620431,57.02987631561721,[0.47710021 0.04495474 0.03591202 0.87696339],[0.46453362 0.06424382 0.07069952 0.88038789]
1717778975.4812946,7.680000000000001,-16.48,-46.42666666666667,25.0609756097561,0.9146341463414634,0.24390243902439027,0.003662109375,-0.3701171875,-0.99853515625,0.49853372434017595,0.4750733137829912,0.46920821114369504,0.02346041055718475,0.026392961876832845,0.02932551319648094,42.3,-83.7,0.3,[-0.06766795  0.19534055  0.97839824],[ 0.33052623  0.15403164 -0.93114267],[-0.57202423  0.17286703 -0.80181374],[-0.02994249 -0.13829843  0.98993787],1.3083015834277711,7.48634396487921,56.51123218840991,[0.47302184 0.05210821 0.04093893 0.87855511],[0.45757295 0.11918735 0.18052683 0.86245663]
1717778975.5091846,7.666666666666667,-16.84,-46.25333333333334,-5.975609756097562,-0.1829268292682927,0.426829268292683,-0.028076171875,-0.03076171875,-1.008544921875,0.49853372434017595,0.4750733137829912,0.46920821114369504,0.02346041055718475,0.026392961876832845,0.02932551319648094,42.3,-83.7,0.3,[-0.06766795  0.19534055  0.97839824],[ 0.33803717  0.15389657 -0.92846471],[-0.57202423  0.17286703 -0.80181374],[-0.02994249 -0.13829843  0.98993787],1.4176091895158467,7.302368916962099,55.68074486692659,[0.46672285 0.0505412  0.04065445 0.88202187],[ 0.46417878  0.01959738 -0.02441404  0.88518809]
1717778975.5412898,7.573333333333334,-16.92,-46.17333333333334,6.951219512195123,1.524390243902439,-0.06097560975609757,0.01904296875,-0.320556640625,-0.985107421875,0.49853372434017595,0.4750733137829912,0.46920821114369504,0.02346041055718475,0.026392961876832845,0.02932551319648094,42.3,-83.7,0.3,[-0.06766795  0.19534055  0.97839824],[ 0.34006231  0.15221071 -0.92800298],[-0.57202423  0.17286703 -0.80181374],[-0.02994249 -0.13829843  0.98993787],1.4613218951243452,7.243830106685816,55.32911884101782,[0.46404274 0.05003701 0.04059986 0.88346606],[0.45811615 0.0731378  0.13166579 0.87603914]
1717778975.563117,7.453333333333334,-16.933333333333334,-46.14666666666667,2.3170731707317076,-1.5853658536585367,1.0365853658536586,0.02001953125,0.0205078125,-1.002197265625,0.49853372434017595,0.4750733137829912,0.46920821114369504,0.02346041055718475,0.026392961876832845,0.02932551319648094,42.3,-83.7,0.3,[-0.06766795  0.19534055  0.97839824],[ 0.34059273  0.14991444 -0.92818223],[-0.57202423  0.17286703 -0.80181374],[-0.02994249 -0.13829843  0.98993787],1.489538736399444,7.218024383743866,55.08905176411382,[0.46220718 0.04980881 0.04060896 0.88444023],[0.44684104 0.09966494 0.07529765 0.88585002]
1717778975.5893373,7.386666666666667,-17.053333333333335,-46.040000000000006,3.658536585365854,1.1585365853658538,0.7926829268292683,-0.06689453125,-0.331298828125,-1.02099609375,0.49853372434017595,0.4750733137829912,0.46920821114369504,0.02346041055718475,0.026392961876832845,0.02932551319648094,42.3,-83.7,0.3,[-0.06766795  0.19534055  0.97839824],[ 0.34347527  0.14877662 -0.92730268],[-0.57202423  0.17286703 -0.80181374],[-0.02994249 -0.13829843  0.98993787],1.5396079601546901,7.140662010393313,54.68860543400246,[0.4591468  0.04915109 0.04051284 0.88607398],[0.43783826 0.06739603 0.10872469 0.88990695]
1717778975.6163547,7.3066666666666675,-17.16,-46.0,9.878048780487806,0.6707317073170732,0.3658536585365854,0.0185546875,-0.0087890625,-1.00341796875,0.49853372434017595,0.47214076246334313,0.4662756598240469,0.02346041055718475,0.026392961876832845,0.02932551319648094,42.3,-83.7,0.3,[-0.07887106  0.21467078  0.97349669],[ 0.34570837  0.14720139 -0.92672406],[-0.57202423  0.17286703 -0.80181374],[-0.02994249 -0.13829843  0.98993787],2.452770796359961,8.02007704963731,56.740775659494865,[0.4752146  0.05137294 0.05200771 0.87682787],[0.45827712 0.09942349 0.16929715 0.86685381]
1717778975.6433544,7.24,-17.36,-45.84,14.085365853658537,0.7317073170731708,0.24390243902439027,-0.05224609375,-0.3193359375,-0.998291015625,0.49853372434017595,0.47214076246334313,0.4662756598240469,0.02346041055718475,0.026392961876832845,0.02932551319648094,42.3,-83.7,0.3,[-0.07887106  0.21467078  0.97349669],[ 0.35036101  0.1461183  -0.9251468 ],[-0.57202423  0.17286703 -0.80181374],[-0.02994249 -0.13829843  0.98993787],2.5351949512153,7.8912599083233745,56.156710016676215,[0.47079114 0.05030872 0.05185142 0.87928162],[0.4561388  0.11256513 0.18536349 0.86307987]
1717778975.670438,7.106666666666667,-17.48,-45.800000000000004,0.6097560975609757,0.6097560975609757,0.7926829268292683,-0.0146484375,-0.0625,-1.000732421875,0.49560117302052786,0.47214076246334313,0.4662756598240469,0.02346041055718475,0.026392961876832845,0.02932551319648094,42.3,-83.7,0.3,[-0.0680652   0.19648729  0.97814103],[ 0.35288332  0.1434682  -0.92460275],[-0.57202423  0.17286703 -0.80181374],[-0.02994249 -0.13829843  0.98993787],1.7573874987419658,6.93208073362549,53.38322708635988,[0.44914219 0.04713219 0.04082959 0.89128155],[0.4349468  0.05481768 0.0754375  0.89561459]
1717778975.6974397,7.08,-17.58666666666667,-45.64,0.5487804878048781,-0.12195121951219513,-0.12195121951219513,-0.00390625,-0.3388671875,-0.974365234375,0.49560117302052786,0.47214076246334313,0.4662756598240469,0.02346041055718475,0.026392961876832845,0.02932551319648094,42.3,-83.7,0.3,[-0.0680652   0.19648729  0.97814103],[ 0.35585474  0.14325918 -0.92349565],[-0.57202423  0.17286703 -0.80181374],[-0.02994249 -0.13829843  0.98993787],1.7978525545417676,6.857076815249199,53.056827973308486,[0.44662674 0.04650582 0.04071913 0.89258261],[0.44674594 0.0541866  0.05427138 0.89136776]
1717778975.7250843,7.173333333333334,-17.64,-45.64,1.3414634146341464,-0.426829268292683,0.48780487804878053,-0.0205078125,-0.05517578125,-1.012451171875,0.49560117302052786,0.47214076246334313,0.4662756598240469,0.02346041055718475,0.026392961876832845,0.02932551319648094,42.3,-83.7,0.3,[-0.0680652   0.19648729  0.97814103],[ 0.35669965  0.14505246 -0.92288956],[-0.57202423  0.17286703 -0.80181374],[-0.02994249 -0.13829843  0.98993787],1.7926916338969279,6.8481591019264005,53.116851973692775,[0.44709311 0.04643511 0.04066863 0.89235508],[0.43792193 0.06646244 0.06101729 0.89447416]
1717778975.7514846,7.173333333333334,-17.746666666666666,-45.61333333333334,-5.670731707317073,0.06097560975609757,0.24390243902439027,-0.032470703125,-0.189208984375,-1.005615234375,0.49560117302052786,0.47214076246334313,0.4662756598240469,0.02346041055718475,0.026392961876832845,0.02932551319648094,42.3,-83.7,0.3,[-0.0680652   0.19648729  0.97814103],[ 0.35875821  0.14501271 -0.92209754],[-0.57202423  0.17286703 -0.80181374],[-0.02994249 -0.13829843  0.98993787],1.8193984160377794,6.797081404472049,52.90153726715296,[0.44543193 0.04600913 0.04059169 0.89321099],[ 0.44425955  0.00859374 -0.03662981  0.89510774]
1717778975.7785072,7.173333333333334,-17.8,-45.64,11.463414634146343,-0.30487804878048785,0.426829268292683,0.014404296875,-0.111328125,-0.98828125,0.49560117302052786,0.47214076246334313,0.4633431085043988,0.02346041055718475,0.026392961876832845,0.02932551319648094,42.3,-83.7,0.3,[-0.05664224  0.21583592  0.97478537],[ 0.35951847  0.1448846  -0.92182152],[-0.57202423  0.17286703 -0.80181374],[-0.02994249 -0.13829843  0.98993787],1.952627286178924,7.940410185033369,53.16686898440632,[0.44741685 0.05430247 0.0461806  0.89148009],[0.43331781 0.10884049 0.15073238 0.88185553]
1717778975.80556,7.16,-18.053333333333335,-45.46666666666667,-6.463414634146342,-0.12195121951219513,0.6707317073170732,-0.0146484375,-0.133544921875,-1.00244140625,0.49560117302052786,0.47214076246334313,0.4662756598240469,0.02346041055718475,0.026392961876832845,0.02932551319648094,42.3,-83.7,0.3,[-0.0680652   0.19648729  0.97814103],[ 0.3651495   0.14481926 -0.9196158 ],[-0.57202423  0.17286703 -0.80181374],[-0.02994249 -0.13829843  0.98993787],1.9012066347768466,6.638229506612071,52.23489112123586,[0.44027613 0.04468722 0.04035494 0.89584121],[ 0.43496607  0.01281332 -0.03423482  0.89970457]
1717778975.8327243,7.213333333333334,-18.12,-45.46666666666667,10.792682926829269,0.7317073170731708,-0.3658536585365854,0.01806640625,-0.2158203125,-0.982666015625,0.49560117302052786,0.47214076246334313,0.4662756598240469,0.02346041055718475,0.026392961876832845,0.02932551319648094,42.3,-83.7,0.3,[-0.0680652   0.19648729  0.97814103],[ 0.36625989  0.14580324 -0.91901856],[-0.57202423  0.17286703 -0.80181374],[-0.02994249 -0.13829843  0.98993787],1.9062728240566236,6.6177164389198895,52.20397959827975,[0.44003831 0.04451811 0.04030403 0.89596875],[0.43471759 0.08770866 0.14886411 0.88383668]
1717778975.8622653,7.3066666666666675,-18.333333333333336,-45.373333333333335,-6.158536585365854,-1.0975609756097562,1.0975609756097562,0.006103515625,-0.059814453125,-1.002685546875,0.49560117302052786,0.47214076246334313,0.4633431085043988,0.02346041055718475,0.026392961876832845,0.02932551319648094,42.3,-83.7,0.3,[-0.05664224  0.21583592  0.97478537],[ 0.37052254  0.14767007 -0.9170096 ],[-0.57202423  0.17286703 -0.80181374],[-0.02994249 -0.13829843  0.98993787],2.0822525964378897,7.692202088947389,52.3076562896237,[0.44081133 0.05220804 0.04583436 0.8949072 ],[ 0.43037552  0.032436   -0.03321863  0.90145512]
1717778975.908861,7.08,-18.16,-45.333333333333336,8.292682926829269,-0.6097560975609757,0.7317073170731708,-0.05078125,-0.28125,-1.005615234375,0.49560117302052786,0.47214076246334313,0.4633431085043988,0.02346041055718475,0.026392961876832845,0.026392961876832845,42.3,-83.7,0.3,[-0.05664224  0.21583592  0.97478537],[ 0.36801397  0.14347681 -0.91868391],[-0.57202423  0.17286703 -0.80181374],[-0.02994249 -0.13829843  0.98993787],2.0890234269605026,7.7262916971482545,52.22304591455401,[0.44014959 0.0524825  0.04597898 0.8952094 ],[0.42052291 0.10440147 0.1332825  0.89134538]
1717778975.949942,7.066666666666667,-18.453333333333333,-44.973333333333336,14.756097560975611,0.24390243902439027,-1.0365853658536586,-0.015625,-0.38720703125,-0.9794921875,0.49560117302052786,0.46920821114369504,0.4604105571847507,0.02346041055718475,0.026392961876832845,0.026392961876832845,42.3,-83.7,0.3,[-0.06788608  0.23516429  0.96958199],[ 0.37565607  0.14385673 -0.91552595],[-0.57202423  0.17286703 -0.80181374],[-0.02994249 -0.13829843  0.98993787],3.0813302904459037,8.431441923892812,53.7523469163335,[0.45244069 0.0534263  0.05713746 0.88835712],[0.44489873 0.11302773 0.19022119 0.86781666]
1717778975.9947033,7.053333333333334,-18.10666666666667,-44.94666666666667,3.5975609756097566,1.2195121951219514,0.9756097560975611,0.013427734375,-0.2001953125,-0.978515625,0.49560117302052786,0.46920821114369504,0.4633431085043988,0.02346041055718475,0.026392961876832845,0.026392961876832845,42.3,-83.7,0.3,[-0.07933128  0.21592342  0.97318222],[ 0.36977001  0.14404149 -0.91789007],[-0.57202423  0.17286703 -0.80181374],[-0.02994249 -0.13829843  0.98993787],2.8870140360337295,7.430337880328637,54.08930024608051,[0.45503902 0.04626283 0.05184216 0.88775651],[0.43127369 0.06814971 0.13247349 0.88983672]
1717778976.0151763,7.106666666666667,-18.506666666666668,-44.94666666666667,5.670731707317073,-0.426829268292683,0.7317073170731708,0.023681640625,-0.084228515625,-0.977294921875,0.49560117302052786,0.46920821114369504,0.4633431085043988,0.02346041055718475,0.026392961876832845,0.026392961876832845,42.3,-83.7,0.3,[-0.07933128  0.21592342  0.97318222],[ 0.37673083  0.14466681 -0.9149565 ],[-0.57202423  0.17286703 -0.80181374],[-0.02994249 -0.13829843  0.98993787],2.9774911664677592,7.25144279209966,53.4309336382448,[0.44997646 0.04481231 0.05158065 0.89042264],[0.43355616 0.09387916 0.13742949 0.88562345]
1717778976.0352867,7.04,-18.693333333333335,-44.74666666666667,14.573170731707318,0.6707317073170732,-0.30487804878048785,-0.038330078125,-0.31005859375,-0.988037109375,0.49266862170087977,0.46920821114369504,0.4633431085043988,0.02346041055718475,0.026392961876832845,0.026392961876832845,42.3,-83.7,0.3,[-0.06846702  0.19764727  0.97787925],[ 0.38147543  0.1436655  -0.9131466 ],[-0.57202423  0.17286703 -0.80181374],[-0.02994249 -0.13829843  0.98993787],2.1525405704469174,6.284001185174549,50.64776513179623,[0.42794693 0.04151274 0.04039317 0.90194595],[0.41898218 0.10046108 0.17548482 0.88519297]
1717778976.0567396,7.026666666666667,-18.546666666666667,-44.78666666666667,-1.6463414634146343,-0.30487804878048785,-0.48780487804878053,0.009521484375,-0.266357421875,-0.979736328125,0.49560117302052786,0.46920821114369504,0.4604105571847507,0.02346041055718475,0.026392961876832845,0.026392961876832845,42.3,-83.7,0.3,[-0.06788608  0.23516429  0.96958199],[ 0.37864549  0.14345519 -0.91435672],[-0.57202423  0.17286703 -0.80181374],[-0.02994249 -0.13829843  0.98993787],3.1317045206212275,8.351772265933135,53.43178634153566,[0.44998326 0.05276836 0.05706848 0.88964811],[0.45630673 0.04997343 0.04512268 0.88727153]
1717778976.0763142,7.026666666666667,-18.546666666666667,-44.78666666666667,7.743902439024391,0.3658536585365854,0.06097560975609757,-0.0302734375,-0.13818359375,-1.003173828125,0.49266862170087977,0.46920821114369504,0.4604105571847507,0.02346041055718475,0.026392961876832845,0.02932551319648094,42.3,-83.7,0.3,[-0.056975    0.21710392  0.97448434],[ 0.37864549  0.14345519 -0.91435672],[-0.57202423  0.17286703 -0.80181374],[-0.02994249 -0.13829843  0.98993787],2.2820498100674422,7.5307733017327525,51.31835129043146,[0.43317529 0.05057906 0.0463419  0.89869536],[0.42664638 0.09495244 0.14393583 0.88782846]
1717778976.1029236,7.28,-19.0,-44.74666666666667,6.585365853658537,0.3658536585365854,0.426829268292683,-0.0087890625,-0.270751953125,-0.986083984375,0.49266862170087977,0.46920821114369504,0.4604105571847507,0.02346041055718475,0.026392961876832845,0.026392961876832845,42.3,-83.7,0.3,[-0.056975    0.21710392  0.97448434],[ 0.38652851  0.14810145 -0.91030856],[-0.57202423  0.17286703 -0.80181374],[-0.02994249 -0.13829843  0.98993787],2.3419030840752244,7.371814454778783,50.94393516400581,[0.43027624 0.04925526 0.04605299 0.9001752 ],[0.416182   0.09310047 0.14731143 0.89242601]
1717778976.1304607,7.213333333333334,-19.093333333333334,-44.50666666666667,2.5609756097560976,0.06097560975609757,-0.7926829268292683,0.00390625,-0.302001953125,-0.963623046875,0.49266862170087977,0.46920821114369504,0.4604105571847507,0.02346041055718475,0.026392961876832845,0.026392961876832845,42.3,-83.7,0.3,[-0.056975    0.21710392  0.97448434],[ 0.3899498   0.14732042 -0.90897516],[-0.57202423  0.17286703 -0.80181374],[-0.02994249 -0.13829843  0.98993787],2.3942510632315424,7.2843853541293475,50.568201111673226,[0.42735132 0.04852204 0.04597889 0.90161101],[0.43590089 0.07125287 0.10379591 0.89114525]
1717778976.1569397,7.28,-19.200000000000003,-44.66666666666667,-0.5487804878048781,-0.3658536585365854,0.853658536585366,-0.03173828125,-0.170166015625,-0.998779296875,0.49266862170087977,0.4662756598240469,0.4604105571847507,0.02346041055718475,0.026392961876832845,0.02932551319648094,42.3,-83.7,0.3,[-0.07979676  0.21719034  0.97286219],[ 0.39055788  0.14808653 -0.90858952],[-0.57202423  0.17286703 -0.80181374],[-0.02994249 -0.13829843  0.98993787],3.1808812572214187,6.977079094882702,52.45352295702341,[0.44245106 0.04232076 0.0517317  0.89429852],[0.42836102 0.04980677 0.04580711 0.90107038]
1717778976.184036,7.253333333333334,-19.200000000000003,-44.56,9.451219512195122,0.12195121951219513,0.7926829268292683,-0.01611328125,-0.318115234375,-0.98193359375,0.49266862170087977,0.4662756598240469,0.4574780058651026,0.02346041055718475,0.026392961876832845,0.026392961876832845,42.3,-83.7,0.3,[-0.06828225  0.23653666  0.96922028],[ 0.3913607   0.14784738 -0.90828297],[-0.57202423  0.17286703 -0.80181374],[-0.02994249 -0.13829843  0.98993787],3.3275331070845526,8.12321228259416,52.65929051214352,[0.44407763 0.05060896 0.0573586  0.89271708],[0.42402678 0.10007924 0.16297519 0.88522569]
1717778976.2111118,7.000000000000001,-19.28,-44.49333333333334,-4.573170731707317,-0.426829268292683,0.06097560975609757,-0.00439453125,-0.168701171875,-0.989501953125,0.49266862170087977,0.4662756598240469,0.4574780058651026,0.02346041055718475,0.026392961876832845,0.026392961876832845,42.3,-83.7,0.3,[-0.06828225  0.23653666  0.96922028],[ 0.3935206   0.14287574 -0.9081454 ],[-0.57202423  0.17286703 -0.80181374],[-0.02994249 -0.13829843  0.98993787],3.409470457559286,8.032987555157755,52.092054088354466,[0.43969282 0.04987184 0.05740402 0.89492335],[4.41198510e-01 3.00459790e-02 7.38363132e-05 8.96906410e-01]
1717778976.2541358,6.800000000000001,-19.400000000000002,-44.586666666666666,14.390243902439027,0.48780487804878053,-0.1829268292682927,-0.013427734375,-0.2275390625,-0.9794921875,0.49266862170087977,0.4662756598240469,0.4574780058651026,0.02346041055718475,0.026392961876832845,0.026392961876832845,42.3,-83.7,0.3,[-0.06828225  0.23653666  0.96922028],[ 0.39513162  0.13849974 -0.9081238 ],[-0.57202423  0.17286703 -0.80181374],[-0.02994249 -0.13829843  0.98993787],3.477195547585937,7.959052445948287,51.61546918638281,[0.43599859 0.04927271 0.05744724 0.8967593 ],[0.42640952 0.10341988 0.17750494 0.8808923 ]
1717778976.2751622,6.8533333333333335,-19.813333333333336,-43.68,14.573170731707318,-0.12195121951219513,-0.06097560975609757,-0.00341796875,-0.177978515625,-0.98486328125,0.4897360703812317,0.4662756598240469,0.45454545454545453,0.02346041055718475,0.026392961876832845,0.026392961876832845,42.3,-83.7,0.3,[-0.04575901  0.23777077  0.97024284],[ 0.40893729  0.14144937 -0.90153334],[-0.57202423  0.17286703 -0.80181374],[-0.02994249 -0.13829843  0.98993787],2.936615700176739,8.029279226728317,48.95010573786116,[0.41477746 0.05310944 0.05226022 0.90686709],[0.40527375 0.11850721 0.18607298 0.88717872]
1717778976.29527,6.666666666666667,-19.58666666666667,-43.68,0.853658536585366,0.6707317073170732,0.48780487804878053,-0.039306640625,-0.28173828125,-1.006103515625,0.4897360703812317,0.4662756598240469,0.45454545454545453,0.02346041055718475,0.026392961876832845,0.026392961876832845,42.3,-83.7,0.3,[-0.04575901  0.23777077  0.97024284],[ 0.4052489   0.1379336  -0.90374092],[-0.57202423  0.17286703 -0.80181374],[-0.02994249 -0.13829843  0.98993787],2.923521709364098,8.092301840336548,49.00062417294991,[0.41516786 0.0536333  0.05240656 0.90664914],[0.40255101 0.06019764 0.09035969 0.90893567]
1717778976.320667,6.666666666666667,-19.58666666666667,-43.74666666666667,-2.378048780487805,-0.48780487804878053,1.2195121951219514,0.006103515625,-0.231689453125,-0.97314453125,0.49266862170087977,0.4662756598240469,0.45454545454545453,0.02346041055718475,0.026392961876832845,0.026392961876832845,42.3,-83.7,0.3,[-0.05677702  0.25568577  0.96509127],[ 0.40474429  0.13776184 -0.90399321],[-0.57202423  0.17286703 -0.80181374],[-0.02994249 -0.13829843  0.98993787],3.777043497870678,8.873094384061726,50.99489093113576,[0.43124883 0.05563941 0.06293715 0.89831376],[0.40986993 0.04886269 0.02257182 0.91055455]
1717778976.3460336,6.453333333333334,-20.0,-43.61333333333334,-3.231707317073171,-0.06097560975609757,0.6707317073170732,-0.028564453125,-0.258544921875,-0.979736328125,0.49266862170087977,0.4662756598240469,0.45454545454545453,0.02346041055718475,0.026392961876832845,0.026392961876832845,42.3,-83.7,0.3,[-0.05677702  0.25568577  0.96509127],[ 0.41311661  0.13329896 -0.90086961],[-0.57202423  0.17286703 -0.80181374],[-0.02994249 -0.13829843  0.98993787],3.954301335286135,8.62533527889845,49.934376311577466,[0.42300543 0.05360963 0.06291088 0.90234951],[0.41341031 0.03072752 0.00419661 0.91001655]
1717778976.3734958,6.546666666666667,-20.0,-44.10666666666667,3.658536585365854,0.48780487804878053,-0.06097560975609757,-0.00390625,-0.199951171875,-0.982177734375,0.4897360703812317,0.4662756598240469,0.45454545454545453,0.02346041055718475,0.026392961876832845,0.026392961876832845,42.3,-83.7,0.3,[-0.04575901  0.23777077  0.97024284],[ 0.40925074  0.13396141 -0.9025343 ],[-0.57202423  0.17286703 -0.80181374],[-0.02994249 -0.13829843  0.98993787],3.021404557213281,7.9665600606953255,48.353604185707816,[0.41009308 0.05257899 0.05243302 0.90901589],[0.40753553 0.06798229 0.10714273 0.90433049]
1717778976.4003046,6.333333333333334,-20.26666666666667,-43.68,6.219512195121951,0.1829268292682927,1.5853658536585367,0.0048828125,-0.315673828125,-0.96533203125,0.49266862170087977,0.4633431085043988,0.45454545454545453,0.02346041055718475,0.026392961876832845,0.026392961876832845,42.3,-83.7,0.3,[-0.07951829  0.25578376  0.9634581 ],[ 0.41728961  0.130403   -0.89936891],[-0.57202423  0.17286703 -0.80181374],[-0.02994249 -0.13829843  0.98993787],4.789853802949513,8.20220288759222,51.096363882525985,[0.43248619 0.04649216 0.06842085 0.89783783],[0.4010626  0.08738942 0.15749629 0.89816858]
1717778976.4272373,6.426666666666667,-20.52,-43.68,-1.7682926829268295,-0.24390243902439027,0.06097560975609757,-0.02685546875,-0.213623046875,-0.989013671875,0.4897360703812317,0.4633431085043988,0.45161290322580644,0.02346041055718475,0.026392961876832845,0.026392961876832845,42.3,-83.7,0.3,[-0.05710801  0.25717633  0.9646756 ],[ 0.42147744  0.13200268 -0.89718006],[-0.57202423  0.17286703 -0.80181374],[-0.02994249 -0.13829843  0.98993787],4.145128827257658,8.473973050351734,49.23441726430433,[0.41757277 0.05209941 0.06354401 0.90492033],[0.41663196 0.04802534 0.04523474 0.90667811]
1717778976.4604597,7.173333333333334,-22.94666666666667,-43.57333333333334,-1.7682926829268295,0.30487804878048785,0.426829268292683,-0.01953125,-0.2587890625,-0.983154296875,0.4897360703812317,0.4633431085043988,0.45161290322580644,0.02346041055718475,0.026392961876832845,0.026392961876832845,42.3,-83.7,0.3,[-0.05710801  0.25717633  0.9646756 ],[ 0.46109247  0.14414163 -0.87556663],[-0.57202423  0.17286703 -0.80181374],[-0.02994249 -0.13829843  0.98993787],4.556195497734669,7.565783368528776,46.86943954068447,[0.39893002 0.04471179 0.06260972 0.91374817],[0.39544026 0.0266457  0.03221945 0.9175396 ]
1717778976.481767,6.720000000000001,-19.533333333333335,-43.86666666666667,9.26829268292683,-0.426829268292683,0.853658536585366,-0.005126953125,-0.1748046875,-0.98583984375,0.4897360703812317,0.4633431085043988,0.45161290322580644,0.02346041055718475,0.026392961876832845,0.026392961876832845,42.3,-83.7,0.3,[-0.05710801  0.25717633  0.9646756 ],[ 0.40285671  0.13859371 -0.90470893],[-0.57202423  0.17286703 -0.80181374],[-0.02994249 -0.13829843  0.98993787],3.7892876602145713,9.001843360752707,51.33923661266049,[0.4339477  0.05641395 0.06368225 0.89691217],[0.4127063  0.104621   0.16516103 0.88963464]
1717778976.5090017,6.720000000000001,-20.666666666666668,-43.373333333333335,8.475609756097562,0.24390243902439027,-0.1829268292682927,-0.026123046875,-0.332763671875,-0.978515625,0.4897360703812317,0.4633431085043988,0.45161290322580644,0.02346041055718475,0.026392961876832845,0.026392961876832845,42.3,-83.7,0.3,[-0.05710801  0.25717633  0.9646756 ],[ 0.42600226  0.13851944 -0.89405506],[-0.57202423  0.17286703 -0.80181374],[-0.02994249 -0.13829843  0.98993787],4.139527743972674,8.410060607857783,49.32116858196148,[0.41825403 0.05156595 0.06330863 0.90465272],[0.40985625 0.10127264 0.17769793 0.88892359]
1717778976.5381455,6.720000000000001,-20.546666666666667,-43.10666666666667,-1.5853658536585367,0.3658536585365854,0.9146341463414634,-0.009765625,-0.242431640625,-0.9736328125,0.4897360703812317,0.4633431085043988,0.45161290322580644,0.02346041055718475,0.026392961876832845,0.026392961876832845,42.3,-83.7,0.3,[-0.05710801  0.25717633  0.9646756 ],[ 0.42607141  0.13935107 -0.89389285],[-0.57202423  0.17286703 -0.80181374],[-0.02994249 -0.13829843  0.98993787],4.131528816283284,8.414772500009086,49.37494805825641,[0.41867504 0.05160274 0.06328671 0.90445739],[0.40291395 0.04341009 0.05422479 0.91259826]
1717778976.5632064,6.720000000000001,-20.78666666666667,-43.21333333333334,-0.426829268292683,-0.30487804878048785,0.30487804878048785,-0.016845703125,-0.252197265625,-0.978271484375,0.4897360703812317,0.4633431085043988,0.45161290322580644,0.02346041055718475,0.026392961876832845,0.026392961876832845,42.3,-83.7,0.3,[-0.05710801  0.25717633  0.9646756 ],[ 0.4292864   0.13878149 -0.89244209],[-0.57202423  0.17286703 -0.80181374],[-0.02994249 -0.13829843  0.98993787],4.1837806561578725,8.328377174034683,49.06306142063165,[0.41623323 0.05090057 0.06324879 0.90562609],[0.40969771 0.05215436 0.05192702 0.90924765]
1717778976.5914834,6.880000000000001,-20.720000000000002,-43.21333333333334,10.365853658536587,0.1829268292682927,0.5487804878048781,-0.01171875,-0.218994140625,-0.9716796875,0.4897360703812317,0.4633431085043988,0.44868035190615835,0.02346041055718475,0.026392961876832845,0.026392961876832845,42.3,-83.7,0.3,[-0.04556103  0.27619909  0.96001992],[ 0.42796355  0.14210373 -0.89255461],[-0.57202423  0.17286703 -0.80181374],[-0.02994249 -0.13829843  0.98993787],4.306710738675815,9.55453150678342,49.713507520187605,[0.42143434 0.0597744  0.06895817 0.90225544],[0.40380035 0.10748103 0.17963511 0.89057528]
1717778976.6163485,6.720000000000001,-20.720000000000002,-43.42666666666667,8.231707317073171,0.24390243902439027,0.1829268292682927,-0.0126953125,-0.299072265625,-0.970703125,0.4897360703812317,0.4604105571847507,0.44868035190615835,0.02346041055718475,0.026392961876832845,0.026392961876832845,42.3,-83.7,0.3,[-0.06838456  0.2763729   0.9586144 ],[ 0.42648263  0.13831869 -0.89385709],[-0.57202423  0.17286703 -0.80181374],[-0.02994249 -0.13829843  0.98993787],5.054980281714995,9.260809934648819,51.216166448872,[0.43359352 0.05372945 0.07449487 0.89641526],[0.41833424 0.10276328 0.18760334 0.88274637]
1717778976.6433935,6.626666666666667,-21.013333333333335,-42.84,6.951219512195123,0.24390243902439027,-0.30487804878048785,-0.009521484375,-0.3525390625,-0.956298828125,0.4868035190615836,0.4604105571847507,0.44868035190615835,0.02346041055718475,0.026392961876832845,0.026392961876832845,42.3,-83.7,0.3,[-0.05744273  0.25868371  0.9642526 ],[ 0.43619617  0.13755679 -0.88927557],[-0.57202423  0.17286703 -0.80181374],[-0.02994249 -0.13829843  0.98993787],4.349853295669131,8.215469889447785,48.51397677282858,[0.41195796 0.04970963 0.06391847 0.90759794],[0.40877364 0.09510338 0.17117873 0.89137943]
1717778976.6703846,6.733333333333333,-20.68,-42.70666666666667,-1.5853658536585367,-0.06097560975609757,1.3414634146341464,-0.01025390625,-0.265625,-0.976318359375,0.4897360703812317,0.4604105571847507,0.44868035190615835,0.02346041055718475,0.026392961876832845,0.026392961876832845,42.3,-83.7,0.3,[-0.06838456  0.2763729   0.9586144 ],[ 0.4315025   0.14049566 -0.89110413],[-0.57202423  0.17286703 -0.80181374],[-0.02994249 -0.13829843  0.98993787],5.111057709733319,9.141887943255114,50.92937902038887,[0.43136916 0.05277001 0.07435839 0.89755602],[0.40802903 0.0518911  0.05891076 0.90958735]
1717778976.6975253,6.626666666666667,-20.76,-42.78666666666667,-2.25609756097561,-0.06097560975609757,-0.06097560975609757,-0.018310546875,-0.26806640625,-0.978271484375,0.4868035190615836,0.4604105571847507,0.44868035190615835,0.02346041055718475,0.026392961876832845,0.026392961876832845,42.3,-83.7,0.3,[-0.05744273  0.25868371  0.9642526 ],[ 0.43235092  0.13800797 -0.89108164],[-0.57202423  0.17286703 -0.80181374],[-0.02994249 -0.13829843  0.98993787],4.29086270600982,8.317455396431592,48.86600746197239,[0.41472239 0.05053515 0.06396903 0.90628886],[0.41672352 0.03469189 0.02502029 0.90802641]
1717778976.7248468,6.920000000000001,-20.933333333333334,-42.96,-0.6097560975609757,0.1829268292682927,0.12195121951219513,-0.009033203125,-0.230712890625,-0.959716796875,0.4868035190615836,0.4604105571847507,0.44868035190615835,0.02346041055718475,0.026392961876832845,0.026392961876832845,42.3,-83.7,0.3,[-0.05744273  0.25868371  0.9642526 ],[ 0.43351735  0.14330924 -0.889677  ],[-0.57202423  0.17286703 -0.80181374],[-0.02994249 -0.13829843  0.98993787],4.250683172554671,8.329299284817964,49.14588357005816,[0.41691732 0.05061875 0.06381743 0.90528726],[0.41528266 0.04037617 0.04902343 0.90747274]
1717778976.7588484,7.026666666666667,-21.080000000000002,-42.906666666666666,15.365853658536587,0.0,0.24390243902439027,-0.008056640625,-0.305908203125,-0.956787109375,0.4868035190615836,0.4604105571847507,0.44574780058651026,0.02346041055718475,0.026392961876832845,0.026392961876832845,42.3,-83.7,0.3,[-0.04582604  0.27780561  0.95954365],[ 0.43626761  0.14542254 -0.88798809],[-0.57202423  0.17286703 -0.80181374],[-0.02994249 -0.13829843  0.98993787],4.453648454398959,9.448821187327564,49.36835580290497,[0.41879082 0.05860894 0.06955538 0.90351607],[0.40530593 0.11491593 0.19439131 0.88585182]
1717778976.778969,7.000000000000001,-21.040000000000003,-41.906666666666666,7.865853658536586,0.24390243902439027,-0.1829268292682927,-0.01171875,-0.332275390625,-0.96435546875,0.4868035190615836,0.4604105571847507,0.44574780058651026,0.02346041055718475,0.026392961876832845,0.026392961876832845,42.3,-83.7,0.3,[-0.04582604  0.27780561  0.95954365],[ 0.44377419  0.1476435  -0.88389245],[-0.57202423  0.17286703 -0.80181374],[-0.02994249 -0.13829843  0.98993787],4.544961895771947,9.27635834170191,48.914558376383944,[0.41525297 0.0571867  0.06942791 0.90524826],[0.40669156 0.10509484 0.18293162 0.8888718 ]
1717778976.8057582,7.053333333333334,-21.040000000000003,-42.74666666666667,-0.1829268292682927,0.30487804878048785,0.426829268292683,-0.0166015625,-0.296875,-0.96875,0.4868035190615836,0.4574780058651026,0.44574780058651026,0.02346041055718475,0.026392961876832845,0.026392961876832845,42.3,-83.7,0.3,[-0.06878198  0.27797907  0.95812143],[ 0.43684666  0.14644606 -0.8875351 ],[-0.57202423  0.17286703 -0.80181374],[-0.02994249 -0.13829843  0.98993787],5.187961967044234,9.12408594564206,50.98840500128421,[0.43186571 0.052302   0.07492168 0.89729775],[0.42054602 0.05492785 0.08911161 0.90121202]
1717778976.8325958,6.706666666666667,-21.186666666666667,-42.42666666666667,12.256097560975611,-0.12195121951219513,0.9756097560975611,-0.008056640625,-0.24267578125,-0.97900390625,0.4868035190615836,0.4574780058651026,0.44281524926686217,0.02346041055718475,0.026392961876832845,0.026392961876832845,42.3,-83.7,0.3,[-0.05714378  0.29692777  0.95318859],[ 0.44236182  0.14003021 -0.88583721],[-0.57202423  0.17286703 -0.80181374],[-0.02994249 -0.13829843  0.98993787],5.510952328929765,10.09115577594884,50.3250727679083,[0.42687706 0.05914923 0.08069429 0.89875791],[0.4063934  0.11579688 0.19823173 0.88438661]
1717778976.864571,6.800000000000001,-21.520000000000003,-42.373333333333335,12.439024390243903,0.1829268292682927,0.853658536585366,-0.0146484375,-0.31689453125,-0.9541015625,0.4838709677419355,0.4574780058651026,0.44574780058651026,0.02346041055718475,0.026392961876832845,0.026392961876832845,42.3,-83.7,0.3,[-0.05778125  0.26020818  0.96382209],[ 0.44825068  0.14164055 -0.88261503],[-0.57202423  0.17286703 -0.80181374],[-0.02994249 -0.13829843  0.98993787],4.529664790938874,8.014533704032123,47.93489393402302,[0.40743142 0.04779369 0.0643883  0.9097085 ],[0.38743565 0.10878935 0.19509837 0.89442446]
1717778976.8866863,6.413333333333334,-21.506666666666668,-42.440000000000005,-2.5,0.48780487804878053,0.9756097560975611,-0.006591796875,-0.334716796875,-0.958740234375,0.4838709677419355,0.4574780058651026,0.44574780058651026,0.02346041055718475,0.026392961876832845,0.026392961876832845,42.3,-83.7,0.3,[-0.05778125  0.26020818  0.96382209],[ 0.44797573  0.13358731 -0.88400915],[-0.57202423  0.17286703 -0.80181374],[-0.02994249 -0.13829843  0.98993787],4.610382126385023,7.953658919424023,47.38130272913467,[0.403061   0.0473348  0.06458742 0.91166316],[0.3861201  0.03362711 0.0433645  0.92081486]
1717778976.9137964,6.466666666666667,-21.493333333333336,-42.413333333333334,-0.6707317073170732,0.12195121951219513,0.24390243902439027,-0.012451171875,-0.31298828125,-0.96044921875,0.4868035190615836,0.4574780058651026,0.44281524926686217,0.02346041055718475,0.026392961876832845,0.026392961876832845,42.3,-83.7,0.3,[-0.05714378  0.29692777  0.95318859],[ 0.44790688  0.13476107 -0.88386587],[-0.57202423  0.17286703 -0.80181374],[-0.02994249 -0.13829843  0.98993787],5.667052766911172,9.901575974469425,49.52844904199513,[0.42068603 0.05763803 0.08082635 0.9017584 ],[0.4120361  0.04732099 0.06441854 0.90765479]
1717778976.9408584,6.466666666666667,-21.493333333333336,-42.2,-1.9512195121951221,-0.06097560975609757,0.7317073170731708,-0.0166015625,-0.282470703125,-0.969482421875,0.4838709677419355,0.4574780058651026,0.44281524926686217,0.02346041055718475,0.026392961876832845,0.026392961876832845,42.3,-83.7,0.3,[-0.04609402  0.27943012  0.95905899],[ 0.44967286  0.13529239 -0.88288747],[-0.57202423  0.17286703 -0.80181374],[-0.02994249 -0.13829843  0.98993787],4.8341588822990165,9.11316032049,47.71699396035742,[0.4059062  0.05558583 0.0705524  0.90949037],[0.3960431  0.04140038 0.03575307 0.91660111]
1717778976.9707124,6.16,-21.560000000000002,-41.94666666666667,1.4634146341463417,0.06097560975609757,0.3658536585365854,-0.015380859375,-0.283447265625,-0.971923828125,0.4838709677419355,0.4574780058651026,0.44281524926686217,0.02346041055718475,0.026392961876832845,0.026392961876832845,42.3,-83.7,0.3,[-0.04609402  0.27943012  0.95905899],[ 0.45328721  0.12951063 -0.88190572],[-0.57202423  0.17286703 -0.80181374],[-0.02994249 -0.13829843  0.98993787],4.955184461393913,8.972987413735872,47.03217684207077,[0.40051276 0.05446471 0.07069973 0.91193458],[0.39193929 0.06260438 0.09095514 0.91334082]
1717778977.0177915,6.24,-21.986666666666668,-41.57333333333334,14.26829268292683,-0.48780487804878053,0.1829268292682927,0.008544921875,-0.2666015625,-0.92578125,0.4838709677419355,0.45454545454545453,0.44281524926686217,0.02346041055718475,0.026392961876832845,0.026392961876832845,42.3,-83.7,0.3,[-0.06918384  0.27960317  0.95761979],[ 0.46344825  0.13153049 -0.87630785],[-0.57202423  0.17286703 -0.80181374],[-0.02994249 -0.13829843  0.98993787],5.8079807632076,8.358178503570949,47.901122147871845,[0.40772303 0.04600226 0.07572232 0.90879692],[0.39391045 0.10562064 0.20072299 0.89072393]
1717778977.048141,6.5200000000000005,-22.173333333333336,-41.26666666666667,-0.426829268292683,0.6097560975609757,-0.3658536585365854,-0.015380859375,-0.3662109375,-0.9501953125,0.4809384164222874,0.45454545454545453,0.44281524926686217,0.02346041055718475,0.02346041055718475,0.026392961876832845,42.3,-83.7,0.3,[-0.05812363  0.26175003  0.96338391],[ 0.46880023  0.13784925 -0.87248148],[-0.57202423  0.17286703 -0.80181374],[-0.02994249 -0.13829843  0.98993787],4.896473883519146,7.530788082714231,46.16019228597676,[0.39339499 0.04365002 0.06493359 0.91603422],[0.3983073  0.03774245 0.08274305 0.91273237]
1717778977.0680568,6.5200000000000005,-22.173333333333336,-41.586666666666666,-2.1341463414634148,-0.30487804878048785,-0.12195121951219513,-0.01318359375,-0.285888671875,-0.960205078125,0.4809384164222874,0.45454545454545453,0.44281524926686217,0.02346041055718475,0.02346041055718475,0.026392961876832845,42.3,-83.7,0.3,[-0.05812363  0.26175003  0.96338391],[ 0.46604668  0.13703958 -0.87408274],[-0.57202423  0.17286703 -0.80181374],[-0.02994249 -0.13829843  0.98993787],4.869888875694371,7.5940097315471675,46.31534034749581,[0.39463196 0.04415993 0.06499511 0.91547319],[0.39864999 0.03245727 0.02929931 0.91606019]
1717778977.0876071,7.053333333333334,-22.546666666666667,-41.21333333333334,-0.7317073170731708,0.30487804878048785,0.30487804878048785,-0.009765625,-0.34521484375,-0.955322265625,0.4838709677419355,0.45454545454545453,0.436950146627566,0.02346041055718475,0.026392961876832845,0.026392961876832845,42.3,-83.7,0.3,[-0.04581432  0.31741091  0.94718074],[ 0.47462559  0.14847838 -0.86757404],[-0.57202423  0.17286703 -0.80181374],[-0.02994249 -0.13829843  0.98993787],6.19436038353476,10.54255006650414,48.624119022941606,[0.41388978 0.06145134 0.08679867 0.90409345],[0.40707277 0.04661126 0.06790819 0.90967446]
