Time,MagX,MagY,MagZ,GyroX,GyroY,GyroZ,AccelX,AccelY,AccelZ,Tri11,Tri12,Tri13,Tri21,Tri22,Tri23,Lat,Lon,Alt,SunVect,MagVect,MagRef,SunRef,Roll,Pitch,Yaw,static_q,dynamic_q
1717778947.185352,-5.8933333333333335,29.22666666666667,-43.013333333333335,-3.1707317073170733,-0.24390243902439027,0.3658536585365854,-0.029296875,0.437744140625,-0.925537109375,0.4838709677419355,0.5102639296187683,0.501466275659824,0.03519061583577713,0.04105571847507331,0.05278592375366569,42.3,-83.7,0.3,[ 0.13141014 -0.11380452  0.98477404],[-0.55844091 -0.11260533 -0.82186604],[-0.57202423  0.17286703 -0.80181374],[-0.02994249 -0.13829843  0.98993787],1.4507662615879129,-3.615358821483874,-148.73573253294109,[ 0.96256282 -0.00368629 -0.03378516 -0.26891969],[ 0.96104187 -0.07798543 -0.01502157 -0.26474733]
1717778947.2110424,-6.2266666666666675,29.680000000000003,-43.42666666666667,-20.79268292682927,0.1829268292682927,0.1829268292682927,-0.02001953125,0.539306640625,-0.903076171875,0.4838709677419355,0.5102639296187683,0.501466275659824,0.03519061583577713,0.04105571847507331,0.05278592375366569,42.3,-83.7,0.3,[ 0.13141014 -0.11380452  0.98477404],[-0.5603443  -0.11755651 -0.81987483],[-0.57202423  0.17286703 -0.80181374],[-0.02994249 -0.13829843  0.98993787],1.475886103659953,-3.5946000785046657,-148.34913463935337,[ 0.96165412 -0.00383253 -0.0336829  -0.27216194],[ 0.94979197 -0.15307836  0.00882254 -0.27273501]
1717778947.2381296,-6.026666666666667,29.76,-43.42666666666667,4.695121951219512,-0.3658536585365854,0.7926829268292683,-0.035400390625,0.38427734375,-0.929443359375,0.4838709677419355,0.5073313782991202,0.501466275659824,0.03519061583577713,0.04105571847507331,0.05278592375366569,42.3,-83.7,0.3,[ 0.1100088  -0.1143245   0.98733377],[-0.56162404 -0.1137339  -0.81953831],[-0.57202423  0.17286703 -0.80181374],[-0.02994249 -0.13829843  0.98993787],0.8163753146864638,-2.9242829199777387,-149.79144102836224,[ 9.65161698e-01 -2.26989877e-04 -2.64900612e-02 -2.60309664e-01],[ 0.96672758  0.05211657 -0.04640207 -0.24610669]
1717778947.2651412,-6.026666666666667,29.74666666666667,-43.480000000000004,-8.170731707317074,0.9756097560975611,0.426829268292683,-0.00537109375,0.480224609375,-0.91796875,0.4809384164222874,0.5073313782991202,0.501466275659824,0.03519061583577713,0.04105571847507331,0.05571847507331378,42.3,-83.7,0.3,[ 0.12080241 -0.13315012  0.98370617],[-0.56098879 -0.11365618 -0.81998406],[-0.57202423  0.17286703 -0.80181374],[-0.02994249 -0.13829843  0.98993787],2.1479551726771344,-2.5230895863091334,-147.67673450133188,[ 0.96019366 -0.01187113 -0.02635845 -0.27783529],[ 0.95667078 -0.10844639  0.01135032 -0.2699844 ]
1717778947.2923968,-6.093333333333334,29.840000000000003,-43.440000000000005,1.524390243902439,-0.853658536585366,-0.06097560975609757,-0.00244140625,0.33203125,-0.9326171875,0.4838709677419355,0.5073313782991202,0.501466275659824,0.03519061583577713,0.04105571847507331,0.05571847507331378,42.3,-83.7,0.3,[ 0.1100088  -0.1143245   0.98733377],[-0.5624597  -0.11485437 -0.81880862],[-0.57202423  0.17286703 -0.80181374],[-0.02994249 -0.13829843  0.98993787],0.8202670061149341,-2.9282932938963966,-149.72668143987656,[ 9.65013629e-01 -2.35651177e-04 -2.65328136e-02 -2.60853693e-01],[ 0.96426188  0.00723406 -0.04408835 -0.26115689]
1717778947.3190732,-6.146666666666667,29.94666666666667,-43.22666666666667,-14.939024390243905,0.6097560975609757,0.853658536585366,-0.03369140625,0.510498046875,-0.904296875,0.4809384164222874,0.5073313782991202,0.501466275659824,0.03519061583577713,0.04105571847507331,0.05571847507331378,42.3,-83.7,0.3,[ 0.12080241 -0.13315012  0.98370617],[-0.56562284 -0.11609623 -0.81645114],[-0.57202423  0.17286703 -0.80181374],[-0.02994249 -0.13829843  0.98993787],2.152906647035565,-2.5907137119006656,-147.7155114629916,[ 0.96027754 -0.0117573  -0.02693297 -0.27749491],[ 0.95169424 -0.143232    0.01392646 -0.27123555]
1717778947.3460658,-6.066666666666667,30.080000000000002,-43.06666666666667,-15.182926829268293,-0.1829268292682927,0.9146341463414634,0.010498046875,0.34765625,-0.925048828125,0.4809384164222874,0.5073313782991202,0.501466275659824,0.03519061583577713,0.04105571847507331,0.05571847507331378,42.3,-83.7,0.3,[ 0.12080241 -0.13315012  0.98370617],[-0.56882958 -0.11472405 -0.8144147 ],[-0.57202423  0.17286703 -0.80181374],[-0.02994249 -0.13829843  0.98993787],2.1455077709241293,-2.674110814955451,-148.03145960590146,[ 0.96102744 -0.01156884 -0.02758195 -0.27483025],[ 0.9507831  -0.15735532  0.013476   -0.26658807]
1717778947.3732,-6.053333333333334,30.200000000000003,-42.93333333333334,-4.451219512195122,0.6097560975609757,-0.12195121951219513,-0.029541015625,0.584228515625,-0.873046875,0.4809384164222874,0.5073313782991202,0.501466275659824,0.03519061583577713,0.04105571847507331,0.05571847507331378,42.3,-83.7,0.3,[ 0.12080241 -0.13315012  0.98370617],[-0.57154814 -0.11456197 -0.81253202],[-0.57202423  0.17286703 -0.80181374],[-0.02994249 -0.13829843  0.98993787],2.142731817281009,-2.7326219612343636,-148.2026240940893,[ 0.96142819 -0.01144671 -0.02804881 -0.27338265],[ 0.95558135 -0.09940514  0.00669226 -0.2773772 ]
1717778947.4002097,-6.066666666666667,30.333333333333336,-42.760000000000005,-5.365853658536586,0.48780487804878053,0.6707317073170732,-0.008544921875,0.406005859375,-0.922119140625,0.4809384164222874,0.5073313782991202,0.49853372434017595,0.03519061583577713,0.04105571847507331,0.05571847507331378,42.3,-83.7,0.3,[ 0.13216402 -0.1144574   0.98459747],[-0.57475342 -0.11495068 -0.81021284],[-0.57202423  0.17286703 -0.80181374],[-0.02994249 -0.13829843  0.98993787],1.490898193485136,-3.9146051789797873,-149.33775884396687,[ 0.96388718 -0.00351023 -0.03637435 -0.26379175],[ 0.96178718 -0.09548694  0.00123536 -0.25660504]
1717778947.427252,-6.066666666666667,30.6,-42.693333333333335,-3.5975609756097566,0.06097560975609757,0.7317073170731708,-0.027587890625,0.4921875,-0.901123046875,0.4809384164222874,0.5073313782991202,0.501466275659824,0.03519061583577713,0.04105571847507331,0.05571847507331378,42.3,-83.7,0.3,[ 0.12080241 -0.13315012  0.98370617],[-0.57871103 -0.11473356 -0.80742167],[-0.57202423  0.17286703 -0.80181374],[-0.02994249 -0.13829843  0.98993787],2.137508459398059,-2.878983377909867,-148.59081543806568,[ 0.96232566 -0.01115168 -0.02922638 -0.27009403],[ 0.96285373 -0.08284015 -0.00681553 -0.25691195]
1717778947.4588823,-5.973333333333334,30.533333333333335,-42.653333333333336,-11.646341463414634,0.3658536585365854,0.6707317073170732,-0.0283203125,0.446044921875,-0.933837890625,0.4780058651026393,0.5043988269794721,0.501466275659824,0.03519061583577713,0.04398826979472141,0.05571847507331378,42.3,-83.7,0.3,[ 0.11007992 -0.15253121  0.98214899],[-0.57834175 -0.11314284 -0.80791059],[-0.57202423  0.17286703 -0.80181374],[-0.02994249 -0.13829843  0.98993787],2.8039529651733446,-1.7586937092249062,-147.72564463751493,[ 0.96030272 -0.01923568 -0.02153721 -0.2774614 ],[ 0.95119086 -0.14918283  0.01778901 -0.26956257]
1717778947.4820251,-6.093333333333334,30.533333333333335,-42.653333333333336,-5.2439024390243905,-0.6097560975609757,0.853658536585366,-0.01123046875,0.49072265625,-0.9033203125,0.4780058651026393,0.5043988269794721,0.501466275659824,0.03519061583577713,0.04398826979472141,0.05571847507331378,42.3,-83.7,0.3,[ 0.11007992 -0.15253121  0.98214899],[-0.57819158 -0.11538583 -0.80770081],[-0.57202423  0.17286703 -0.80181374],[-0.02994249 -0.13829843  0.98993787],2.807392542799921,-1.728684112986502,-147.51606874760617,[ 0.95979512 -0.01929837 -0.02132944 -0.27922385],[ 0.95719138 -0.11869242 -0.00109196 -0.26399921]
1717778947.509551,-5.96,30.933333333333334,-42.653333333333336,-12.256097560975611,0.06097560975609757,-0.24390243902439027,-0.025634765625,0.403564453125,-0.923828125,0.4780058651026393,0.5043988269794721,0.49853372434017595,0.03519061583577713,0.04398826979472141,0.05865102639296188,42.3,-83.7,0.3,[ 0.12149665 -0.13391533  0.98351678],[-0.58336755 -0.11239883 -0.80439344],[-0.57202423  0.17286703 -0.80181374],[-0.02994249 -0.13829843  0.98993787],2.1867703622994825,-2.995067680025417,-148.97396700449957,[ 0.9631986  -0.01139214 -0.03027915 -0.26683674],[ 0.95115214 -0.14812367  0.00759424 -0.27076062]
1717778947.535559,-5.946666666666667,31.160000000000004,-42.53333333333334,-5.548780487804878,0.5487804878048781,0.48780487804878053,-0.0283203125,0.500244140625,-0.928955078125,0.4780058651026393,0.5043988269794721,0.49853372434017595,0.03519061583577713,0.04398826979472141,0.05865102639296188,42.3,-83.7,0.3,[ 0.12149665 -0.13391533  0.98351678],[-0.58725665 -0.1120738  -0.80160407],[-0.57202423  0.17286703 -0.80181374],[-0.02994249 -0.13829843  0.98993787],2.1821388513613713,-3.07900053999969,-149.2168031070541,[ 0.96374736 -0.01122267 -0.03094995 -0.26477761],[ 0.95905699 -0.10996507  0.00701749 -0.26089871]
1717778947.5796218,-5.946666666666667,31.200000000000003,-42.6,-4.146341463414634,-0.426829268292683,0.24390243902439027,-0.0126953125,0.46044921875,-0.91650390625,0.4780058651026393,0.5043988269794721,0.49853372434017595,0.03812316715542522,0.04398826979472141,0.05571847507331378,42.3,-83.7,0.3,[ 0.12149665 -0.13391533  0.98351678],[-0.58715919 -0.11191154 -0.80169813],[-0.57202423  0.17286703 -0.80181374],[-0.02994249 -0.13829843  0.98993787],2.1815928940298392,-3.0789182328505666,-149.22659964384295,[ 0.96377006 -0.01122091 -0.03094703 -0.26469538],[ 0.96086896 -0.09425632 -0.01412901 -0.26009031]
1717778947.59777,-5.96,31.186666666666667,-42.45333333333333,-5.0,0.06097560975609757,0.12195121951219513,-0.02197265625,0.400146484375,-0.91748046875,0.4780058651026393,0.5043988269794721,0.49853372434017595,0.03519061583577713,0.04398826979472141,0.05865102639296188,42.3,-83.7,0.3,[ 0.12149665 -0.13391533  0.98351678],[-0.58827949 -0.11242451 -0.80080458],[-0.57202423  0.17286703 -0.80181374],[-0.02994249 -0.13829843  0.98993787],2.182610853926256,-3.0958752724002445,-149.23971274704886,[ 0.96379715 -0.01119372 -0.03109068 -0.26458105],[ 0.95922301 -0.10030969 -0.00655352 -0.26417084]
1717778947.6200616,-6.2,31.46666666666667,-42.45333333333333,-13.04878048780488,0.12195121951219513,0.1829268292682927,-0.0244140625,0.4619140625,-0.926025390625,0.4780058651026393,0.5043988269794721,0.49853372434017595,0.03519061583577713,0.04398826979472141,0.05865102639296188,42.3,-83.7,0.3,[ 0.12149665 -0.13391533  0.98351678],[-0.59141219 -0.11652825 -0.79790525],[-0.57202423  0.17286703 -0.80181374],[-0.02994249 -0.13829843  0.98993787],2.195713507176655,-3.112337118385463,-149.03077023089688,[ 0.96330882 -0.01120875 -0.03127984 -0.26633071],[ 0.95241306 -0.14852384  0.00796043 -0.26605765]
1717778947.6439044,-5.8133333333333335,31.58666666666667,-42.22666666666667,-4.75609756097561,0.06097560975609757,0.426829268292683,-0.022705078125,0.496826171875,-0.882568359375,0.4780058651026393,0.5043988269794721,0.49560117302052786,0.03812316715542522,0.04398826979472141,0.05865102639296188,42.3,-83.7,0.3,[ 0.13292645 -0.11511768  0.98441784],[-0.59538127 -0.10957629 -0.79593604],[-0.57202423  0.17286703 -0.80181374],[-0.02994249 -0.13829843  0.98993787],1.475883392741765,-4.386895452526019,-150.87836155973181,[ 0.96721586 -0.0028349  -0.04027671 -0.25072541],[ 0.96394137 -0.09682065 -0.0113003  -0.24761886]
1717778947.6708777,-5.653333333333333,31.58666666666667,-42.53333333333334,-8.902439024390244,0.3658536585365854,0.5487804878048781,-0.018798828125,0.540771484375,-0.894287109375,0.4750733137829912,0.501466275659824,0.49853372434017595,0.03812316715542522,0.04398826979472141,0.05865102639296188,42.3,-83.7,0.3,[ 0.11071302 -0.15340847  0.98194117],[-0.59284245 -0.10610604 -0.79829777],[-0.57202423  0.17286703 -0.80181374],[-0.02994249 -0.13829843  0.98993787],2.860150796746474,-2.136817039820561,-149.06097994441103,[ 0.96342896 -0.01907676 -0.02462056 -0.26614761],[ 0.95570027 -0.13828659  0.01088872 -0.25960594]
1717778947.6977184,-5.720000000000001,31.680000000000003,-42.400000000000006,-15.853658536585368,-0.3658536585365854,1.1585365853658538,-0.0263671875,0.3076171875,-0.947998046875,0.4750733137829912,0.501466275659824,0.49560117302052786,0.03812316715542522,0.04398826979472141,0.05865102639296188,42.3,-83.7,0.3,[ 0.12219878 -0.13468923  0.98332409],[-0.59508298 -0.10744554 -0.79644944],[-0.57202423  0.17286703 -0.80181374],[-0.02994249 -0.13829843  0.98993787],2.219263910596674,-3.2877522028285044,-149.97314111542528,[ 0.96543048 -0.01126691 -0.03271717 -0.25835369],[ 0.9555376  -0.15867306  0.00573621 -0.24847103]
1717778947.7245471,-5.706666666666667,32.2,-42.34666666666667,-14.878048780487806,0.6707317073170732,1.1585365853658538,-0.031494140625,0.744140625,-0.833984375,0.4750733137829912,0.501466275659824,0.49560117302052786,0.03812316715542522,0.04398826979472141,0.05865102639296188,42.3,-83.7,0.3,[ 0.12219878 -0.13468923  0.98332409],[-0.6018275  -0.10665928 -0.7914717 ],[-0.57202423  0.17286703 -0.80181374],[-0.02994249 -0.13829843  0.98993787],2.2096505627268686,-3.4345546740450126,-150.3974303914318,[ 0.96635139 -0.01097912 -0.03389149 -0.25474658],[ 0.95637427 -0.15600078  0.01181068 -0.24672358]
1717778947.7515078,-5.680000000000001,32.13333333333333,-42.38666666666667,-4.146341463414634,-1.402439024390244,-0.6097560975609757,0.02734375,0.2919921875,-0.94189453125,0.4750733137829912,0.501466275659824,0.49560117302052786,0.03812316715542522,0.04398826979472141,0.05865102639296188,42.3,-83.7,0.3,[ 0.12219878 -0.13468923  0.98332409],[-0.60070774 -0.10618319 -0.79238585],[-0.57202423  0.17286703 -0.80181374],[-0.02994249 -0.13829843  0.98993787],2.2087114256047236,-3.4174516690641297,-150.38349888021142,[ 0.96632408 -0.01100529 -0.03374656 -0.25486826],[ 0.95912342 -0.1032958  -0.03511527 -0.26111138]
1717778947.7789056,-5.946666666666667,32.24,-42.36,3.8414634146341466,0.24390243902439027,1.1585365853658538,-0.061279296875,0.612548828125,-0.85595703125,0.47214076246334313,0.501466275659824,0.49853372434017595,0.03812316715542522,0.04398826979472141,0.05865102639296188,42.3,-83.7,0.3,[ 0.12148129 -0.17215508  0.97755047],[-0.60189177 -0.11101891 -0.79082305],[-0.57202423  0.17286703 -0.80181374],[-0.02994249 -0.13829843  0.98993787],4.158051836379154,-1.8463225360450228,-147.27587238621578,[ 0.9589093  -0.03026841 -0.02566721 -0.28092343],[ 0.96567191  0.0237493  -0.03786045 -0.25589122]
1717778947.8057098,-6.026666666666667,32.36,-41.94666666666667,-27.195121951219516,2.25609756097561,0.3658536585365854,0.021728515625,0.38818359375,-0.911376953125,0.47214076246334313,0.501466275659824,0.49560117302052786,0.03812316715542522,0.04398826979472141,0.05865102639296188,42.3,-83.7,0.3,[ 0.13300596 -0.15358205  0.97914349],[-0.60690271 -0.11302844 -0.78669795],[-0.57202423  0.17286703 -0.80181374],[-0.02994249 -0.13829843  0.98993787],3.56773083346737,-3.0690607079031653,-148.18524553176204,[ 0.9611237  -0.02259027 -0.03427039 -0.27305027],[ 0.94814482 -0.16550177  0.01783834 -0.27076256]
1717778947.8326662,-5.986666666666667,32.46666666666667,-41.84,-15.121951219512196,-0.3658536585365854,-0.6707317073170732,-0.042724609375,0.62255859375,-0.88720703125,0.47214076246334313,0.49853372434017595,0.49560117302052786,0.03812316715542522,0.04398826979472141,0.06158357771260997,42.3,-83.7,0.3,[ 0.11135332 -0.15429569  0.98172974],[-0.60917143 -0.11232771 -0.78504309],[-0.57202423  0.17286703 -0.80181374],[-0.02994249 -0.13829843  0.98993787],2.941420439092977,-2.393333164318793,-149.2859902310763,[ 0.96390846 -0.01921509 -0.02692762 -0.26417072],[ 0.94814064 -0.16663744  0.01039817 -0.27046842]
1717778947.859659,-6.173333333333334,32.52,-41.693333333333335,-1.7682926829268295,1.0975609756097562,0.853658536585366,-0.036865234375,0.4677734375,-0.9072265625,0.47214076246334313,0.49853372434017595,0.49560117302052786,0.03812316715542522,0.04398826979472141,0.06158357771260997,42.3,-83.7,0.3,[ 0.11135332 -0.15429569  0.98172974],[-0.61087315 -0.11596321 -0.78318997],[-0.57202423  0.17286703 -0.80181374],[-0.02994249 -0.13829843  0.98993787],2.9490541459925432,-2.3870501779147517,-149.06148730763852,[ 0.9633885  -0.01924112 -0.02693013 -0.26605853],[ 0.96440823 -0.06557259  0.00898897 -0.25600038]
1717778947.8911932,-6.106666666666667,32.413333333333334,-41.800000000000004,0.1829268292682927,-0.06097560975609757,0.24390243902439027,-0.00146484375,0.53564453125,-0.877197265625,0.47214076246334313,0.49853372434017595,0.49560117302052786,0.03812316715542522,0.04398826979472141,0.06158357771260997,42.3,-83.7,0.3,[ 0.11135332 -0.15429569  0.98172974],[-0.60874478 -0.11468742 -0.78503286],[-0.57202423  0.17286703 -0.80181374],[-0.02994249 -0.13829843  0.98993787],2.945977794995256,-2.3568173527984126,-149.05971849043655,[ 0.96338836 -0.01928531 -0.02666919 -0.26608211],[ 0.96503258 -0.02292384 -0.0231831  -0.26009453]
1717778947.9137526,-6.066666666666667,32.440000000000005,-41.68,-3.536585365853659,-0.30487804878048785,0.30487804878048785,-0.021240234375,0.52197265625,-0.88330078125,0.47214076246334313,0.49853372434017595,0.49560117302052786,0.03812316715542522,0.04398826979472141,0.06158357771260997,42.3,-83.7,0.3,[ 0.11135332 -0.15429569  0.98172974],[-0.61019063 -0.11411292 -0.78399339],[-0.57202423  0.17286703 -0.80181374],[-0.02994249 -0.13829843  0.98993787],2.9452411094790496,-2.3940314778006226,-149.184990357658,[ 0.96367452 -0.01922186 -0.02695926 -0.26501912],[ 0.96206478 -0.08099812 -0.01532357 -0.26006895]
1717778947.9482143,-5.866666666666667,32.373333333333335,-41.86666666666667,-1.1585365853658538,0.0,0.24390243902439027,-0.02587890625,0.4423828125,-0.90478515625,0.47214076246334313,0.49853372434017595,0.49560117302052786,0.03812316715542522,0.04398826979472141,0.06158357771260997,42.3,-83.7,0.3,[ 0.11135332 -0.15429569  0.98172974],[-0.60798147 -0.11017786 -0.78626928],[-0.57202423  0.17286703 -0.80181374],[-0.02994249 -0.13829843  0.98993787],2.936774832023016,-2.393526563424641,-149.41050092365037,[ 0.96419568 -0.01920481 -0.02689769 -0.26312426],[ 0.96445586 -0.04933459 -0.01917787 -0.2588884 ]
1717778947.969356,-5.933333333333334,32.70666666666667,-41.760000000000005,-14.634146341463415,-0.06097560975609757,0.853658536585366,-0.0146484375,0.51318359375,-0.874755859375,0.47214076246334313,0.49853372434017595,0.49560117302052786,0.03812316715542522,0.04398826979472141,0.06158357771260997,42.3,-83.7,0.3,[ 0.11135332 -0.15429569  0.98172974],[-0.612778   -0.11116437 -0.78239735],[-0.57202423  0.17286703 -0.80181374],[-0.02994249 -0.13829843  0.98993787],2.9398603689486444,-2.4829237267140276,-149.5737433301022,[ 0.96455826 -0.01906406 -0.02762962 -0.26172606],[ 0.95429351 -0.15588379  0.00906525 -0.25483712]
1717778947.9948387,-6.013333333333334,32.586666666666666,-41.720000000000006,-12.073170731707318,0.12195121951219513,0.5487804878048781,-0.02490234375,0.47900390625,-0.901123046875,0.46920821114369504,0.49853372434017595,0.49560117302052786,0.03812316715542522,0.04398826979472141,0.06158357771260997,42.3,-83.7,0.3,[ 0.12217893 -0.17314373  0.97728888],[-0.61162766 -0.11286582 -0.78305358],[-0.57202423  0.17286703 -0.80181374],[-0.02994249 -0.13829843  0.98993787],4.237806608274116,-2.026347669724765,-147.56675886649285,[ 0.95958873 -0.03056203 -0.0272911  -0.27840731],[ 0.94747349 -0.16810562  0.01173736 -0.27183952]
1717778948.0218325,-5.986666666666667,32.74666666666667,-41.66666666666667,-7.682926829268293,1.0365853658536586,-0.426829268292683,-0.017822265625,0.58349609375,-0.86474609375,0.46920821114369504,0.49853372434017595,0.49560117302052786,0.03812316715542522,0.0469208211143695,0.06158357771260997,42.3,-83.7,0.3,[ 0.12217893 -0.17314373  0.97728888],[-0.61401608 -0.11225294 -0.78127046],[-0.57202423  0.17286703 -0.80181374],[-0.02994249 -0.13829843  0.98993787],4.238176938209477,-2.0891171802649384,-147.75130197743835,[ 0.96003192 -0.0304567  -0.02776841 -0.27683932],[ 0.94718093 -0.14454126  0.01862632 -0.28567318]
1717778948.0492117,-5.973333333333334,32.86666666666667,-41.53333333333334,-11.52439024390244,-0.426829268292683,1.3414634146341464,0.00146484375,0.353271484375,-0.895263671875,0.46920821114369504,0.49853372434017595,0.49560117302052786,0.03812316715542522,0.0469208211143695,0.06158357771260997,42.3,-83.7,0.3,[ 0.12217893 -0.17314373  0.97728888],[-0.61663255 -0.11206953 -0.77923342],[-0.57202423  0.17286703 -0.80181374],[-0.02994249 -0.13829843  0.98993787],4.239221082100932,-2.151469270468442,-147.91132065883693,[ 0.96041319 -0.03035358 -0.02825074 -0.27547606],[ 0.95116915 -0.16497926  0.01047097 -0.26067115]
1717778948.075919,-6.0,32.93333333333334,-41.56,-3.353658536585366,1.829268292682927,-0.853658536585366,-0.000732421875,0.692626953125,-0.791015625,0.46920821114369504,0.49853372434017595,0.49560117302052786,0.03812316715542522,0.0469208211143695,0.06158357771260997,42.3,-83.7,0.3,[ 0.12217893 -0.17314373  0.97728888],[-0.61713197 -0.11243295 -0.77878557],[-0.57202423  0.17286703 -0.80181374],[-0.02994249 -0.13829843  0.98993787],4.240028149061656,-2.158240892752634,-147.90835416113845,[ 0.96040538 -0.03034326 -0.0283102  -0.27549832],[ 0.95084893 -0.09568121  0.0196507  -0.29384566]
1717778948.103324,-5.96,33.04,-41.440000000000005,-1.3414634146341464,-0.12195121951219513,-1.2804878048780488,-0.0009765625,0.393310546875,-0.869873046875,0.46920821114369504,0.49853372434017595,0.49560117302052786,0.03812316715542522,0.0469208211143695,0.06158357771260997,42.3,-83.7,0.3,[ 0.12217893 -0.17314373  0.97728888],[-0.61950083 -0.11175015 -0.77700104],[-0.57202423  0.17286703 -0.80181374],[-0.02994249 -0.13829843  0.98993787],4.240099251382888,-2.221206436788856,-148.0954037662734,[ 0.96084928 -0.03023876 -0.02878855 -0.27390783],[ 0.95178971 -0.06458139 -0.01902564 -0.2992718 ]
1717778948.1299112,-5.946666666666667,33.24,-41.36,-12.256097560975611,-0.7317073170731708,1.829268292682927,-0.0283203125,0.615478515625,-0.82421875,0.4662756598240469,0.49560117302052786,0.4897360703812317,0.03812316715542522,0.0469208211143695,0.06451612903225806,42.3,-83.7,0.3,[ 0.13455044 -0.15536546  0.97865099],[-0.62254286 -0.11137349 -0.77462012],[-0.57202423  0.17286703 -0.80181374],[-0.02994249 -0.13829843  0.98993787],3.6926383117703976,-3.4162281867200215,-148.98756861561756,[ 0.96292999 -0.02306749 -0.03731756 -0.26615997],[ 0.95558776 -0.15410478 -0.00256926 -0.25119144]
1717778948.1616876,-5.826666666666667,33.49333333333333,-41.68,-5.2439024390243905,1.2804878048780488,-0.6097560975609757,-0.03369140625,0.406005859375,-0.9248046875,0.4662756598240469,0.49560117302052786,0.4897360703812317,0.03812316715542522,0.0469208211143695,0.06451612903225806,42.3,-83.7,0.3,[ 0.13455044 -0.15536546  0.97865099],[-0.62271019 -0.10832976 -0.77491721],[-0.57202423  0.17286703 -0.80181374],[-0.02994249 -0.13829843  0.98993787],3.681234074359785,-3.459283956257355,-149.26157409652302,[ 0.9635583  -0.02296093 -0.03759789 -0.2638458 ],[ 0.95398553 -0.11479317  0.0058702  -0.27694706]
1717778948.1839068,-5.946666666666667,33.64,-41.25333333333334,-8.78048780487805,-0.7317073170731708,1.2195121951219514,-0.002685546875,0.626220703125,-0.840087890625,0.4662756598240469,0.49560117302052786,0.4868035190615836,0.03812316715542522,0.0469208211143695,0.06451612903225806,42.3,-83.7,0.3,[ 0.14623021 -0.13638055  0.97980461],[-0.62806135 -0.11102472 -0.77020286],[-0.57202423  0.17286703 -0.80181374],[-0.02994249 -0.13829843  0.98993787],3.0110781761537657,-4.682613653782788,-150.19067471905623,[ 0.9654912  -0.01486441 -0.04621628 -0.25587078],[ 0.96025061 -0.13792467 -0.01651439 -0.24212149]
1717778948.221983,-5.866666666666667,33.86666666666667,-41.480000000000004,-10.975609756097562,0.0,0.06097560975609757,-0.028564453125,0.426513671875,-0.90185546875,0.4662756598240469,0.49560117302052786,0.4897360703812317,0.03812316715542522,0.0469208211143695,0.06451612903225806,42.3,-83.7,0.3,[ 0.13455044 -0.15536546  0.97865099],[-0.62867588 -0.10890448 -0.77000419],[-0.57202423  0.17286703 -0.80181374],[-0.02994249 -0.13829843  0.98993787],3.678505752932371,-3.5841470089332668,-149.5279116396422,[ 0.96414638 -0.02273819 -0.03858821 -0.26156392],[ 0.9520328  -0.15659255 -0.00563146 -0.26283191]
1717778948.241656,-5.826666666666667,33.653333333333336,-41.2,1.524390243902439,0.9756097560975611,0.48780487804878053,-0.033935546875,0.648681640625,-0.8603515625,0.4662756598240469,0.49560117302052786,0.4868035190615836,0.03812316715542522,0.0469208211143695,0.06451612903225806,42.3,-83.7,0.3,[ 0.14623021 -0.13638055  0.97980461],[-0.62884899 -0.10887758 -0.76986663],[-0.57202423  0.17286703 -0.80181374],[-0.02994249 -0.13829843  0.98993787],2.9967242414408317,-4.726713394658139,-150.42519360949413,[ 0.966002   -0.01473945 -0.0465255  -0.25388634],[ 0.96818593 -0.00315172 -0.02936009 -0.24848353]
1717778948.282713,-5.866666666666667,33.85333333333334,-41.36,-8.658536585365855,-0.853658536585366,-0.30487804878048785,-0.000732421875,0.38916015625,-0.908447265625,0.4662756598240469,0.49560117302052786,0.4868035190615836,0.03812316715542522,0.0469208211143695,0.06451612903225806,42.3,-83.7,0.3,[ 0.14623021 -0.13638055  0.97980461],[-0.62960579 -0.10910853 -0.76921511],[-0.57202423  0.17286703 -0.80181374],[-0.02994249 -0.13829843  0.98993787],2.99661453303094,-4.739975066090808,-150.44344527091366,[ 0.96603859 -0.01471633 -0.04663465 -0.25372837],[ 0.95732258 -0.12641168 -0.02712873 -0.258491  ]
1717778948.308159,-5.826666666666667,33.85333333333334,-41.18666666666667,-5.0,-0.426829268292683,0.6097560975609757,-0.02734375,0.485595703125,-0.877685546875,0.4633431085043988,0.49266862170087977,0.4897360703812317,0.03812316715542522,0.0469208211143695,0.06451612903225806,42.3,-83.7,0.3,[ 0.12359795 -0.17515468  0.97675196],[-0.63122087 -0.10864258 -0.76795638],[-0.57202423  0.17286703 -0.80181374],[-0.02994249 -0.13829843  0.98993787],4.386071966885181,-2.492274261948023,-148.78693796966837,[ 0.96242275 -0.0310004  -0.0312227  -0.26796747],[ 0.95764993 -0.12359924 -0.01508507 -0.25961949]
1717778948.329644,-5.506666666666667,33.946666666666665,-41.14666666666667,-16.646341463414636,0.7317073170731708,0.1829268292682927,-0.017333984375,0.56103515625,-0.8837890625,0.4633431085043988,0.49266862170087977,0.4868035190615836,0.03812316715542522,0.0469208211143695,0.06744868035190615,42.3,-83.7,0.3,[ 0.13533591 -0.15627244  0.97839824],[-0.63302628 -0.10268651 -0.76728952],[-0.57202423  0.17286703 -0.80181374],[-0.02994249 -0.13829843  0.98993787],3.722827710777567,-3.7512429720126073,-150.1958059751725,[ 0.96561266 -0.02296013 -0.0399613  -0.25586737],[ 0.9513711  -0.16735135  0.00560388 -0.25856363]
1717778948.3525133,-5.786666666666667,34.080000000000005,-41.13333333333333,1.8902439024390245,-0.12195121951219513,0.6097560975609757,-0.041748046875,0.56640625,-0.880859375,0.4633431085043988,0.49266862170087977,0.4868035190615836,0.03812316715542522,0.0469208211143695,0.06451612903225806,42.3,-83.7,0.3,[ 0.13533591 -0.15627244  0.97839824],[-0.63428581 -0.10769955 -0.76556014],[-0.57202423  0.17286703 -0.80181374],[-0.02994249 -0.13829843  0.98993787],3.741611480051072,-3.7139352399807746,-149.8271313165512,[ 0.96478818 -0.02307458 -0.03976349 -0.25897915],[ 0.96801847 -0.01062275 -0.04250326 -0.24702405]
1717778948.3748975,-5.826666666666667,34.2,-41.24,-3.658536585365854,0.12195121951219513,-0.12195121951219513,-0.0029296875,0.524658203125,-0.873779296875,0.4633431085043988,0.49266862170087977,0.4868035190615836,0.04105571847507331,0.0469208211143695,0.06451612903225806,42.3,-83.7,0.3,[ 0.13533591 -0.15627244  0.97839824],[-0.63460473 -0.10811784 -0.76523681],[-0.57202423  0.17286703 -0.80181374],[-0.02994249 -0.13829843  0.98993787],3.7429684611399106,-3.7156176874309876,-149.80769356371718,[ 0.96474363 -0.02307542 -0.03978463 -0.25914174],[ 0.96139056 -0.08245477 -0.0222524  -0.26159939]
1717778948.4003723,-5.760000000000001,34.18666666666667,-41.373333333333335,1.829268292682927,-0.24390243902439027,0.7926829268292683,-0.04248046875,0.540771484375,-0.877685546875,0.4633431085043988,0.49266862170087977,0.4868035190615836,0.04105571847507331,0.0469208211143695,0.06451612903225806,42.3,-83.7,0.3,[ 0.13533591 -0.15627244  0.97839824],[-0.63334075 -0.10670952 -0.76648064],[-0.57202423  0.17286703 -0.80181374],[-0.02994249 -0.13829843  0.98993787],3.7385545611947557,-3.70578783703751,-149.86341245797826,[ 0.96487236 -0.02307996 -0.03968072 -0.25867757],[ 9.68716232e-01 -3.63166492e-04 -4.91202640e-02 -2.43261032e-01]
1717778948.4271798,-5.800000000000001,34.34666666666667,-41.34666666666667,-9.51219512195122,0.5487804878048781,0.48780487804878053,-0.019287109375,0.62646484375,-0.836181640625,0.4633431085043988,0.49266862170087977,0.4868035190615836,0.04105571847507331,0.0469208211143695,0.06451612903225806,42.3,-83.7,0.3,[ 0.13533591 -0.15627244  0.97839824],[-0.63530032 -0.10728092 -0.76477729],[-0.57202423  0.17286703 -0.80181374],[-0.02994249 -0.13829843  0.98993787],3.7391033209997575,-3.74177776489975,-149.91575963043687,[ 0.96498313 -0.02302096 -0.03997431 -0.25822405],[ 0.95773524 -0.13450487 -0.00486928 -0.25422025]
1717778948.4542258,-5.786666666666667,34.30666666666667,-41.17333333333334,-1.7682926829268295,-0.426829268292683,-0.06097560975609757,-0.014404296875,0.4580078125,-0.878173828125,0.4633431085043988,0.49266862170087977,0.4868035190615836,0.04105571847507331,0.04985337243401759,0.06451612903225806,42.3,-83.7,0.3,[ 0.13533591 -0.15627244  0.97839824],[-0.63643625 -0.10735069 -0.76382244],[-0.57202423  0.17286703 -0.80181374],[-0.02994249 -0.13829843  0.98993787],3.738397817145927,-3.766000547247223,-149.9684508568873,[ 0.965097   -0.02297847 -0.04016602 -0.2577721 ],[ 0.96268341 -0.07274075 -0.03465183 -0.25835768]
1717778948.4815354,-5.760000000000001,34.56,-41.14666666666667,-16.890243902439025,0.24390243902439027,0.9146341463414634,-0.0341796875,0.578125,-0.85400390625,0.4604105571847507,0.49266862170087977,0.4868035190615836,0.04105571847507331,0.04985337243401759,0.06451612903225806,42.3,-83.7,0.3,[ 0.14619206 -0.17530067  0.97360031],[-0.63949367 -0.10658228 -0.76137248],[-0.57202423  0.17286703 -0.80181374],[-0.02994249 -0.13829843  0.98993787],5.08237246936283,-3.42545017703124,-148.40169206734697,[ 0.96120712 -0.03451393 -0.04079705 -0.27060167],[ 9.47834728e-01 -1.75642366e-01 -2.78288378e-04 -2.66005659e-01]
1717778948.5082583,-5.800000000000001,34.586666666666666,-40.92,-6.097560975609756,-0.853658536585366,1.524390243902439,-0.00634765625,0.509521484375,-0.87939453125,0.4604105571847507,0.4897360703812317,0.4868035190615836,0.04105571847507331,0.04985337243401759,0.06451612903225806,42.3,-83.7,0.3,[ 0.1243196  -0.17617734  0.97647641],[-0.64178001 -0.10762309 -0.75929948],[-0.57202423  0.17286703 -0.80181374],[-0.02994249 -0.13829843  0.98993787],4.462239595483677,-2.728991688852536,-149.3266346158188,[ 0.96362913 -0.03124006 -0.03324112 -0.26332106],[ 0.96006837 -0.14059183 -0.01309397 -0.24151855]
1717778948.539645,-5.800000000000001,34.64,-40.85333333333334,-11.402439024390246,-0.1829268292682927,0.24390243902439027,-0.011962890625,0.6396484375,-0.827392578125,0.4604105571847507,0.4897360703812317,0.4868035190615836,0.04105571847507331,0.04985337243401759,0.06451612903225806,42.3,-83.7,0.3,[ 0.1243196  -0.17617734  0.97647641],[-0.64296443 -0.10765571 -0.75829215],[-0.57202423  0.17286703 -0.80181374],[-0.02994249 -0.13829843  0.98993787],4.462648849305338,-2.7556124063725473,-149.38533474922372,[ 0.96376081 -0.03119905 -0.03344982 -0.2628171 ],[ 0.95084694 -0.16650361 -0.00200523 -0.26107974]
1717778948.567275,-5.720000000000001,34.74666666666667,-40.800000000000004,-5.853658536585367,-0.06097560975609757,0.853658536585366,-0.016357421875,0.461181640625,-0.89501953125,0.4604105571847507,0.4897360703812317,0.4868035190615836,0.04105571847507331,0.04985337243401759,0.06744868035190615,42.3,-83.7,0.3,[ 0.1243196  -0.17617734  0.97647641],[-0.64470837 -0.10613196 -0.75702518],[-0.57202423  0.17286703 -0.80181374],[-0.02994249 -0.13829843  0.98993787],4.460048971892324,-2.815016377091629,-149.59992262716662,[ 0.96424513 -0.03110351 -0.03388503 -0.26098986],[ 0.95863379 -0.13527954 -0.00501397 -0.25039083]
1717778948.59038,-5.746666666666667,34.973333333333336,-40.56,-17.926829268292686,-0.06097560975609757,0.3658536585365854,-0.018310546875,0.602783203125,-0.841796875,0.4574780058651026,0.4897360703812317,0.4838709677419355,0.04105571847507331,0.04985337243401759,0.06744868035190615,42.3,-83.7,0.3,[ 0.14704355 -0.1763217   0.97328765],[-0.64929613 -0.10668953 -0.75301519],[-0.57202423  0.17286703 -0.80181374],[-0.02994249 -0.13829843  0.98993787],5.156704650263074,-3.6443350998135347,-148.8205289194709,[ 0.96213346 -0.03477182 -0.04268028 -0.26696164],[ 0.94673365 -0.18316393 -0.00353169 -0.26482807]
1717778948.618,-5.760000000000001,35.013333333333335,-40.46666666666667,-0.12195121951219513,0.30487804878048785,-0.12195121951219513,-0.012939453125,0.587646484375,-0.837890625,0.4574780058651026,0.4897360703812317,0.4838709677419355,0.04105571847507331,0.04985337243401759,0.06744868035190615,42.3,-83.7,0.3,[ 0.14704355 -0.1763217   0.97328765],[-0.65055577 -0.10702212 -0.75187995],[-0.57202423  0.17286703 -0.80181374],[-0.02994249 -0.13829843  0.98993787],5.156967695273161,-3.6699853756847705,-148.8609780446029,[ 0.96222338 -0.0347288  -0.04288383 -0.26661029],[ 0.96062018 -0.05711979 -0.0315038  -0.27009944]
1717778948.643408,-5.693333333333333,34.96,-40.38666666666667,-3.5975609756097566,0.3658536585365854,-0.3658536585365854,-0.02392578125,0.560791015625,-0.859375,0.4574780058651026,0.4897360703812317,0.4868035190615836,0.04105571847507331,0.04985337243401759,0.06744868035190615,42.3,-83.7,0.3,[ 0.13519413 -0.19513591  0.97141367],[-0.65079761 -0.1059842  -0.75181768],[-0.57202423  0.17286703 -0.80181374],[-0.02994249 -0.13829843  0.98993787],5.772315202198933,-2.5361074196318207,-148.244118796566,[ 0.96069626 -0.04237189 -0.03503086 -0.27210321],[ 0.95441372 -0.1027543  -0.01176057 -0.27999587]
1717778948.672233,-5.733333333333333,35.06666666666667,-40.480000000000004,-10.914634146341465,-0.12195121951219513,0.7317073170731708,-0.016357421875,0.50390625,-0.86767578125,0.4574780058651026,0.4868035190615836,0.4838709677419355,0.04105571847507331,0.04985337243401759,0.06744868035190615,42.3,-83.7,0.3,[ 0.1250495  -0.17721171  0.976196  ],[-0.65104004 -0.10644381 -0.7515428 ],[-0.57202423  0.17286703 -0.80181374],[-0.02994249 -0.13829843  0.98993787],4.537894366599769,-2.938579910906039,-149.80040189857831,[ 0.96466387 -0.03153646 -0.03504634 -0.25923122],[ 0.95375113 -0.15998742  0.00219034 -0.25447594]
1717778948.6975772,-5.720000000000001,35.29333333333334,-40.266666666666666,-16.70731707317073,0.24390243902439027,0.426829268292683,-0.02294921875,0.587890625,-0.85107421875,0.45454545454545453,0.4868035190615836,0.4838709677419355,0.04105571847507331,0.04985337243401759,0.06744868035190615,42.3,-83.7,0.3,[ 0.13598122 -0.19627198  0.97107488],[-0.65540988 -0.10622245 -0.74776646],[-0.57202423  0.17286703 -0.80181374],[-0.02994249 -0.13829843  0.98993787],5.857648466925978,-2.6237921299476903,-148.36882314508586,[ 0.96095406 -0.04291654 -0.0359214  -0.27098914],[ 0.94449309 -0.18969073  0.00615813 -0.26816471]
1717778948.7244911,-5.706666666666667,35.38666666666667,-40.2,-1.9512195121951221,0.3658536585365854,0.48780487804878053,-0.005126953125,0.621826171875,-0.842529296875,0.4574780058651026,0.4868035190615836,0.4838709677419355,0.04105571847507331,0.04985337243401759,0.06744868035190615,42.3,-83.7,0.3,[ 0.1250495  -0.17721171  0.976196  ],[-0.65702077 -0.10595512 -0.74638946],[-0.57202423  0.17286703 -0.80181374],[-0.02994249 -0.13829843  0.98993787],4.538142583054352,-3.081174696966115,-150.14158035540953,[ 0.96541248 -0.03132129 -0.03615353 -0.25630186],[ 0.96376261 -0.08657429 -0.01240756 -0.25201701]
1717778948.7515056,-5.693333333333333,35.413333333333334,-40.21333333333334,-4.634146341463415,0.1829268292682927,-0.12195121951219513,-0.01806640625,0.523681640625,-0.835693359375,0.45454545454545453,0.4868035190615836,0.4838709677419355,0.04105571847507331,0.04985337243401759,0.06744868035190615,42.3,-83.7,0.3,[ 0.13598122 -0.19627198  0.97107488],[-0.65719786 -0.10565643 -0.74627588],[-0.57202423  0.17286703 -0.80181374],[-0.02994249 -0.13829843  0.98993787],5.8576029004767465,-2.675934048223344,-148.50965201531375,[ 0.96128258 -0.04283647 -0.03630564 -0.26978275],[ 0.95478866 -0.12215639 -0.0110204  -0.27080433]
1717778948.7784872,-5.733333333333333,35.52,-40.17333333333334,-13.475609756097562,0.30487804878048785,0.6097560975609757,-0.02392578125,0.567626953125,-0.844970703125,0.45454545454545453,0.4868035190615836,0.4809384164222874,0.04105571847507331,0.04985337243401759,0.07038123167155426,42.3,-83.7,0.3,[ 0.14790473 -0.17735435  0.97296949],[-0.65863232 -0.10631077 -0.7449171 ],[-0.57202423  0.17286703 -0.80181374],[-0.02994249 -0.13829843  0.98993787],5.2302147243868875,-3.8593862920361555,-149.24497715313228,[ 0.9630566  -0.03504793 -0.04452605 -0.26326992],[ 0.94997335 -0.17225673 -0.00112863 -0.26053212]
1717778948.8055692,-5.706666666666667,35.733333333333334,-40.02666666666667,-12.073170731707318,0.0,0.1829268292682927,-0.0126953125,0.609619140625,-0.849609375,0.45454545454545453,0.4838709677419355,0.4809384164222874,0.04105571847507331,0.04985337243401759,0.07038123167155426,42.3,-83.7,0.3,[ 0.12578782 -0.178258    0.9759106 ],[-0.66223148 -0.10575936 -0.7417981 ],[-0.57202423  0.17286703 -0.80181374],[-0.02994249 -0.13829843  0.98993787],4.615312301212311,-3.1865406913768783,-150.32074951774976,[ 0.96577588 -0.03179199 -0.0371636  -0.2547255 ],[ 9.51468801e-01 -1.70865448e-01  6.63568805e-04 -2.55952494e-01]
1717778948.8327003,-5.680000000000001,35.760000000000005,-40.02666666666667,0.06097560975609757,-0.12195121951219513,0.5487804878048781,-0.024169921875,0.5634765625,-0.834228515625,0.45454545454545453,0.4838709677419355,0.4809384164222874,0.04105571847507331,0.04985337243401759,0.07038123167155426,42.3,-83.7,0.3,[ 0.12578782 -0.178258    0.9759106 ],[-0.66254334 -0.10523619 -0.741594  ],[-0.57202423  0.17286703 -0.80181374],[-0.02994249 -0.13829843  0.98993787],4.614181120484791,-3.200348695017856,-150.3781341279354,[ 0.96590163 -0.03177016 -0.03726149 -0.25423665],[ 0.96775461 -0.05155619 -0.03249911 -0.24441108]
1717778948.8606045,-5.720000000000001,35.74666666666667,-40.053333333333335,-2.439024390243903,0.6707317073170732,0.3658536585365854,-0.009521484375,0.5966796875,-0.826904296875,0.45454545454545453,0.4838709677419355,0.4809384164222874,0.04105571847507331,0.04985337243401759,0.07038123167155426,42.3,-83.7,0.3,[ 0.12578782 -0.178258    0.9759106 ],[-0.66211019 -0.10594751 -0.74187952],[-0.57202423  0.17286703 -0.80181374],[-0.02994249 -0.13829843  0.98993787],4.6157145731869615,-3.181367540128454,-150.2996563474105,[ 0.96572961 -0.03180014 -0.03712678 -0.25490521],[ 0.96551472 -0.07484398 -0.01340557 -0.24899798]
1717778948.8866682,-5.653333333333333,35.74666666666667,-40.013333333333335,-1.4634146341463417,-0.1829268292682927,0.48780487804878053,-0.013671875,0.560546875,-0.848876953125,0.45454545454545453,0.4838709677419355,0.4809384164222874,0.04105571847507331,0.04985337243401759,0.07038123167155426,42.3,-83.7,0.3,[ 0.12578782 -0.178258    0.9759106 ],[-0.66256051 -0.10478391 -0.74164271],[-0.57202423  0.17286703 -0.80181374],[-0.02994249 -0.13829843  0.98993787],4.613152023712855,-3.2065341312356033,-150.41524656274302,[ 0.9659833  -0.03175973 -0.03730103 -0.25392166],[ 0.9669293  -0.06549875 -0.02968969 -0.24469605]
1717778948.913712,-5.653333333333333,35.82666666666667,-40.02666666666667,-8.963414634146343,0.1829268292682927,0.9756097560975611,-0.0322265625,0.543701171875,-0.84814453125,0.45161290322580644,0.4838709677419355,0.4809384164222874,0.04105571847507331,0.05278592375366569,0.07038123167155426,42.3,-83.7,0.3,[ 0.13677724 -0.19742095  0.97073011],[-0.66326982 -0.10466185 -0.74102567],[-0.57202423  0.17286703 -0.80181374],[-0.02994249 -0.13829843  0.98993787],5.942335871329362,-2.8175361014091034,-148.80615934136517,[ 0.96193415 -0.04330839 -0.03758017 -0.26719806],[ 0.95395821 -0.15746787 -0.00508907 -0.25522873]
1717778948.9493437,-5.666666666666667,36.013333333333335,-40.0,-15.30487804878049,0.426829268292683,1.1585365853658538,-0.031005859375,0.552978515625,-0.843505859375,0.45161290322580644,0.4809384164222874,0.4809384164222874,0.04105571847507331,0.05278592375366569,0.07038123167155426,42.3,-83.7,0.3,[ 0.11453294 -0.19837687  0.97341092],[-0.66542383 -0.10470386 -0.73908608],[-0.57202423  0.17286703 -0.80181374],[-0.02994249 -0.13829843  0.98993787],5.338154710683813,-2.112130736710999,-149.75749735309861,[ 0.96438875 -0.04014467 -0.02991894 -0.25970678],[ 0.95000244 -0.18377504  0.01353675 -0.25206914]
1717778948.9709268,-5.640000000000001,36.30666666666667,-39.84,-17.073170731707318,-0.9756097560975611,0.0,-0.01025390625,0.600830078125,-0.8525390625,0.44868035190615835,0.4809384164222874,0.4809384164222874,0.04398826979472141,0.05278592375366569,0.07038123167155426,42.3,-83.7,0.3,[ 0.12554189 -0.21744493  0.96796536],[-0.66991382 -0.10406667 -0.73510925],[-0.57202423  0.17286703 -0.80181374],[-0.02994249 -0.13829843  0.98993787],6.636492398552932,-1.811184418428394,-148.46266598138465,[ 0.96088188 -0.05140886 -0.0309123  -0.27038411],[ 9.41931765e-01 -2.02226971e-01  7.81915935e-04 -2.68082432e-01]
1717778948.9948661,-5.640000000000001,36.32,-39.77333333333333,2.8658536585365857,0.6707317073170732,0.24390243902439027,-0.02685546875,0.65283203125,-0.8046875,0.44868035190615835,0.4809384164222874,0.4809384164222874,0.04398826979472141,0.05278592375366569,0.07038123167155426,42.3,-83.7,0.3,[ 0.12554189 -0.21744493  0.96796536],[-0.67065541 -0.10414363 -0.73442183],[-0.57202423  0.17286703 -0.80181374],[-0.02994249 -0.13829843  0.98993787],6.637700062554331,-1.8289706402124133,-148.4961428188849,[ 0.96096036 -0.05138582 -0.03104921 -0.27009375],[ 0.96326568 -0.02016522 -0.02804897 -0.26631909]
1717778949.0218477,-5.626666666666667,36.38666666666667,-39.800000000000004,-2.7439024390243905,0.9756097560975611,1.2195121951219514,-0.0068359375,0.636474609375,-0.819091796875,0.44868035190615835,0.4809384164222874,0.4809384164222874,0.04398826979472141,0.05278592375366569,0.07038123167155426,42.3,-83.7,0.3,[ 0.12554189 -0.21744493  0.96796536],[-0.67110672 -0.10377685 -0.7340614 ],[-0.57202423  0.17286703 -0.80181374],[-0.02994249 -0.13829843  0.98993787],6.638395788801284,-1.8455547106887118,-148.54743264088737,[ 0.96108088 -0.05136626 -0.03116686 -0.26965473],[ 9.64225997e-01 -9.00379520e-02 -4.81047551e-04 -2.49321405e-01]
1717778949.0488608,-5.640000000000001,36.333333333333336,-39.800000000000004,0.5487804878048781,-1.0365853658536586,0.3658536585365854,-0.03759765625,0.538330078125,-0.86083984375,0.44868035190615835,0.4809384164222874,0.4780058651026393,0.04398826979472141,0.05278592375366569,0.07038123167155426,42.3,-83.7,0.3,[ 0.13758235 -0.19858302  0.97037924],[-0.67054839 -0.1040888  -0.73452732],[-0.57202423  0.17286703 -0.80181374],[-0.02994249 -0.13829843  0.98993787],6.029001662592069,-2.983768737210064,-149.12911689539112,[ 0.96263523 -0.0437549  -0.03905342 -0.26437427],[ 0.96473184 -0.04528593 -0.05429121 -0.25356285]
1717778949.0759068,-5.640000000000001,36.653333333333336,-39.62666666666667,-23.59756097560976,0.9146341463414634,0.06097560975609757,-0.033203125,0.732666015625,-0.78564453125,0.44574780058651026,0.4780058651026393,0.4809384164222874,0.04398826979472141,0.05278592375366569,0.07331378299120235,42.3,-83.7,0.3,[ 0.11421602 -0.23739353  0.9646756 ],[-0.67535223 -0.10391924 -0.73013708],[-0.57202423  0.17286703 -0.80181374],[-0.02994249 -0.13829843  0.98993787],7.309841824415839,-0.7712432087155877,-148.09302570582008,[ 0.95962575 -0.05944444 -0.02397888 -0.27387915],[ 0.93901242 -0.20300567  0.01912774 -0.27690882]
1717778949.1030784,-5.586666666666667,36.653333333333336,-39.66666666666667,6.097560975609756,-0.12195121951219513,0.7926829268292683,-0.022705078125,0.523193359375,-0.844970703125,0.44868035190615835,0.4809384164222874,0.4780058651026393,0.04398826979472141,0.05278592375366569,0.07331378299120235,42.3,-83.7,0.3,[ 0.13758235 -0.19858302  0.97037924],[-0.67505746 -0.10289162 -0.73055509],[-0.57202423  0.17286703 -0.80181374],[-0.02994249 -0.13829843  0.98993787],6.028320021773306,-3.11219450069902,-149.45673769477168,[ 0.96337421 -0.04356446 -0.04000547 -0.26155655],[ 0.9664613   0.02502871 -0.05732903 -0.24907729]
1717778949.1300943,-5.5600000000000005,36.68,-39.61333333333334,-2.9268292682926833,0.9146341463414634,0.7926829268292683,-0.0078125,0.705810546875,-0.802001953125,0.44868035190615835,0.4809384164222874,0.4780058651026393,0.04398826979472141,0.05278592375366569,0.07331378299120235,42.3,-83.7,0.3,[ 0.13758235 -0.19858302  0.97037924],[-0.67584323 -0.10244516 -0.72989103],[-0.57202423  0.17286703 -0.80181374],[-0.02994249 -0.13829843  0.98993787],6.027693394449688,-3.137865198740866,-149.53194375350748,[ 0.96354311 -0.04352636 -0.04019112 -0.26091149],[ 0.96548392 -0.08104886 -0.0140379  -0.2471332 ]
1717778949.1625042,-5.626666666666667,36.653333333333336,-39.586666666666666,-20.670731707317074,-0.6097560975609757,0.6097560975609757,0.024658203125,0.39306640625,-0.83544921875,0.44574780058651026,0.4780058651026393,0.4780058651026393,0.04398826979472141,0.05278592375366569,0.07331378299120235,42.3,-83.7,0.3,[ 0.1262797  -0.21872285  0.96758139],[-0.67573301 -0.10373202 -0.72981132],[-0.57202423  0.17286703 -0.80181374],[-0.02994249 -0.13829843  0.98993787],6.732379745725503,-1.9341929579460664,-148.6899580831362,[ 0.96137304 -0.05198443 -0.03206635 -0.26838639],[ 0.94400284 -0.19937248  0.00233925 -0.26287598]
1717778949.184365,-5.573333333333333,37.06666666666667,-39.38666666666667,-24.02439024390244,-0.06097560975609757,-0.12195121951219513,-0.025634765625,0.8232421875,-0.748779296875,0.44574780058651026,0.4780058651026393,0.4780058651026393,0.04398826979472141,0.05571847507331378,0.07331378299120235,42.3,-83.7,0.3,[ 0.1262797  -0.21872285  0.96758139],[-0.68172402 -0.10250383 -0.72439308],[-0.57202423  0.17286703 -0.80181374],[-0.02994249 -0.13829843  0.98993787],6.741363191892223,-2.103957172573062,-149.09342637393618,[ 0.96230605 -0.05177697 -0.03332871 -0.26490643],[ 0.94073692 -0.20755011  0.00868253 -0.26807017]
1717778949.211747,-5.506666666666667,37.013333333333335,-39.36,2.378048780487805,-1.1585365853658538,0.24390243902439027,0.012939453125,0.451904296875,-0.8740234375,0.44574780058651026,0.4780058651026393,0.4780058651026393,0.04398826979472141,0.05278592375366569,0.07331378299120235,42.3,-83.7,0.3,[ 0.1262797  -0.21872285  0.96758139],[-0.68152617 -0.1013942  -0.72473532],[-0.57202423  0.17286703 -0.80181374],[-0.02994249 -0.13829843  0.98993787],6.7407475085468676,-2.1144094762529373,-149.16549136797076,[ 0.96247254 -0.05176845 -0.03338246 -0.26429576],[ 0.96440596 -0.03811595 -0.05771448 -0.25522022]
1717778949.2380314,-5.546666666666667,37.080000000000005,-39.36,0.48780487804878053,0.9146341463414634,1.0365853658536586,-0.043701171875,0.7373046875,-0.76416015625,0.44574780058651026,0.4780058651026393,0.4750733137829912,0.04398826979472141,0.05278592375366569,0.07331378299120235,42.3,-83.7,0.3,[ 0.1383967  -0.19975843  0.97002212],[-0.68213168 -0.10203768 -0.72407505],[-0.57202423  0.17286703 -0.80181374],[-0.02994249 -0.13829843  0.98993787],6.114701478762143,-3.278259668116449,-149.7822488339324,[ 0.9640613  -0.04402554 -0.04147265 -0.25870367],[ 0.96999245 -0.03104865 -0.02880043 -0.23941837]
1717778949.2651231,-5.5600000000000005,37.053333333333335,-39.36,-6.2804878048780495,0.6707317073170732,0.24390243902439027,0.01953125,0.604736328125,-0.818359375,0.44574780058651026,0.4780058651026393,0.4780058651026393,0.04398826979472141,0.05571847507331378,0.07331378299120235,42.3,-83.7,0.3,[ 0.1262797  -0.21872285  0.96758139],[-0.68185215 -0.10231463 -0.72429922],[-0.57202423  0.17286703 -0.80181374],[-0.02994249 -0.13829843  0.98993787],6.7415021712149565,-2.1098534029965066,-149.11407618316775,[ 0.9623536  -0.05177042 -0.03336919 -0.2647298 ],[ 9.55648596e-01 -1.38937240e-01  7.85571891e-05 -2.59677104e-01]
1717778949.2925673,-5.573333333333333,37.053333333333335,-39.38666666666667,1.7682926829268295,-1.0365853658536586,-0.24390243902439027,-0.05859375,0.615478515625,-0.8310546875,0.44574780058651026,0.4780058651026393,0.4750733137829912,0.04398826979472141,0.05278592375366569,0.07331378299120235,42.3,-83.7,0.3,[ 0.1383967  -0.19975843  0.97002212],[-0.68159273 -0.10252096 -0.72451418],[-0.57202423  0.17286703 -0.80181374],[-0.02994249 -0.13829843  0.98993787],6.1155411884732995,-3.258149247278773,-149.71751095483327,[ 0.96391705 -0.04405518 -0.04133039 -0.2592583 ],[ 0.96302974 -0.03105565 -0.06276569 -0.26013409]
1717778949.3191748,-5.626666666666667,37.10666666666667,-39.333333333333336,-3.658536585365854,0.7317073170731708,0.6707317073170732,0.00634765625,0.6123046875,-0.824951171875,0.44574780058651026,0.4780058651026393,0.4750733137829912,0.04398826979472141,0.05571847507331378,0.07331378299120235,42.3,-83.7,0.3,[ 0.1383967  -0.19975843  0.97002212],[-0.6825329  -0.10349583 -0.72348978],[-0.57202423  0.17286703 -0.80181374],[-0.02994249 -0.13829843  0.98993787],6.117816019738145,-3.2678997579111435,-149.69074613068827,[ 0.96385444 -0.04404233 -0.04142778 -0.2594776 ],[ 0.96239318 -0.10062471 -0.015068   -0.25188685]
1717778949.346155,-5.613333333333333,37.093333333333334,-39.333333333333336,0.12195121951219513,-0.9756097560975611,-0.24390243902439027,0.003173828125,0.554443359375,-0.8310546875,0.44574780058651026,0.4780058651026393,0.4780058651026393,0.04398826979472141,0.05278592375366569,0.07331378299120235,42.3,-83.7,0.3,[ 0.1262797  -0.21872285  0.96758139],[-0.68241917 -0.10327048 -0.72362924],[-0.57202423  0.17286703 -0.80181374],[-0.02994249 -0.13829843  0.98993787],6.742620617275899,-2.11099045671837,-149.0726518287833,[ 0.96225731 -0.05176509 -0.03340003 -0.26507674],[ 0.96084442 -0.061191   -0.04958395 -0.26565975]
1717778949.3840475,-5.586666666666667,37.120000000000005,-39.333333333333336,-1.707317073170732,0.7317073170731708,0.5487804878048781,-0.04248046875,0.656494140625,-0.81884765625,0.44574780058651026,0.4780058651026393,0.4780058651026393,0.04398826979472141,0.05278592375366569,0.07624633431085044,42.3,-83.7,0.3,[ 0.1262797  -0.21872285  0.96758139],[-0.68271565 -0.10275067 -0.72342355],[-0.57202423  0.17286703 -0.80181374],[-0.02994249 -0.13829843  0.98993787],6.742919968598671,-2.1257562497029507,-149.12643153580908,[ 0.9623812  -0.05174891 -0.03350035 -0.26461708],[ 0.9629136  -0.08043474 -0.01363826 -0.2571802 ]
1717778949.4027963,-5.613333333333333,37.093333333333334,-39.36,-10.670731707317074,0.7317073170731708,0.7926829268292683,0.00244140625,0.5205078125,-0.817626953125,0.44281524926686217,0.4750733137829912,0.4750733137829912,0.04398826979472141,0.05571847507331378,0.07624633431085044,42.3,-83.7,0.3,[ 0.12702593 -0.22001536  0.9671906 ],[-0.68217695 -0.10323382 -0.72386282],[-0.57202423  0.17286703 -0.80181374],[-0.02994249 -0.13829843  0.98993787],6.830078777452545,-2.0760950583924034,-148.9591525247958,[ 0.96195503 -0.05254782 -0.03336155 -0.26602304],[ 0.95049993 -0.17353577  0.0098389  -0.25756245]
1717778949.4276884,-5.573333333333333,37.32,-39.21333333333334,-17.012195121951223,-0.5487804878048781,0.12195121951219513,-0.02490234375,0.670654296875,-0.78662109375,0.44281524926686217,0.4750733137829912,0.47214076246334313,0.04398826979472141,0.05571847507331378,0.07624633431085044,42.3,-83.7,0.3,[ 0.13922044 -0.20094739  0.96965861],[-0.68577803 -0.10241344 -0.7205692 ],[-0.57202423  0.17286703 -0.80181374],[-0.02994249 -0.13829843  0.98993787],6.203507593935861,-3.342732051083064,-149.83530889682189,[ 0.96413881 -0.04464497 -0.04219439 -0.25819144],[ 0.94660476 -0.19435161 -0.00562858 -0.25716766]
1717778949.4543374,-5.573333333333333,37.480000000000004,-39.080000000000005,-14.695121951219514,0.426829268292683,0.9146341463414634,-0.01953125,0.53759765625,-0.822509765625,0.4398826979472141,0.47214076246334313,0.4750733137829912,0.04398826979472141,0.05571847507331378,0.07624633431085044,42.3,-83.7,0.3,[ 0.11556251 -0.24019217  0.96382209],[-0.68854043 -0.10238701 -0.71793383],[-0.57202423  0.17286703 -0.80181374],[-0.02994249 -0.13829843  0.98993787],7.526415504296079,-1.0630974075984427,-148.68828552155796,[ 0.96094672 -0.06069732 -0.02662461 -0.26867892],[ 0.94275643 -0.20391092  0.01666837 -0.26334924]
1717778949.4915106,-5.573333333333333,37.81333333333333,-38.88,-0.3658536585365854,1.1585365853658538,0.48780487804878053,-0.049072265625,0.70068359375,-0.835205078125,0.4398826979472141,0.47214076246334313,0.47214076246334313,0.04398826979472141,0.05571847507331378,0.07917888563049853,42.3,-83.7,0.3,[ 0.12778072 -0.2213227   0.96679282],[-0.69355245 -0.10222318 -0.71311669],[-0.57202423  0.17286703 -0.80181374],[-0.02994249 -0.13829843  0.98993787],6.935630522953962,-2.3524346042790927,-149.5151322655817,[ 0.96317891 -0.05296086 -0.03566818 -0.26116914],[ 0.96324235 -0.07549547 -0.00383406 -0.25777882]
1717778949.5131636,-5.373333333333334,37.800000000000004,-38.88,-9.085365853658537,-0.3658536585365854,-0.9756097560975611,0.009521484375,0.519775390625,-0.833740234375,0.4398826979472141,0.47214076246334313,0.47214076246334313,0.04398826979472141,0.05571847507331378,0.07917888563049853,42.3,-83.7,0.3,[ 0.12778072 -0.2213227   0.96679282],[-0.69368109 -0.09860793 -0.71350055],[-0.57202423  0.17286703 -0.80181374],[-0.02994249 -0.13829843  0.98993787],6.934135706345666,-2.4063444343074383,-149.7864282907794,[ 0.96379322 -0.05290965 -0.03599243 -0.25885854],[ 0.94794114 -0.16874013 -0.00803    -0.26994424]
1717778949.5355546,-5.546666666666667,37.973333333333336,-38.77333333333333,-6.951219512195123,0.12195121951219513,1.2195121951219514,-0.051025390625,0.74755859375,-0.784912109375,0.4398826979472141,0.47214076246334313,0.46920821114369504,0.04398826979472141,0.05571847507331378,0.07917888563049853,42.3,-83.7,0.3,[ 0.14005372 -0.20215013  0.96928854],[-0.696072   -0.10167344 -0.71073644],[-0.57202423  0.17286703 -0.80181374],[-0.02994249 -0.13829843  0.98993787],6.292545566215324,-3.5890815282195985,-150.3073804366211,[ 0.96512663 -0.04501516 -0.04428066 -0.25405404],[ 0.95771395 -0.15574286 -0.00822233 -0.24178616]
1717778949.5675976,-5.573333333333333,38.02666666666667,-38.70666666666667,-4.695121951219512,-0.24390243902439027,0.6097560975609757,0.0078125,0.545166015625,-0.8310546875,0.436950146627566,0.46920821114369504,0.47214076246334313,0.04398826979472141,0.05571847507331378,0.07917888563049853,42.3,-83.7,0.3,[ 0.11624727 -0.24161541  0.96338391],[-0.69714515 -0.10217625 -0.70961163],[-0.57202423  0.17286703 -0.80181374],[-0.02994249 -0.13829843  0.98993787],7.640567313932526,-1.255604680184437,-149.0451251327803,[ 0.96173123 -0.06128961 -0.02831516 -0.26554637],[ 0.9555431  -0.14957111 -0.00927042 -0.25392897]
1717778949.5904734,-5.5200000000000005,38.25333333333334,-38.6,-15.426829268292684,0.0,0.06097560975609757,-0.020751953125,0.69189453125,-0.767822265625,0.436950146627566,0.46920821114369504,0.46920821114369504,0.0469208211143695,0.05571847507331378,0.07624633431085044,42.3,-83.7,0.3,[ 0.12854422 -0.22264512  0.96638788],[-0.7003066  -0.10105505 -0.70665305],[-0.57202423  0.17286703 -0.80181374],[-0.02994249 -0.13829843  0.98993787],7.034843188945149,-2.5137233310292535,-149.83951985355824,[ 0.96386173 -0.05352895 -0.03709755 -0.25831954],[ 0.94539451 -0.19695303  0.00108477 -0.25968741]
1717778949.6163187,-5.5200000000000005,38.440000000000005,-38.480000000000004,-16.70731707317073,0.12195121951219513,0.3658536585365854,-0.011962890625,0.60546875,-0.808349609375,0.436950146627566,0.46920821114369504,0.46920821114369504,0.0469208211143695,0.05865102639296188,0.07624633431085044,42.3,-83.7,0.3,[ 0.12854422 -0.22264512  0.96638788],[-0.70312721 -0.10096936 -0.70385887],[-0.57202423  0.17286703 -0.80181374],[-0.02994249 -0.13829843  0.98993787],7.038647265912209,-2.587460790081702,-149.98754159302746,[ 0.96418925 -0.05344173 -0.0376569  -0.2570312 ],[ 0.94509233 -0.20189587  0.00424331 -0.25694461]
1717778949.6434977,-5.493333333333334,38.52,-38.36,-1.829268292682927,-0.3658536585365854,1.0365853658536586,-0.0244140625,0.71240234375,-0.777099609375,0.4340175953079179,0.46920821114369504,0.46920821114369504,0.0469208211143695,0.05865102639296188,0.07624633431085044,42.3,-83.7,0.3,[ 0.13963196 -0.24184965  0.96021438],[-0.70498664 -0.10053807 -0.70205835],[-0.57202423  0.17286703 -0.80181374],[-0.02994249 -0.13829843  0.98993787],8.353972832967548,-2.209590930190986,-148.63961156548504,[ 0.96042895 -0.06491671 -0.03819626 -0.26814753],[ 0.96109267 -0.11848457 -0.02615919 -0.24814911]
1717778949.675546,-5.5200000000000005,38.56,-38.36,-5.365853658536586,0.24390243902439027,0.0,-0.01025390625,0.634521484375,-0.802978515625,0.4340175953079179,0.46920821114369504,0.47214076246334313,0.0469208211143695,0.05571847507331378,0.07624633431085044,42.3,-83.7,0.3,[ 0.12729868 -0.26057647  0.95702401],[-0.70531993 -0.10096904 -0.70166163],[-0.57202423  0.17286703 -0.80181374],[-0.02994249 -0.13829843  0.98993787],8.933479430045987,-1.0481361769384494,-148.14215400828397,[ 0.95883762 -0.07238425 -0.03014163 -0.27291467],[ 0.94877372 -0.15980296 -0.00451662 -0.27252715]
1717778949.6979742,-5.493333333333334,38.61333333333334,-38.373333333333335,0.0,0.426829268292683,0.1829268292682927,-0.037841796875,0.648193359375,-0.806884765625,0.4340175953079179,0.46920821114369504,0.46920821114369504,0.0469208211143695,0.05571847507331378,0.07624633431085044,42.3,-83.7,0.3,[ 0.13963196 -0.24184965  0.96021438],[-0.70572367 -0.10039991 -0.70133727],[-0.57202423  0.17286703 -0.80181374],[-0.02994249 -0.13829843  0.98993787],8.35520973776995,-2.232072657567748,-148.68846312328503,[ 0.96054268 -0.0648903  -0.03835977 -0.26772287],[ 0.96043584 -0.07656272 -0.02516507 -0.26658558]
1717778949.7250822,-5.48,38.56,-38.36,-3.4756097560975614,0.30487804878048785,0.6097560975609757,-0.01806640625,0.68310546875,-0.778564453125,0.4340175953079179,0.46920821114369504,0.46920821114369504,0.0469208211143695,0.05865102639296188,0.07624633431085044,42.3,-83.7,0.3,[ 0.13963196 -0.24184965  0.96021438],[-0.70537185 -0.10024476 -0.70171329],[-0.57202423  0.17286703 -0.80181374],[-0.02994249 -0.13829843  0.98993787],8.354589360768797,-2.2246327700522968,-148.6807577677354,[ 0.96052496 -0.06490008 -0.03830037 -0.26779256],[ 0.95779914 -0.12381552 -0.01428134 -0.25901073]
1717778949.7515042,-5.5200000000000005,38.6,-38.38666666666667,-1.2195121951219514,-0.30487804878048785,-0.06097560975609757,-0.014892578125,0.60693359375,-0.80029296875,0.4340175953079179,0.46920821114369504,0.46920821114369504,0.0469208211143695,0.05571847507331378,0.07624633431085044,42.3,-83.7,0.3,[ 0.13963196 -0.24184965  0.96021438],[-0.70544609 -0.10088245 -0.70154725],[-0.57202423  0.17286703 -0.80181374],[-0.02994249 -0.13829843  0.98993787],8.354803652636372,-2.2172058350230994,-148.6397061963473,[ 0.96042878 -0.06490571 -0.03826192 -0.26814146],[ 0.95793622 -0.09704913 -0.03453546 -0.26785623]
1717778949.7785118,-5.493333333333334,38.62666666666667,-38.32,-8.353658536585366,0.1829268292682927,0.48780487804878053,-0.03173828125,0.669921875,-0.78515625,0.4340175953079179,0.4662756598240469,0.46920821114369504,0.0469208211143695,0.05865102639296188,0.07624633431085044,42.3,-83.7,0.3,[ 0.11693987 -0.24305496  0.96293788],[-0.70632849 -0.10045127 -0.70072077],[-0.57202423  0.17286703 -0.80181374],[-0.02994249 -0.13829843  0.98993787],7.758488939816163,-1.4858555647775,-149.53184777955718,[ 0.96279933 -0.06187183 -0.03025733 -0.26129261],[ 0.95030229 -0.17272713  0.0025519  -0.25900653]
