Time,MagX,MagY,MagZ,GyroX,GyroY,GyroZ,AccelX,AccelY,AccelZ,Tri11,Tri12,Tri13,Tri21,Tri22,Tri23,Lat,Lon,Alt,SunVect,MagVect,MagRef,SunRef,Roll,Pitch,Yaw,static_q,dynamic_q
1717778919.7629652,-15.64,-6.08,-26.013333333333335,-11.52439024390244,-0.06097560975609757,-0.3658536585365854,-0.009765625,-0.76708984375,-0.646240234375,0.41642228739002934,0.3841642228739003,0.34017595307917886,0.020527859237536656,0.017595307917888565,0.026392961876832845,42.3,-83.7,0.3,[0.04869095 0.5481788  0.83494263],[ 0.19640826 -0.5052344  -0.84033446],[-0.57202423  0.17286703 -0.80181374],[-0.02994249 -0.13829843  0.98993787],23.802905375504043,12.022871886888888,9.958907795702256,[0.10598184 0.08428704 0.21321563 0.96757565],[ 0.20444002 -0.06657952  0.2104087   0.9536769 ]
1717778919.779367,-15.600000000000001,-6.213333333333334,-25.533333333333335,-8.170731707317074,-0.48780487804878053,0.12195121951219513,-0.00146484375,-0.69482421875,-0.67822265625,0.41642228739002934,0.3841642228739003,0.34017595307917886,0.020527859237536656,0.017595307917888565,0.026392961876832845,42.3,-83.7,0.3,[0.04869095 0.5481788  0.83494263],[ 0.20331555 -0.51047038 -0.83551348],[-0.57202423  0.17286703 -0.80181374],[-0.02994249 -0.13829843  0.98993787],24.053936998324694,11.007944905117787,8.421286503580967,[0.09141271 0.07832734 0.21373936 0.96944522],[0.09527248 0.04688866 0.10517282 0.98876857]
1717778919.8143206,-15.346666666666668,-6.173333333333334,-25.720000000000002,5.182926829268293,-0.1829268292682927,1.0975609756097562,-0.03759765625,-0.808837890625,-0.652587890625,0.41642228739002934,0.3841642228739003,0.34017595307917886,0.020527859237536656,0.017595307917888565,0.026392961876832845,42.3,-83.7,0.3,[0.04869095 0.5481788  0.83494263],[ 0.20187354 -0.50184978 -0.8410671 ],[-0.57202423  0.17286703 -0.80181374],[-0.02994249 -0.13829843  0.98993787],23.723478036126107,12.25797217263763,10.448305355980644,[0.11045364 0.08544431 0.21304065 0.96701238],[0.08655542 0.09242852 0.27821465 0.95213536]
1717778919.8373988,-15.466666666666667,-6.186666666666667,-25.680000000000003,-2.073170731707317,0.24390243902439027,0.06097560975609757,-0.022216796875,-0.640380859375,-0.7119140625,0.41642228739002934,0.3841642228739003,0.34017595307917886,0.020527859237536656,0.017595307917888565,0.026392961876832845,42.3,-83.7,0.3,[0.04869095 0.5481788  0.83494263],[ 0.20211444 -0.5052861  -0.83894917],[-0.57202423  0.17286703 -0.80181374],[-0.02994249 -0.13829843  0.98993787],23.857511652446696,11.776383131466464,9.656525506502197,[0.1030464  0.08271039 0.2133234  0.96800494],[0.10165575 0.07656758 0.18572725 0.97432484]
1717778919.860393,-15.360000000000001,-6.373333333333334,-25.653333333333336,-5.060975609756098,-0.1829268292682927,0.30487804878048785,-0.006103515625,-0.80615234375,-0.626220703125,0.41642228739002934,0.3841642228739003,0.34017595307917886,0.020527859237536656,0.017595307917888565,0.026392961876832845,42.3,-83.7,0.3,[0.04869095 0.5481788  0.83494263],[ 0.20847015 -0.50242178 -0.83911415],[-0.57202423  0.17286703 -0.80181374],[-0.02994249 -0.13829843  0.98993787],23.808617989435106,11.901401257362155,9.978895569502995,[0.10594757 0.08321489 0.21321154 0.9676731 ],[0.10730131 0.07772433 0.12851424 0.9828171 ]
1717778919.8876607,-15.440000000000001,-6.2,-25.693333333333335,0.9146341463414634,0.30487804878048785,0.48780487804878053,-0.029541015625,-0.67578125,-0.680908203125,0.41642228739002934,0.3841642228739003,0.34017595307917886,0.020527859237536656,0.017595307917888565,0.026392961876832845,42.3,-83.7,0.3,[0.04869095 0.5481788  0.83494263],[ 0.20254723 -0.50440793 -0.83937313],[-0.57202423  0.17286703 -0.80181374],[-0.02994249 -0.13829843  0.98993787],23.828418071909866,11.87926738951495,9.833954280886845,[0.1047001  0.08327877 0.21326134 0.9677924 ],[0.09381331 0.07976644 0.21771201 0.96821375]
1717778919.9145708,-15.48,-6.213333333333334,-25.46666666666667,17.743902439024392,0.1829268292682927,0.24390243902439027,-0.01220703125,-0.8125,-0.677734375,0.41348973607038125,0.3812316715542522,0.33724340175953077,0.020527859237536656,0.017595307917888565,0.026392961876832845,42.3,-83.7,0.3,[0.04895383 0.55113842 0.83297657],[ 0.20409609 -0.50848832 -0.83653118],[-0.57202423  0.17286703 -0.80181374],[-0.02994249 -0.13829843  0.98993787],24.087771705717838,11.703424351388177,9.4522320061002,[0.10136078 0.08226839 0.21508315 0.96783115],[0.08598636 0.09389899 0.35385968 0.92659195]
1717778919.9474735,-15.520000000000001,-6.213333333333334,-25.253333333333334,0.12195121951219513,-0.30487804878048785,0.12195121951219513,-0.025146484375,-0.694580078125,-0.6796875,0.41348973607038125,0.3812316715542522,0.33724340175953077,0.020527859237536656,0.017595307917888565,0.026392961876832845,42.3,-83.7,0.3,[0.04895383 0.55113842 0.83297657],[ 0.20515922 -0.51245778 -0.83384454],[-0.57202423  0.17286703 -0.80181374],[-0.02994249 -0.13829843  0.98993787],24.238637108584296,11.109547053947281,8.507513754441094,[0.09244662 0.07887967 0.21540653 0.96893325],[0.09133463 0.08762416 0.23740534 0.96312964]
1717778919.9750402,-15.280000000000001,-6.253333333333334,-25.053333333333335,9.51219512195122,0.24390243902439027,0.6707317073170732,-0.026123046875,-0.91650390625,-0.630126953125,0.41348973607038125,0.3782991202346041,0.3343108504398827,0.020527859237536656,0.017595307917888565,0.026392961876832845,42.3,-83.7,0.3,[0.03643239 0.56792478 0.82227375],[ 0.20841526 -0.50926202 -0.83499418],[-0.57202423  0.17286703 -0.80181374],[-0.02994249 -0.13829843  0.98993787],24.6776314419079,13.725659518331977,13.29588360507335,[0.13764686 0.09138619 0.22424858 0.96042412],[0.11318838 0.10053179 0.33905338 0.92850663]
1717778919.994292,-15.56,-6.186666666666667,-24.96,-0.6097560975609757,0.1829268292682927,0.3658536585365854,-0.007568359375,-0.637451171875,-0.718994140625,0.41348973607038125,0.3782991202346041,0.3343108504398827,0.020527859237536656,0.017595307917888565,0.026392961876832845,42.3,-83.7,0.3,[0.03643239 0.56792478 0.82227375],[ 0.20583493 -0.51769258 -0.83043746],[-0.57202423  0.17286703 -0.80181374],[-0.02994249 -0.13829843  0.98993787],25.00825638595584,12.647574694936722,11.523664118069082,[0.12114329 0.0853871  0.22490112 0.96304353],[0.11346335 0.08536818 0.23031734 0.96270051]
1717778920.0222895,-15.600000000000001,-6.253333333333334,-24.92,0.30487804878048785,0.0,0.7317073170731708,-0.015380859375,-0.7939453125,-0.64111328125,0.41348973607038125,0.3782991202346041,0.3343108504398827,0.020527859237536656,0.017595307917888565,0.026392961876832845,42.3,-83.7,0.3,[0.03643239 0.56792478 0.82227375],[ 0.2080437  -0.51900028 -0.82906968],[-0.57202423  0.17286703 -0.80181374],[-0.02994249 -0.13829843  0.98993787],25.085730722967703,12.349326301437198,11.09162808264278,[0.11703731 0.08363533 0.22504612 0.96367092],[0.10262446 0.0877455  0.23019502 0.96373191]
1717778920.0496745,-15.72,-6.213333333333334,-24.986666666666668,5.487804878048781,0.3658536585365854,0.5487804878048781,-0.0205078125,-0.686279296875,-0.654541015625,0.41055718475073316,0.3782991202346041,0.3343108504398827,0.020527859237536656,0.017595307917888565,0.026392961876832845,42.3,-83.7,0.3,[0.04921893 0.55412302 0.83097845],[ 0.2059635  -0.52109649 -0.8282738 ],[-0.57202423  0.17286703 -0.80181374],[-0.02994249 -0.13829843  0.98993787],24.638291107873663,10.317232782000833,7.148161661525597,[0.07980325 0.0744255  0.21755543 0.96992882],[0.06495604 0.08115813 0.30217186 0.94756859]
1717778920.0767455,-15.88,-6.24,-24.706666666666667,12.926829268292684,-0.1829268292682927,-0.06097560975609757,-0.019775390625,-0.76416015625,-0.687744140625,0.41055718475073316,0.375366568914956,0.3313782991202346,0.020527859237536656,0.017595307917888565,0.026392961876832845,42.3,-83.7,0.3,[0.03662561 0.57093681 0.82017664],[ 0.20782327 -0.52888357 -0.8228558 ],[-0.57202423  0.17286703 -0.80181374],[-0.02994249 -0.13829843  0.98993787],25.555609618790918,11.38247886692872,9.46344932832209,[0.10190914 0.07822761 0.22730824 0.96531131],[0.08924432 0.08895821 0.36177778 0.92370922]
1717778920.1036468,-16.12,-6.2266666666666675,-24.493333333333336,0.24390243902439027,0.12195121951219513,0.30487804878048785,-0.019287109375,-0.765869140625,-0.674560546875,0.41055718475073316,0.375366568914956,0.3313782991202346,0.020527859237536656,0.017595307917888565,0.026392961876832845,42.3,-83.7,0.3,[0.03662561 0.57093681 0.82017664],[ 0.20772305 -0.53776696 -0.81710332],[-0.57202423  0.17286703 -0.80181374],[-0.02994249 -0.13829843  0.98993787],25.854318575398512,10.024434859942383,7.393045051890051,[0.08210209 0.07060872 0.22788306 0.96764816],[0.0766436  0.07377766 0.25180796 0.96191235]
1717778920.130759,-16.30666666666667,-6.213333333333334,-24.42666666666667,-1.707317073170732,0.426829268292683,0.5487804878048781,-0.01220703125,-0.76123046875,-0.63623046875,0.41055718475073316,0.375366568914956,0.3313782991202346,0.020527859237536656,0.017595307917888565,0.026392961876832845,42.3,-83.7,0.3,[0.03662561 0.57093681 0.82017664],[ 0.20697605 -0.5432011  -0.81369127],[-0.57202423  0.17286703 -0.80181374],[-0.02994249 -0.13829843  0.98993787],26.010116612682683,9.20047645508875,6.143963382551501,[0.07007044 0.06601258 0.22817767 0.9688485 ],[0.06142716 0.05952084 0.20051079 0.97595051]
1717778920.1577551,-16.32,-6.213333333333334,-24.360000000000003,13.109756097560977,0.06097560975609757,0.1829268292682927,-0.01171875,-0.7158203125,-0.6474609375,0.40762463343108507,0.3724340175953079,0.3313782991202346,0.020527859237536656,0.01466275659824047,0.026392961876832845,42.3,-83.7,0.3,[0.02481082 0.55865677 0.82902776],[ 0.20730036 -0.54449708 -0.81274196],[-0.57202423  0.17286703 -0.80181374],[-0.02994249 -0.13829843  0.98993787],25.48197764699175,6.514316660863165,3.371212545265088,[0.04116984 0.04891767 0.22172263 0.9730114 ],[0.03232269 0.05718793 0.3484548  0.93502088]
1717778920.1849644,-16.64,-6.2,-24.06666666666667,-1.5853658536585367,0.0,0.06097560975609757,-0.021240234375,-0.84814453125,-0.576171875,0.40762463343108507,0.3724340175953079,0.3313782991202346,0.020527859237536656,0.017595307917888565,0.026392961876832845,42.3,-83.7,0.3,[0.02481082 0.55865677 0.82902776],[ 0.20729711 -0.5563587  -0.80466944],[-0.57202423  0.17286703 -0.80181374],[-0.02994249 -0.13829843  0.98993787],25.636284117196322,4.533998869610371,0.41570697710471927,[0.01231034 0.03776605 0.22182208 0.97427776],[0.01576677 0.03987911 0.21152411 0.97643157]
1717778920.21179,-16.746666666666666,-6.213333333333334,-24.10666666666667,2.6219512195121952,0.48780487804878053,0.7926829268292683,-0.018310546875,-0.71826171875,-0.67724609375,0.40762463343108507,0.3724340175953079,0.3313782991202346,0.020527859237536656,0.01466275659824047,0.026392961876832845,42.3,-83.7,0.3,[0.02481082 0.55865677 0.82902776],[ 0.20708951 -0.55816401 -0.80347176],[-0.57202423  0.17286703 -0.80181374],[-0.02994249 -0.13829843  0.98993787],25.650623870462567,4.234386507628021,-0.03153365605679967,[0.00793258 0.03608293 0.22181782 0.97438799],[-0.00874552  0.03171014  0.26583762  0.96345646]
1717778920.2395062,-16.78666666666667,-6.213333333333334,-24.06666666666667,-1.707317073170732,0.06097560975609757,0.6707317073170732,-0.013427734375,-0.69970703125,-0.66015625,0.40762463343108507,0.3724340175953079,0.3313782991202346,0.020527859237536656,0.01466275659824047,0.026392961876832845,42.3,-83.7,0.3,[0.02481082 0.55865677 0.82902776],[ 0.20715691 -0.55967928 -0.8023996 ],[-0.57202423  0.17286703 -0.80181374],[-0.02994249 -0.13829843  0.98993787],25.661103786810912,3.977773977473387,-0.40994123866520266,[0.004221   0.03463283 0.22181219 0.97446503],[-0.00895565  0.03666665  0.19668948  0.97973905]
1717778920.2679713,-16.720000000000002,-6.293333333333334,-23.973333333333336,19.451219512195124,-0.30487804878048785,0.1829268292682927,-0.0302734375,-0.7734375,-0.6494140625,0.4046920821114369,0.36950146627565983,0.3255131964809384,0.020527859237536656,0.01466275659824047,0.026392961876832845,42.3,-83.7,0.3,[0.03701673 0.57703371 0.81588103],[ 0.21049407 -0.55923637 -0.80183971],[-0.57202423  0.17286703 -0.80181374],[-0.02994249 -0.13829843  0.98993787],26.698405346322524,7.524907747368244,3.5952794194904767,[0.04559947 0.05658844 0.23227721 0.96993079],[0.03542935 0.0557702  0.37089402 0.9263218 ]
1717778920.2929387,-16.84,-6.066666666666667,-23.62666666666667,2.987804878048781,0.24390243902439027,-0.426829268292683,-0.00732421875,-0.74267578125,-0.6552734375,0.4046920821114369,0.36950146627565983,0.3255131964809384,0.020527859237536656,0.017595307917888565,0.026392961876832845,42.3,-83.7,0.3,[0.03701673 0.57703371 0.81588103],[ 0.20466906 -0.56812534 -0.7970848 ],[-0.57202423  0.17286703 -0.80181374],[-0.02994249 -0.13829843  0.98993787],26.84610450736926,6.22240504453157,1.6331833001166043,[0.02643984 0.04948255 0.23252594 0.9709707 ],[0.03035203 0.04564893 0.30371945 0.95118317]
1717778920.3199384,-17.080000000000002,-6.413333333333334,-23.42666666666667,11.219512195121952,0.06097560975609757,0.30487804878048785,-0.01611328125,-0.842041015625,-0.6298828125,0.40175953079178883,0.36950146627565983,0.3255131964809384,0.020527859237536656,0.01466275659824047,0.026392961876832845,42.3,-83.7,0.3,[0.05002771 0.56322843 0.8247854 ],[ 0.21598907 -0.57522245 -0.78896632],[-0.57202423  0.17286703 -0.80181374],[-0.02994249 -0.13829843  0.98993787],26.125128048094695,3.4322198426101775,-3.2220827296754933,[ 0.02060864 -0.03551223 -0.22500405 -0.97349234],[ 0.01423376 -0.02847437 -0.06652427 -0.99727686]
1717778920.34683,-17.12,-6.413333333333334,-23.30666666666667,-3.4756097560975614,0.426829268292683,0.9146341463414634,-0.023681640625,-0.68505859375,-0.69873046875,0.40175953079178883,0.36656891495601174,0.3255131964809384,0.020527859237536656,0.01466275659824047,0.026392961876832845,42.3,-83.7,0.3,[0.02508305 0.56478657 0.82485572],[ 0.21651031 -0.57796098 -0.78681916],[-0.57202423  0.17286703 -0.80181374],[-0.02994249 -0.13829843  0.98993787],26.116039741816788,1.7752682193412619,-3.4932116839991347,[ 0.02618911 -0.02196952 -0.22534559 -0.97367902],[ 0.03963617 -0.01745518 -0.14398931 -0.98863106]
1717778920.3738732,-17.16,-6.466666666666667,-23.32,-4.573170731707317,0.1829268292682927,-0.12195121951219513,-0.016357421875,-0.84228515625,-0.592041015625,0.4046920821114369,0.36950146627565983,0.3255131964809384,0.020527859237536656,0.01466275659824047,0.026392961876832845,42.3,-83.7,0.3,[0.03701673 0.57703371 0.81588103],[ 0.21797819 -0.57842872 -0.7860698 ],[-0.57202423  0.17286703 -0.80181374],[-0.02994249 -0.13829843  0.98993787],26.98517054020955,4.223512794090549,-0.9817339522009243,[2.72188878e-04 3.78279453e-02 2.32845536e-01 9.71777716e-01],[0.00315775 0.04101775 0.34402035 0.93806054]
1717778920.4010007,-17.186666666666667,-6.573333333333334,-23.30666666666667,7.560975609756098,0.6707317073170732,0.9756097560975611,-0.01318359375,-0.713623046875,-0.638427734375,0.40175953079178883,0.36656891495601174,0.3255131964809384,0.020527859237536656,0.01466275659824047,0.026392961876832845,42.3,-83.7,0.3,[0.02508305 0.56478657 0.82485572],[ 0.22136188 -0.57877377 -0.78486932],[-0.57202423  0.17286703 -0.80181374],[-0.02994249 -0.13829843  0.98993787],26.11736237389838,1.590889133445051,-3.6789931531662905,[ 0.02813146 -0.0207689  -0.22537656 -0.97364402],[ 0.00609212 -0.02220737 -0.0800794  -0.99652246]
1717778920.4279125,-17.200000000000003,-6.680000000000001,-23.080000000000002,24.451219512195124,0.426829268292683,0.853658536585366,-0.02783203125,-0.84814453125,-0.66796875,0.40175953079178883,0.36656891495601174,0.3225806451612903,0.020527859237536656,0.01466275659824047,0.026392961876832845,42.3,-83.7,0.3,[0.03721464 0.58011886 0.81368125],[ 0.22606448 -0.5820822  -0.78107309],[-0.57202423  0.17286703 -0.80181374],[-0.02994249 -0.13829843  0.98993787],27.21674541861358,3.9650162907319664,-1.2392489053907947,[ 0.00236536 -0.03616415 -0.23476595 -0.97137609],[ 0.01122035 -0.03122341 -0.36915313 -0.92877617]
1717778920.4558184,-17.373333333333335,-6.666666666666667,-22.78666666666667,-8.231707317073171,-0.1829268292682927,-0.6097560975609757,-0.028076171875,-0.782470703125,-0.654296875,0.40175953079178883,0.36656891495601174,0.3225806451612903,0.020527859237536656,0.01466275659824047,0.026392961876832845,42.3,-83.7,0.3,[0.03721464 0.58011886 0.81368125],[ 0.22660676 -0.59053722 -0.77454191],[-0.57202423  0.17286703 -0.80181374],[-0.02994249 -0.13829843  0.98993787],27.252761217539543,2.6181097638165487,-3.1017954759019535,[ 0.02091614 -0.02856872 -0.23484094 -0.97138874],[ 0.00763799 -0.02879868 -0.142315   -0.9893729 ]
1717778920.482014,-17.400000000000002,-6.5200000000000005,-22.866666666666667,1.707317073170732,0.30487804878048785,0.9756097560975611,-0.008056640625,-0.85205078125,-0.558837890625,0.39882697947214074,0.36656891495601174,0.3225806451612903,0.020527859237536656,0.01466275659824047,0.026392961876832845,42.3,-83.7,0.3,[0.05030183 0.56631467 0.82265268],[ 0.22128348 -0.59054181 -0.77607602],[-0.57202423  0.17286703 -0.80181374],[-0.02994249 -0.13829843  0.98993787],26.363332229861264,1.5241725384539793,-5.878548969843994,[ 0.04689299 -0.0246253  -0.22705513 -0.97244054],[ 0.06078184 -0.02188357 -0.24508027 -0.9673481 ]
1717778920.5089853,-17.42666666666667,-6.626666666666667,-22.78666666666667,13.841463414634148,0.06097560975609757,0.24390243902439027,-0.021484375,-0.68408203125,-0.67138671875,0.39882697947214074,0.36363636363636365,0.3196480938416422,0.020527859237536656,0.01466275659824047,0.026392961876832845,42.3,-83.7,0.3,[0.03741414 0.58322865 0.81144595],[ 0.225075   -0.59189743 -0.77395005],[-0.57202423  0.17286703 -0.80181374],[-0.02994249 -0.13829843  0.98993787],27.468222895920334,2.8961649912082588,-2.7540713339989247,[ 0.01733888 -0.03024513 -0.23668222 -0.97096144],[ 0.02596953 -0.02105052 -0.36791973 -0.92925644]
1717778920.5360072,-17.62666666666667,-6.48,-22.42666666666667,0.48780487804878053,0.1829268292682927,-0.48780487804878053,-0.014892578125,-0.919921875,-0.62841796875,0.39589442815249265,0.36363636363636365,0.3196480938416422,0.020527859237536656,0.01466275659824047,0.026392961876832845,42.3,-83.7,0.3,[0.05057826 0.56942672 0.82048464],[ 0.22152776 -0.60259198 -0.76668661],[-0.57202423  0.17286703 -0.80181374],[-0.02994249 -0.13829843  0.98993787],26.542139972279855,0.1555811676999975,-7.800484711881269,[ 0.06589203 -0.01693281 -0.22893657 -0.97106105],[ 0.05308107 -0.01066822 -0.25856556 -0.96447521]
1717778920.564043,-17.693333333333335,-6.36,-22.30666666666667,-1.5853658536585367,-0.30487804878048785,0.0,-0.013427734375,-0.75634765625,-0.62109375,0.39589442815249265,0.36070381231671556,0.3196480938416422,0.020527859237536656,0.01466275659824047,0.026392961876832845,42.3,-83.7,0.3,[0.02535988 0.5710199  0.82054443],[ 0.21800633 -0.60648722 -0.76462179],[-0.57202423  0.17286703 -0.80181374],[-0.02994249 -0.13829843  0.98993787],26.324499065230473,-1.9850239397463476,-8.79225102932055,[ 7.85594203e-02 -6.34613247e-04 -2.28298218e-01 -9.70416374e-01],[ 0.07304094 -0.00915265 -0.20405888 -0.97618708]
1717778920.5957654,-18.200000000000003,-6.04,-22.32,-0.24390243902439027,0.1829268292682927,0.7926829268292683,-0.018310546875,-0.74365234375,-0.62841796875,0.39882697947214074,0.36070381231671556,0.3196480938416422,0.020527859237536656,0.01466275659824047,0.02346041055718475,42.3,-83.7,0.3,[0.01250147 0.58463588 0.81119948],[ 0.20525893 -0.61849546 -0.75850652],[-0.57202423  0.17286703 -0.80181374],[-0.02994249 -0.13829843  0.98993787],27.07355743180797,-3.0386091951113916,-9.18279572837109,[ 0.08398428  0.00696398 -0.23529976 -0.96826245],[ 0.09776157  0.00460569 -0.22583707 -0.96923634]
1717778920.6171017,-18.200000000000003,-6.04,-22.28,12.317073170731708,0.3658536585365854,0.853658536585366,-0.022216796875,-0.781005859375,-0.626953125,0.39589442815249265,0.36070381231671556,0.31671554252199413,0.020527859237536656,0.01466275659824047,0.026392961876832845,42.3,-83.7,0.3,[0.03761522 0.58636319 0.80917446],[ 0.2054707  -0.61913358 -0.75792836],[-0.57202423  0.17286703 -0.80181374],[-0.02994249 -0.13829843  0.98993787],27.544208963046835,-1.0143444921845668,-8.390961557797482,[ 0.07315503 -0.00884153 -0.23804234 -0.96845548],[ 0.08356765  0.00694073 -0.36196419 -0.92841273]
1717778920.6445472,-17.58666666666667,-6.106666666666667,-22.080000000000002,5.7926829268292686,0.24390243902439027,0.5487804878048781,-0.014892578125,-0.783935546875,-0.5810546875,0.39589442815249265,0.36070381231671556,0.31378299120234604,0.020527859237536656,0.01466275659824047,0.026392961876832845,42.3,-83.7,0.3,[0.04957529 0.60106851 0.79765841],[ 0.2114428  -0.60893681 -0.76451809],[-0.57202423  0.17286703 -0.80181374],[-0.02994249 -0.13829843  0.98993787],28.779613702187508,3.73405452999455,-2.8151093219813936,[ 0.01568646 -0.03764971 -0.2475355  -0.96801994],[ 0.03277939 -0.02448442 -0.34776213 -0.93668967]
1717778920.6731882,-18.093333333333334,-6.0,-21.96,17.195121951219512,0.0,0.12195121951219513,-0.01025390625,-0.81884765625,-0.57861328125,0.39296187683284456,0.35777126099706746,0.31378299120234604,0.020527859237536656,0.01466275659824047,0.02346041055718475,42.3,-83.7,0.3,[0.03781789 0.58952261 0.8068661 ],[ 0.20633178 -0.62220493 -0.7551743 ],[-0.57202423  0.17286703 -0.80181374],[-0.02994249 -0.13829843  0.98993787],27.76834077516525,-1.0504160059415326,-8.393814738674568,[ 0.07323683 -0.00868577 -0.23995756 -0.96797794],[ 0.07552212 -0.00531056 -0.38552789 -0.91958494]
1717778920.6981702,-18.413333333333334,-6.12,-21.893333333333334,-1.524390243902439,-0.1829268292682927,-0.24390243902439027,-0.0146484375,-0.823974609375,-0.562744140625,0.39296187683284456,0.35777126099706746,0.31378299120234604,0.020527859237536656,0.01466275659824047,0.026392961876832845,42.3,-83.7,0.3,[0.03781789 0.58952261 0.8068661 ],[ 0.20919889 -0.62941975 -0.74837598],[-0.57202423  0.17286703 -0.80181374],[-0.02994249 -0.13829843  0.98993787],27.65978969734823,-2.271107468490679,-9.990187745346924,[ 0.08924891 -0.001639   -0.23976105 -0.9667195 ],[ 0.08138243 -0.00570464 -0.23402052 -0.96880274]
1717778920.7252023,-18.413333333333334,-5.906666666666667,-21.58666666666667,1.3414634146341464,0.3658536585365854,0.7317073170731708,-0.02099609375,-0.79296875,-0.62109375,0.39296187683284456,0.35777126099706746,0.31378299120234604,0.020527859237536656,0.01466275659824047,0.026392961876832845,42.3,-83.7,0.3,[0.03781789 0.58952261 0.8068661 ],[ 0.20380861 -0.6353492  -0.74484457],[-0.57202423  0.17286703 -0.80181374],[-0.02994249 -0.13829843  0.98993787],27.522599156189905,-3.319230492680368,-11.4913487606104,[ 0.10405315  0.00418441 -0.2393993  -0.96532036],[ 0.11575735  0.00824678 -0.26215425 -0.95802264]
1717778920.7522209,-18.400000000000002,-5.986666666666667,-21.653333333333336,-2.5609756097560976,0.12195121951219513,0.6097560975609757,-0.015869140625,-0.755859375,-0.614013671875,0.39296187683284456,0.35777126099706746,0.31378299120234604,0.020527859237536656,0.01466275659824047,0.026392961876832845,42.3,-83.7,0.3,[0.03781789 0.58952261 0.8068661 ],[ 0.2061591  -0.63362932 -0.74566233],[-0.57202423  0.17286703 -0.80181374],[-0.02994249 -0.13829843  0.98993787],27.5684299842552,-3.004701840707487,-11.028327542283481,[ 0.09951023  0.00245752 -0.23952857 -0.96577313],[ 0.11315248 -0.00291134 -0.19747127 -0.97375209]
1717778920.7792704,-18.373333333333335,-6.066666666666667,-21.693333333333335,-2.9268292682926833,0.12195121951219513,0.0,-0.017578125,-0.832763671875,-0.5947265625,0.39296187683284456,0.35777126099706746,0.31378299120234604,0.020527859237536656,0.01466275659824047,0.026392961876832845,42.3,-83.7,0.3,[0.03781789 0.58952261 0.8068661 ],[ 0.20870159 -0.63206767 -0.74628018],[-0.57202423  0.17286703 -0.80181374],[-0.02994249 -0.13829843  0.98993787],27.6083983316464,-2.720602776998158,-10.603780672446954,[ 9.53493647e-02  9.13527421e-04 -2.39647094e-01 -9.66166101e-01],[ 0.09814702 -0.00344076 -0.18239678 -0.9783081 ]
1717778920.8063235,-18.52,-6.08,-21.813333333333336,9.390243902439025,0.426829268292683,0.30487804878048785,-0.016357421875,-0.769287109375,-0.591796875,0.39296187683284456,0.3548387096774194,0.31085043988269795,0.020527859237536656,0.01466275659824047,0.026392961876832845,42.3,-83.7,0.3,[0.02498471 0.60584697 0.79518879],[ 0.20783704 -0.63308255 -0.74566095],[-0.57202423  0.17286703 -0.80181374],[-0.02994249 -0.13829843  0.98993787],28.845715435984904,-1.3345901178619808,-7.500382576340198,[ 0.06623539 -0.00503506 -0.24926381 -0.96615479],[ 0.07351339  0.01130088 -0.35421867 -0.9322002 ]
1717778920.8335395,-19.10666666666667,-6.026666666666667,-21.720000000000002,-1.6463414634146343,0.1829268292682927,0.24390243902439027,-0.016357421875,-0.831298828125,-0.5625,0.39296187683284456,0.3548387096774194,0.31085043988269795,0.020527859237536656,0.01466275659824047,0.026392961876832845,42.3,-83.7,0.3,[0.02498471 0.60584697 0.79518879],[ 0.20395496 -0.64660943 -0.73505008],[-0.57202423  0.17286703 -0.80181374],[-0.02994249 -0.13829843  0.98993787],28.54053714995462,-3.890576098599383,-10.882092315601772,[ 0.10017236  0.00938985 -0.2483635  -0.96342768],[ 0.10189948  0.00894778 -0.23392592 -0.96685836]
1717778920.8603342,-19.053333333333335,-6.08,-21.773333333333333,18.902439024390244,0.06097560975609757,0.426829268292683,-0.0224609375,-0.723876953125,-0.617431640625,0.39002932551319647,0.3548387096774194,0.31085043988269795,0.020527859237536656,0.01466275659824047,0.026392961876832845,42.3,-83.7,0.3,[0.03802217 0.59270701 0.80452018],[ 0.20565037 -0.64446135 -0.73646283],[-0.57202423  0.17286703 -0.80181374],[-0.02994249 -0.13829843  0.98993787],27.605896911604088,-4.3739079702165125,-12.818725955584792,[ 0.11737618  0.01021268 -0.24105639 -0.96333294],[ 0.11705595  0.02468036 -0.37989289 -0.91726233]
1717778920.907909,-18.92,-5.920000000000001,-21.360000000000003,0.5487804878048781,-0.12195121951219513,0.24390243902439027,-0.018798828125,-0.695556640625,-0.68408203125,0.39002932551319647,0.3519061583577713,0.31085043988269795,0.020527859237536656,0.01466275659824047,0.026392961876832845,42.3,-83.7,0.3,[0.01270507 0.5941573  0.80424852],[ 0.20314248 -0.6492324  -0.73296004],[-0.57202423  0.17286703 -0.80181374],[-0.02994249 -0.13829843  0.98993787],26.98743475708492,-7.219850046654985,-14.73731720644263,[ 0.13903578  0.03085265 -0.23880488 -0.96056722],[ 0.13932759  0.02735461 -0.2700231  -0.95232719]
1717778920.9326377,-19.066666666666666,-5.96,-20.733333333333334,4.878048780487806,-0.30487804878048785,0.853658536585366,-0.012451171875,-0.94970703125,-0.552734375,0.39002932551319647,0.3519061583577713,0.30791788856304986,0.020527859237536656,0.01466275659824047,0.026392961876832845,42.3,-83.7,0.3,[0.02511649 0.60904243 0.79273985],[ 0.20700803 -0.66224047 -0.72012862],[-0.57202423  0.17286703 -0.80181374],[-0.02994249 -0.13829843  0.98993787],28.390382206080453,-6.2080437936905435,-13.78350207885464,[ 0.12934211  0.02273376 -0.24939613 -0.95945576],[ 0.14016045  0.02587537 -0.32873192 -0.93360636]
1717778920.9731545,-19.080000000000002,-5.973333333333334,-20.706666666666667,4.085365853658537,-0.1829268292682927,0.7317073170731708,-0.017578125,-0.711669921875,-0.648193359375,0.39002932551319647,0.3519061583577713,0.30791788856304986,0.020527859237536656,0.01466275659824047,0.02346041055718475,42.3,-83.7,0.3,[0.02511649 0.60904243 0.79273985],[ 0.20752589 -0.66287846 -0.71939221],[-0.57202423  0.17286703 -0.80181374],[-0.02994249 -0.13829843  0.98993787],28.37147455974861,-6.312908898222546,-13.912129220188728,[ 0.13063171  0.02335618 -0.24935834 -0.95927591],[ 0.14114456  0.02652154 -0.32663587 -0.93417548]
1717778921.0409124,-19.213333333333335,-5.5600000000000005,-20.78666666666667,-1.4634146341463417,-0.1829268292682927,0.12195121951219513,-0.029541015625,-0.7509765625,-0.662353515625,0.3870967741935484,0.3519061583577713,0.30791788856304986,0.020527859237536656,0.01466275659824047,0.02346041055718475,42.3,-83.7,0.3,[0.03822806 0.5959165  0.80213599],[ 0.1927408  -0.66604193 -0.72058249],[-0.57202423  0.17286703 -0.80181374],[-0.02994249 -0.13829843  0.98993787],27.12529553777158,-7.810365879698796,-17.594020129847866,[ 0.1641078   0.02964643 -0.24133688 -0.95600535],[ 0.16225161  0.02131113 -0.22799639 -0.95981139]
1717778921.079012,-19.400000000000002,-5.840000000000001,-20.173333333333336,29.634146341463417,0.9146341463414634,1.0365853658536586,-0.022216796875,-0.82373046875,-0.68017578125,0.3841642228739003,0.3489736070381232,0.30498533724340177,0.020527859237536656,0.01466275659824047,0.02346041055718475,42.3,-83.7,0.3,[0.03843557 0.59915117 0.79971281],[ 0.20426212 -0.67854197 -0.70559038],[-0.57202423  0.17286703 -0.80181374],[-0.02994249 -0.13829843  0.98993787],27.091448664770144,-9.099151578163426,-19.030681938584316,[ 0.17853006  0.03745668 -0.2430189  -0.95271498],[ 0.17818213  0.06494521 -0.38788711 -0.90198494]
1717778921.1180072,-19.613333333333333,-5.826666666666667,-20.066666666666666,0.426829268292683,0.24390243902439027,1.0365853658536586,-0.01611328125,-0.66455078125,-0.644775390625,0.3841642228739003,0.3489736070381232,0.30498533724340177,0.020527859237536656,0.01466275659824047,0.02346041055718475,42.3,-83.7,0.3,[0.03843557 0.59915117 0.79971281],[ 0.20331443 -0.68438336 -0.70020187],[-0.57202423  0.17286703 -0.80181374],[-0.02994249 -0.13829843  0.98993787],26.83115341814978,-10.032960732149348,-20.324097548409025,[ 0.19093051  0.04294413 -0.24250466 -0.95020673],[ 0.20851593  0.04421738 -0.27186489 -0.93843242]
1717778921.1504958,-19.773333333333333,-5.8133333333333335,-19.84,-3.2926829268292686,0.0,0.06097560975609757,-0.0126953125,-0.783447265625,-0.564208984375,0.3841642228739003,0.3460410557184751,0.30498533724340177,0.020527859237536656,0.01466275659824047,0.026392961876832845,42.3,-83.7,0.3,[0.0128435  0.60063093 0.79942325],[ 0.20320812 -0.69118724 -0.6935176 ],[-0.57202423  0.17286703 -0.80181374],[-0.02994249 -0.13829843  0.98993787],25.56616554538835,-13.416862188392424,-23.178886840862102,[ 0.21989679  0.0674526  -0.23815213 -0.94359902],[ 0.22127953  0.05166164 -0.18734448 -0.95565082]
1717778921.1690414,-19.76,-5.826666666666667,-19.78666666666667,-1.4634146341463417,0.12195121951219513,0.426829268292683,-0.017822265625,-0.846435546875,-0.5498046875,0.3841642228739003,0.3460410557184751,0.30498533724340177,0.020527859237536656,0.01466275659824047,0.02346041055718475,42.3,-83.7,0.3,[0.0128435  0.60063093 0.79942325],[ 0.20398415 -0.69177235 -0.69270591],[-0.57202423  0.17286703 -0.80181374],[-0.02994249 -0.13829843  0.98993787],25.54823032231544,-13.475344755025668,-23.24824588425009,[ 0.22055537  0.06782977 -0.2381319  -0.94342337],[ 0.23040851  0.0601768  -0.20469499 -0.94941594]
1717778921.190091,-19.78666666666667,-5.613333333333333,-20.066666666666666,-1.9512195121951221,-0.12195121951219513,0.30487804878048785,-0.02099609375,-0.779296875,-0.583740234375,0.3841642228739003,0.3460410557184751,0.3020527859237537,0.020527859237536656,0.01466275659824047,0.026392961876832845,42.3,-83.7,0.3,[0.02538299 0.61550481 0.78772427],[ 0.19534918 -0.68859425 -0.6983385 ],[-0.57202423  0.17286703 -0.80181374],[-0.02994249 -0.13829843  0.98993787],27.849044434460954,-10.269640438057312,-19.111537607887588,[ 0.18172118  0.04587586 -0.25077309 -0.94972927],[ 0.19593853  0.03628172 -0.21091046 -0.95697884]
1717778921.2258487,-19.906666666666666,-5.613333333333333,-20.066666666666666,4.024390243902439,-0.06097560975609757,0.12195121951219513,-0.016845703125,-0.82568359375,-0.5439453125,0.3812316715542522,0.3460410557184751,0.30498533724340177,0.020527859237536656,0.01466275659824047,0.026392961876832845,42.3,-83.7,0.3,[0.02607244 0.58706429 0.80912035],[ 0.19478814 -0.69078076 -0.69633291],[-0.57202423  0.17286703 -0.80181374],[-0.02994249 -0.13829843  0.98993787],24.468758142293694,-13.699513061296841,-25.504246895039422,[ 0.23883119  0.06724052 -0.23093718 -0.94080093],[ 0.23158306  0.07499502 -0.29364942 -0.92439983]
1717778921.2683966,-20.58666666666667,-5.733333333333333,-18.293333333333333,34.390243902439025,-0.30487804878048785,-0.6707317073170732,-0.029541015625,-1.01708984375,-0.522705078125,0.3782991202346041,0.34017595307917886,0.2961876832844575,0.020527859237536656,0.01466275659824047,0.026392961876832845,42.3,-83.7,0.3,[0.02565344 0.62206278 0.78254699],[ 0.20381161 -0.73182588 -0.65030124],[-0.57202423  0.17286703 -0.80181374],[-0.02994249 -0.13829843  0.98993787],26.331349696776385,-16.091930804173597,-26.551898015530472,[ 0.25243214  0.08085633 -0.25079582 -0.93104335],[ 0.23482848  0.11674301 -0.39851402 -0.87887043]
1717778921.2898178,-20.58666666666667,-5.733333333333333,-18.293333333333333,-10.548780487804878,0.7317073170731708,-0.1829268292682927,-0.0166015625,-0.742919921875,-0.634033203125,0.3782991202346041,0.34017595307917886,0.2991202346041056,0.020527859237536656,0.01466275659824047,0.026392961876832845,42.3,-83.7,0.3,[0.0129841  0.60720626 0.79443815],[ 0.20381161 -0.73182588 -0.65030124],[-0.57202423  0.17286703 -0.80181374],[-0.02994249 -0.13829843  0.98993787],23.771280549970978,-18.519147793430626,-30.342843262356897,[ 0.28474519  0.09877118 -0.23739839 -0.9234752 ],[ 0.28893859  0.07743434 -0.13586672 -0.94448857]
1717778921.3109784,-20.58666666666667,-5.493333333333334,-18.853333333333335,8.414634146341465,-0.1829268292682927,1.5853658536585367,-0.02978515625,-0.9482421875,-0.479248046875,0.3782991202346041,0.34017595307917886,0.2991202346041056,0.020527859237536656,0.01466275659824047,0.02346041055718475,42.3,-83.7,0.3,[0.0129841  0.60720626 0.79443815],[ 0.19308332 -0.72359382 -0.66266947],[-0.57202423  0.17286703 -0.80181374],[-0.02994249 -0.13829843  0.98993787],23.967838827737307,-17.962496901631134,-29.73545909940538,[ 0.27924828  0.09497224 -0.23740846 -0.92554735],[ 0.28648209  0.11853429 -0.33016753 -0.89155316]
1717778921.3320007,-20.68,-5.6000000000000005,-18.8,-9.573170731707318,0.06097560975609757,0.1829268292682927,-0.004638671875,-0.836181640625,-0.557861328125,0.3782991202346041,0.34017595307917886,0.2991202346041056,0.020527859237536656,0.01466275659824047,0.02346041055718475,42.3,-83.7,0.3,[0.0129841  0.60720626 0.79443815],[ 0.19646554 -0.72551918 -0.65956289],[-0.57202423  0.17286703 -0.80181374],[-0.02994249 -0.13829843  0.98993787],23.951158937546516,-18.05176116367988,-29.794863251472613,[ 0.27983786  0.09562371 -0.237492   -0.92528073],[ 0.29198074  0.06209965 -0.13650325 -0.94459396]
1717778921.365135,-20.78666666666667,-5.533333333333334,-18.12,16.951219512195124,1.3414634146341464,0.48780487804878053,-0.04541015625,-0.732666015625,-0.5830078125,0.375366568914956,0.34017595307917886,0.2961876832844575,0.020527859237536656,0.01466275659824047,0.02346041055718475,42.3,-83.7,0.3,[0.03906783 0.60900721 0.79220195],[ 0.196738   -0.73907117 -0.64425768],[-0.57202423  0.17286703 -0.80181374],[-0.02994249 -0.13829843  0.98993787],24.955697226154648,-17.050648026225176,-29.824627103128318,[ 0.27943736  0.08488283 -0.24372708 -0.92482797],[ 0.27003296  0.13274115 -0.36170279 -0.88240188]
1717778921.3846462,-20.986666666666668,-5.506666666666667,-18.453333333333333,-5.0,0.7317073170731708,0.48780487804878053,-0.022216796875,-0.781982421875,-0.615478515625,0.375366568914956,0.34017595307917886,0.2991202346041056,0.020527859237536656,0.01466275659824047,0.026392961876832845,42.3,-83.7,0.3,[0.02636579 0.59366948 0.80427694],[ 0.19333077 -0.73681024 -0.64786872],[-0.57202423  0.17286703 -0.80181374],[-0.02994249 -0.13829843  0.98993787],22.40373049266031,-19.088274311762234,-33.42190373115148,[ 0.30901169  0.10069264 -0.23025504 -0.91725426],[ 0.32223075  0.08918887 -0.17035759 -0.92692555]
1717778921.4057941,-20.986666666666668,-5.44,-18.400000000000002,5.3048780487804885,-0.7317073170731708,0.3658536585365854,-0.015625,-0.926025390625,-0.501953125,0.375366568914956,0.34017595307917886,0.2961876832844575,0.020527859237536656,0.01466275659824047,0.026392961876832845,42.3,-83.7,0.3,[0.03906783 0.60900721 0.79220195],[ 0.19130825 -0.73803722 -0.64707203],[-0.57202423  0.17286703 -0.80181374],[-0.02994249 -0.13829843  0.98993787],24.861411879846703,-17.157757630311284,-30.101955893547352,[ 0.2817622   0.08540391 -0.24337683 -0.92416663],[ 0.28011638  0.10054108 -0.31491673 -0.90125122]
1717778921.428656,-20.720000000000002,-5.2,-18.400000000000002,-7.682926829268293,-0.1829268292682927,-0.1829268292682927,-0.009765625,-0.82666015625,-0.5361328125,0.375366568914956,0.34017595307917886,0.2961876832844575,0.020527859237536656,0.01466275659824047,0.02346041055718475,42.3,-83.7,0.3,[0.03906783 0.60900721 0.79220195],[ 0.18443446 -0.73490039 -0.65261424],[-0.57202423  0.17286703 -0.80181374],[-0.02994249 -0.13829843  0.98993787],24.847770577945834,-17.06736312712593,-30.121783106747415,[ 0.28177966  0.08465317 -0.24310802 -0.92430111],[ 0.28566015  0.05387836 -0.15190953 -0.94467926]
1717778921.4548566,-21.186666666666667,-5.32,-18.746666666666666,29.39024390243903,-0.24390243902439027,0.30487804878048785,-0.01513671875,-0.7265625,-0.48388671875,0.3724340175953079,0.33724340175953077,0.2903225806451613,0.020527859237536656,0.01466275659824047,0.02346041055718475,42.3,-83.7,0.3,[0.05171172 0.62697132 0.77732416],[ 0.18481418 -0.73601438 -0.65124998],[-0.57202423  0.17286703 -0.80181374],[-0.02994249 -0.13829843  0.98993787],27.60491992386284,-14.433309864063986,-26.03793981465863,[ 0.24623544  0.06553944 -0.25808342 -0.93191504],[ 0.234059    0.10585431 -0.39281162 -0.88301205]
1717778921.481822,-21.253333333333334,-5.266666666666667,-18.506666666666668,5.060975609756098,0.12195121951219513,-0.6097560975609757,-0.021728515625,-0.963623046875,-0.404296875,0.3724340175953079,0.33724340175953077,0.2903225806451613,0.020527859237536656,0.01466275659824047,0.02346041055718475,42.3,-83.7,0.3,[0.05171172 0.62697132 0.77732416],[ 0.18370295 -0.74132278 -0.64551821],[-0.57202423  0.17286703 -0.80181374],[-0.02994249 -0.13829843  0.98993787],27.277545864284612,-15.269350542816124,-27.180029869912776,[ 0.25677303  0.07057974 -0.25750341 -0.9288585 ],[ 0.23928053  0.1007782  -0.34858736 -0.90059727]
1717778921.508869,-21.973333333333336,-5.08,-18.52,41.82926829268293,0.853658536585366,-0.24390243902439027,-0.024169921875,-0.887939453125,-0.719970703125,0.36950146627565983,0.3313782991202346,0.2844574780058651,0.020527859237536656,0.011730205278592375,0.02346041055718475,42.3,-83.7,0.3,[0.03859475 0.64619807 0.76219322],[ 0.17407633 -0.75296008 -0.63462473],[-0.57202423  0.17286703 -0.80181374],[-0.02994249 -0.13829843  0.98993787],27.85369648522767,-17.108619449358677,-27.771571940325348,[ 0.26509578  0.0830368  -0.26569787 -0.92316508],[ 0.24843807  0.12601492 -0.41446604 -0.86638136]
1717778921.535859,-22.080000000000002,-5.013333333333334,-17.493333333333336,-13.536585365853659,-0.3658536585365854,2.1341463414634148,0.011474609375,-0.841796875,-0.44921875,0.36950146627565983,0.3313782991202346,0.2844574780058651,0.017595307917888565,0.011730205278592375,0.02346041055718475,42.3,-83.7,0.3,[0.03859475 0.64619807 0.76219322],[ 0.17521464 -0.77169    -0.61138725],[-0.57202423  0.17286703 -0.80181374],[-0.02994249 -0.13829843  0.98993787],26.54659305323441,-19.882308748178087,-31.53207872438532,[ 0.29862637  0.10025671 -0.263295   -0.91183695],[ 0.31974693  0.05478061 -0.156146   -0.93294127]
1717778921.5639646,-22.32,-5.066666666666667,-17.226666666666667,12.378048780487806,-0.30487804878048785,3.1707317073170733,-0.10498046875,-0.928466796875,-0.589599609375,0.36950146627565983,0.3313782991202346,0.2844574780058651,0.017595307917888565,0.011730205278592375,0.02346041055718475,42.3,-83.7,0.3,[0.03859475 0.64619807 0.76219322],[ 0.17686973 -0.77915772 -0.60135709],[-0.57202423  0.17286703 -0.80181374],[-0.02994249 -0.13829843  0.98993787],26.06314383281676,-20.831044315797396,-32.82917233852819,[ 0.30987504  0.10628124 -0.26250519 -0.90761929],[ 0.32684046  0.13266302 -0.37024996 -0.85935488]
1717778921.5899355,-22.360000000000003,-5.12,-17.013333333333335,-3.231707317073171,1.0365853658536586,-1.0975609756097562,-0.016845703125,-0.68701171875,-0.63720703125,0.36950146627565983,0.3313782991202346,0.28152492668621704,0.020527859237536656,0.011730205278592375,0.02346041055718475,42.3,-83.7,0.3,[0.05077872 0.6596349  0.74986887],[ 0.17927567 -0.78293049 -0.59571813],[-0.57202423  0.17286703 -0.80181374],[-0.02994249 -0.13829843  0.98993787],28.40331489775895,-18.97543258310864,-29.906130063641157,[ 0.28579097  0.09194989 -0.27501788 -0.91336406],[ 0.28703014  0.10094162 -0.22897511 -0.92465933]
1717778921.6209333,-22.533333333333335,-5.08,-17.30666666666667,5.487804878048781,-2.3170731707317076,2.073170731707317,0.005126953125,-1.01123046875,-0.415771484375,0.36950146627565983,0.3313782991202346,0.28152492668621704,0.020527859237536656,0.011730205278592375,0.02346041055718475,42.3,-83.7,0.3,[0.05077872 0.6596349  0.74986887],[ 0.1760033  -0.78069707 -0.59961231],[-0.57202423  0.17286703 -0.80181374],[-0.02994249 -0.13829843  0.98993787],28.455913640073458,-18.800357602659872,-29.746205401638626,[ 0.28426271  0.09077526 -0.27499326 -0.91396568],[ 0.29476676  0.0754391  -0.35724986 -0.88305948]
1717778921.6441252,-22.62666666666667,-5.066666666666667,-17.133333333333333,1.4634146341463417,1.0975609756097562,-0.30487804878048785,-0.06298828125,-0.852294921875,-0.524658203125,0.36950146627565983,0.3313782991202346,0.28152492668621704,0.020527859237536656,0.011730205278592375,0.02346041055718475,42.3,-83.7,0.3,[0.05077872 0.6596349  0.74986887],[ 0.17574081 -0.78482147 -0.59428143],[-0.57202423  0.17286703 -0.80181374],[-0.02994249 -0.13829843  0.98993787],28.16044281760277,-19.433914005671152,-30.579984848142963,[ 0.29171997  0.09468176 -0.2744734  -0.91137214],[ 0.29265398  0.12018872 -0.30416469 -0.89855003]
1717778921.6709602,-22.64,-5.2,-17.0,-6.707317073170732,0.9146341463414634,0.12195121951219513,0.008056640625,-0.796630859375,-0.527587890625,0.36950146627565983,0.3313782991202346,0.2844574780058651,0.020527859237536656,0.011730205278592375,0.02346041055718475,42.3,-83.7,0.3,[0.03859475 0.64619807 0.76219322],[ 0.18064601 -0.78650492 -0.59057348],[-0.57202423  0.17286703 -0.80181374],[-0.02994249 -0.13829843  0.98993787],25.676043900078305,-21.606159817577097,-33.84485635554927,[ 0.31861437  0.11130588 -0.2620009  -0.9041302 ],[ 0.33040034  0.09397916 -0.17203393 -0.92325937]
1717778921.6979892,-22.573333333333334,-5.16,-16.773333333333333,-0.06097560975609757,-0.7317073170731708,1.0365853658536586,0.00830078125,-0.920654296875,-0.45947265625,0.36950146627565983,0.3313782991202346,0.2844574780058651,0.020527859237536656,0.011730205278592375,0.02346041055718475,42.3,-83.7,0.3,[0.03859475 0.64619807 0.76219322],[ 0.1804675  -0.78948701 -0.58663595],[-0.57202423  0.17286703 -0.80181374],[-0.02994249 -0.13829843  0.98993787],25.452894267032793,-21.997425873672636,-34.4121945052063,[ 0.32339117  0.11380249 -0.26162225 -0.90223109],[ 0.34024999  0.09445454 -0.25407907 -0.90041774]
1717778921.7250578,-22.560000000000002,-5.426666666666667,-16.64,1.0975609756097562,0.12195121951219513,0.3658536585365854,-0.042236328125,-0.8037109375,-0.554931640625,0.36950146627565983,0.3313782991202346,0.28152492668621704,0.020527859237536656,0.011730205278592375,0.02346041055718475,42.3,-83.7,0.3,[0.05077872 0.6596349  0.74986887],[ 0.19005381 -0.79010085 -0.58276942],[-0.57202423  0.17286703 -0.80181374],[-0.02994249 -0.13829843  0.98993787],28.245795966217973,-19.51655435662082,-30.38452996402512,[ 0.29037221  0.09560663 -0.27514255 -0.91150421],[ 0.30240042  0.10281135 -0.29062915 -0.90195261]
1717778921.7520764,-22.653333333333336,-5.36,-16.586666666666666,-1.2804878048780488,0.24390243902439027,0.1829268292682927,0.003173828125,-0.8447265625,-0.494873046875,0.36950146627565983,0.3313782991202346,0.28152492668621704,0.020527859237536656,0.011730205278592375,0.02346041055718475,42.3,-83.7,0.3,[0.05077872 0.6596349  0.74986887],[ 0.1875203  -0.79252981 -0.58028669],[-0.57202423  0.17286703 -0.80181374],[-0.02994249 -0.13829843  0.98993787],28.00591415410351,-19.978476883101703,-31.04378651525613,[ 0.2961603   0.09839829 -0.27465286 -0.90949033],[ 0.30380687  0.09481845 -0.25397523 -0.91334957]
1717778921.779063,-22.74666666666667,-5.213333333333334,-16.42666666666667,10.365853658536587,-0.6707317073170732,-0.1829268292682927,-0.00146484375,-0.995361328125,-0.368896484375,0.36656891495601174,0.3284457478005865,0.28152492668621704,0.017595307917888565,0.011730205278592375,0.02346041055718475,42.3,-83.7,0.3,[0.03879561 0.64956097 0.75931906],[ 0.18267955 -0.79706217 -0.5756041 ],[-0.57202423  0.17286703 -0.80181374],[-0.02994249 -0.13829843  0.98993787],25.42003774219782,-22.637771212230405,-34.998819590953524,[ 0.32880659  0.11772785 -0.26332439 -0.89927006],[ 0.30774385  0.14533665 -0.37509354 -0.86225044]
1717778921.8062336,-22.933333333333334,-5.4,-15.986666666666668,9.085365853658537,0.6707317073170732,0.7317073170731708,-0.01611328125,-0.640380859375,-0.601806640625,0.36656891495601174,0.3284457478005865,0.2785923753665689,0.020527859237536656,0.011730205278592375,0.02346041055718475,42.3,-83.7,0.3,[0.0510352  0.66296673 0.74690731],[ 0.18965809 -0.8054615  -0.56148159],[-0.57202423  0.17286703 -0.80181374],[-0.02994249 -0.13829843  0.98993787],27.615834275597713,-21.422635874990988,-32.66094529867897,[ 0.31086318  0.10726928 -0.27579761 -0.90321263],[ 0.3066528   0.15196712 -0.3877903  -0.85585556]
1717778921.8331838,-23.226666666666667,-5.173333333333334,-15.920000000000002,-4.878048780487806,-0.3658536585365854,0.48780487804878053,0.009521484375,-0.950439453125,-0.394287109375,0.36363636363636365,0.3255131964809384,0.2785923753665689,0.020527859237536656,0.011730205278592375,0.02346041055718475,42.3,-83.7,0.3,[0.03899778 0.65294606 0.75639977],[ 0.18069504 -0.81126482 -0.55605637],[-0.57202423  0.17286703 -0.80181374],[-0.02994249 -0.13829843  0.98993787],24.722421453217994,-24.278601525507266,-37.14532813429048,[ 0.3468393   0.12805683 -0.2638135  -0.89090201],[ 0.35445212  0.09708874 -0.21137224 -0.90568165]
1717778921.8601913,-23.360000000000003,-5.186666666666667,-15.613333333333335,25.121951219512198,0.0,0.7317073170731708,-0.048095703125,-0.748046875,-0.5625,0.36363636363636365,0.3255131964809384,0.2756598240469208,0.020527859237536656,0.011730205278592375,0.02346041055718475,42.3,-83.7,0.3,[0.05129325 0.6663189  0.74390062],[ 0.1815288  -0.81757959 -0.54645302],[-0.57202423  0.17286703 -0.80181374],[-0.02994249 -0.13829843  0.98993787],26.89454227064322,-23.197871966903012,-34.97705426083288,[ 0.33090274  0.11805106 -0.27603679 -0.89463457],[ 0.31405216  0.16755478 -0.40539363 -0.84199326]
1717778921.88725,-23.533333333333335,-5.026666666666667,-15.786666666666667,-3.536585365853659,-0.12195121951219513,0.426829268292683,0.012939453125,-0.94970703125,-0.393310546875,0.36363636363636365,0.3255131964809384,0.2756598240469208,0.020527859237536656,0.011730205278592375,0.02346041055718475,42.3,-83.7,0.3,[0.05129325 0.6663189  0.74390062],[ 0.17465668 -0.81768977 -0.54852391],[-0.57202423  0.17286703 -0.80181374],[-0.02994249 -0.13829843  0.98993787],26.612976511392926,-23.555577734830877,-35.6375434769399,[ 0.33624808  0.12016005 -0.27529002 -0.89258848],[ 0.34612929  0.10130838 -0.24032478 -0.90120759]
1717778921.914259,-23.546666666666667,-4.906666666666667,-15.706666666666667,6.219512195121951,-0.3658536585365854,1.0975609756097562,-0.0126953125,-0.945068359375,-0.448974609375,0.36363636363636365,0.3255131964809384,0.2756598240469208,0.020527859237536656,0.011730205278592375,0.02346041055718475,42.3,-83.7,0.3,[0.05129325 0.6663189  0.74390062],[ 0.17080541 -0.81968029 -0.54676296],[-0.57202423  0.17286703 -0.80181374],[-0.02994249 -0.13829843  0.98993787],26.302834960027127,-24.00884487419977,-36.36432356529738,[ 0.3421697   0.12297536 -0.27463553 -0.89015296],[ 0.34403101  0.14305772 -0.35675888 -0.85667979]
1717778921.941306,-23.506666666666668,-4.8533333333333335,-15.666666666666668,-2.987804878048781,0.30487804878048785,-0.1829268292682927,-0.02734375,-0.759521484375,-0.55224609375,0.36363636363636365,0.3255131964809384,0.2756598240469208,0.020527859237536656,0.011730205278592375,0.02346041055718475,42.3,-83.7,0.3,[0.05129325 0.6663189  0.74390062],[ 0.16932449 -0.82010734 -0.54658317],[-0.57202423  0.17286703 -0.80181374],[-0.02994249 -0.13829843  0.98993787],26.206525758780934,-24.140624665166232,-36.58665400772047,[ 0.34396187  0.1237884  -0.27441814 -0.8894163 ],[ 0.34898732  0.1132528  -0.23618239 -0.89977749]
1717778921.9683821,-23.866666666666667,-4.346666666666667,-15.32,7.378048780487806,0.3658536585365854,0.24390243902439027,-0.005859375,-0.990966796875,-0.422119140625,0.36070381231671556,0.3225806451612903,0.2756598240469208,0.020527859237536656,0.011730205278592375,0.02346041055718475,42.3,-83.7,0.3,[0.03920128 0.65635326 0.75343457],[ 0.15149561 -0.83183172 -0.53395231],[-0.57202423  0.17286703 -0.80181374],[-0.02994249 -0.13829843  0.98993787],22.043308308927305,-27.956475519835006,-43.35211278502523,[ 0.39472439  0.1518091  -0.25997419 -0.86807838],[ 0.37868219  0.18663498 -0.34779427 -0.83714176]
1717778921.9954562,-23.8,-4.453333333333334,-15.346666666666668,3.780487804878049,-0.06097560975609757,0.7926829268292683,-0.0205078125,-0.765625,-0.53466796875,0.36070381231671556,0.3225806451612903,0.2756598240469208,0.020527859237536656,0.011730205278592375,0.02346041055718475,42.3,-83.7,0.3,[0.03920128 0.65635326 0.75343457],[ 0.15534746 -0.83022519 -0.53534409],[-0.57202423  0.17286703 -0.80181374],[-0.02994249 -0.13829843  0.98993787],22.399161640984765,-27.580878724338188,-42.62070271295041,[ 0.38935498  0.14929263 -0.26071016 -0.87071501],[ 0.38846567  0.17409031 -0.33137731 -0.84200716]
1717778922.0224884,-23.92,-4.093333333333334,-15.173333333333334,7.317073170731708,0.30487804878048785,0.3658536585365854,-0.019287109375,-0.91455078125,-0.482421875,0.36070381231671556,0.3225806451612903,0.2727272727272727,0.020527859237536656,0.011730205278592375,0.02346041055718475,42.3,-83.7,0.3,[0.05155286 0.66969131 0.74084806],[ 0.14301939 -0.83575498 -0.53015004],[-0.57202423  0.17286703 -0.80181374],[-0.02994249 -0.13829843  0.98993787],24.08003240447295,-27.337322128433534,-41.65327002641301,[ 0.383944    0.14394429 -0.27161226 -0.87068584],[ 0.37255558  0.19029944 -0.36640567 -0.8311049 ]
1717778922.063088,-23.96,-4.626666666666667,-15.266666666666667,-0.7317073170731708,0.06097560975609757,0.30487804878048785,-0.017333984375,-0.883544921875,-0.475341796875,0.36070381231671556,0.3225806451612903,0.2727272727272727,0.020527859237536656,0.011730205278592375,0.02346041055718475,42.3,-83.7,0.3,[0.05155286 0.66969131 0.74084806],[ 0.16073356 -0.83238675 -0.53037442],[-0.57202423  0.17286703 -0.80181374],[-0.02994249 -0.13829843  0.98993787],25.30161658588403,-25.94120045031807,-39.06987660142811,[ 0.36426644  0.13503185 -0.27436593 -0.87965885],[ 0.37318844  0.13665128 -0.27671294 -0.874921  ]
1717778922.0833492,-23.96,-4.653333333333333,-15.253333333333334,-1.2804878048780488,0.0,0.30487804878048785,-0.01513671875,-0.855712890625,-0.493408203125,0.36070381231671556,0.3225806451612903,0.2727272727272727,0.020527859237536656,0.011730205278592375,0.02346041055718475,42.3,-83.7,0.3,[0.05155286 0.66969131 0.74084806],[ 0.16167553 -0.83246686 -0.52996221],[-0.57202423  0.17286703 -0.80181374],[-0.02994249 -0.13829843  0.98993787],25.34186928502084,-25.8996600712512,-38.983597736834184,[ 0.36360492  0.13477979 -0.27447507 -0.8799371 ],[ 0.37320397  0.12440491 -0.25437055 -0.88348053]
1717778922.104054,-24.080000000000002,-4.36,-15.520000000000001,9.329268292682928,0.0,0.30487804878048785,-0.026123046875,-0.791259765625,-0.491943359375,0.35777126099706746,0.3196480938416422,0.2727272727272727,0.017595307917888565,0.011730205278592375,0.02346041055718475,42.3,-83.7,0.3,[0.0394061  0.65978251 0.75042268],[ 0.1504588  -0.83097427 -0.5355781 ],[-0.57202423  0.17286703 -0.80181374],[-0.02994249 -0.13829843  0.98993787],22.476936074210123,-27.837577784254226,-42.81476177761204,[ 0.3911325   0.15060984 -0.26223436 -0.86923253],[ 0.37461129  0.18984642 -0.36400834 -0.83133787]
1717778922.1305842,-24.46666666666667,-4.133333333333334,-15.053333333333335,9.51219512195122,0.1829268292682927,0.7926829268292683,-0.011962890625,-0.94140625,-0.458984375,0.35777126099706746,0.3196480938416422,0.2697947214076246,0.017595307917888565,0.011730205278592375,0.02346041055718475,42.3,-83.7,0.3,[0.05181402 0.67308384 0.73774891],[ 0.14241828 -0.84302431 -0.51867817],[-0.57202423  0.17286703 -0.80181374],[-0.02994249 -0.13829843  0.98993787],23.896101799111683,-28.06611339882844,-42.41918382018949,[ 0.39017919  0.14849709 -0.27306628 -0.86668542],[ 0.37687738  0.19670619 -0.38457769 -0.81937178]
1717778922.1586647,-24.6,-4.093333333333334,-15.133333333333335,1.707317073170732,0.426829268292683,0.48780487804878053,-0.013671875,-0.791748046875,-0.51904296875,0.35777126099706746,0.3196480938416422,0.2697947214076246,0.017595307917888565,0.011730205278592375,0.02346041055718475,42.3,-83.7,0.3,[0.05181402 0.67308384 0.73774891],[ 0.14032317 -0.84331026 -0.51878436],[-0.57202423  0.17286703 -0.80181374],[-0.02994249 -0.13829843  0.98993787],23.746809962312085,-28.22010420587521,-42.72050414831486,[ 0.39239725  0.14950219 -0.2727298  -0.86561652],[ 0.39606139  0.17195825 -0.31483781 -0.84524724]
1717778922.1845615,-24.693333333333335,-4.213333333333334,-14.853333333333333,-0.1829268292682927,0.24390243902439027,0.24390243902439027,-0.015869140625,-0.952392578125,-0.400390625,0.35777126099706746,0.31671554252199413,0.2697947214076246,0.017595307917888565,0.011730205278592375,0.02346041055718475,42.3,-83.7,0.3,[0.02597696 0.67490124 0.73745069],[ 0.144675   -0.84790536 -0.51002515],[-0.57202423  0.17286703 -0.80181374],[-0.02994249 -0.13829843  0.98993787],21.056115852258984,-30.903165022306254,-45.778647194305094,[ 0.41342985  0.17281375 -0.2641271  -0.85407731],[ 0.41685812  0.17375859 -0.26749878 -0.85116489]
1717778922.2115533,-24.826666666666668,-4.053333333333334,-14.680000000000001,13.658536585365855,0.0,-0.24390243902439027,-0.019287109375,-0.752197265625,-0.51611328125,0.3548387096774194,0.31671554252199413,0.2697947214076246,0.017595307917888565,0.011730205278592375,0.02346041055718475,42.3,-83.7,0.3,[0.03961222 0.66323371 0.74736331],[ 0.13916781 -0.85240284 -0.50402552],[-0.57202423  0.17286703 -0.80181374],[-0.02994249 -0.13829843  0.98993787],20.47575888359251,-30.46883160760207,-47.142877851198236,[ 0.42250278  0.16843196 -0.26058698 -0.85159644],[ 0.39282502  0.22500359 -0.37472311 -0.80910103]
1717778922.2386043,-25.28,-3.9466666666666668,-14.48,10.060975609756099,0.24390243902439027,0.7317073170731708,-0.01611328125,-0.91162109375,-0.43017578125,0.3548387096774194,0.31378299120234604,0.2668621700879765,0.017595307917888565,0.011730205278592375,0.02346041055718475,42.3,-83.7,0.3,[0.02610897 0.67833084 0.73429258],[ 0.13424308 -0.85988137 -0.49252699],[-0.57202423  0.17286703 -0.80181374],[-0.02994249 -0.13829843  0.98993787],19.655065474041194,-32.579447856438215,-48.65191678763584,[ 0.4332138   0.18435432 -0.26313345 -0.8420808 ],[ 0.41309113  0.2372919  -0.37674137 -0.79442697]
1717778922.2659566,-25.360000000000003,-3.9600000000000004,-14.280000000000001,-0.853658536585366,0.0,0.30487804878048785,-0.02392578125,-0.88525390625,-0.458984375,0.3519061583577713,0.31378299120234604,0.2697947214076246,0.020527859237536656,0.011730205278592375,0.02346041055718475,42.3,-83.7,0.3,[0.02691941 0.65276093 0.75708554],[ 0.13482109 -0.86339971 -0.48617302],[-0.57202423  0.17286703 -0.80181374],[-0.02994249 -0.13829843  0.98993787],16.75016336120151,-32.55839475218198,-52.14581725159489,[ 0.45406811  0.1876567  -0.24747517 -0.83508272],[ 0.45619411  0.18582473 -0.25450869 -0.83221477]
1717778922.2986572,-25.30666666666667,-4.093333333333334,-13.946666666666667,-1.402439024390244,0.3658536585365854,0.3658536585365854,-0.020263671875,-0.8740234375,-0.45947265625,0.3548387096774194,0.31378299120234604,0.2668621700879765,0.020527859237536656,0.011730205278592375,0.02346041055718475,42.3,-83.7,0.3,[0.02610897 0.67833084 0.73429258],[ 0.14026062 -0.86714873 -0.47789124],[-0.57202423  0.17286703 -0.80181374],[-0.02994249 -0.13829843  0.98993787],19.52706562150062,-32.87457568065416,-48.90788777549056,[ 0.43497365  0.18651981 -0.26350104 -0.84058045],[ 0.45041015  0.17837346 -0.23842052 -0.84170616]
1717778922.3220737,-25.32,-3.986666666666667,-14.000000000000002,-1.7682926829268295,-0.24390243902439027,0.48780487804878053,-0.013427734375,-0.89404296875,-0.468017578125,0.3548387096774194,0.31378299120234604,0.2668621700879765,0.017595307917888565,0.01466275659824047,0.02346041055718475,42.3,-83.7,0.3,[0.02610897 0.67833084 0.73429258],[ 0.13650119 -0.86694237 -0.47935202],[-0.57202423  0.17286703 -0.80181374],[-0.02994249 -0.13829843  0.98993787],19.248511442560382,-33.06022476050485,-49.40091497008656,[ 0.43818082  0.18787358 -0.26283178 -0.83882092],[ 0.45249513  0.16572376 -0.23534427 -0.84403606]
1717778922.3575976,-25.360000000000003,-4.013333333333334,-13.906666666666668,-0.30487804878048785,0.12195121951219513,0.3658536585365854,-0.017578125,-0.8212890625,-0.435302734375,0.3519061583577713,0.31378299120234604,0.2668621700879765,0.017595307917888565,0.011730205278592375,0.02346041055718475,42.3,-83.7,0.3,[0.03981966 0.66670678 0.74425564],[ 0.13744358 -0.86849732 -0.47625799],[-0.57202423  0.17286703 -0.80181374],[-0.02994249 -0.13829843  0.98993787],19.531178135612777,-31.928232489923296,-49.25625200728207,[ 0.4372572   0.17843476 -0.2611953  -0.84186946],[ 0.44698537  0.17431669 -0.25268949 -0.84021771]
1717778922.3784075,-25.533333333333335,-4.08,-13.693333333333333,12.317073170731708,0.5487804878048781,0.6707317073170732,-0.0234375,-0.76806640625,-0.5224609375,0.3489736070381232,0.31378299120234604,0.2668621700879765,0.017595307917888565,0.011730205278592375,0.02346041055718475,42.3,-83.7,0.3,[0.05397367 0.65439592 0.75422332],[ 0.13944299 -0.8726579  -0.46799983],[-0.57202423  0.17286703 -0.80181374],[-0.02994249 -0.13829843  0.98993787],19.64615074091102,-30.95417381833968,-49.42062349020869,[ 0.4383233   0.17013157 -0.25928153 -0.84362374],[ 0.41955153  0.23091888 -0.36568434 -0.79807766]
1717778922.4257917,-26.680000000000003,-3.2933333333333334,-12.706666666666667,-0.853658536585366,0.1829268292682927,-0.24390243902439027,-0.02294921875,-0.860595703125,-0.472412109375,0.3460410557184751,0.30791788856304986,0.26099706744868034,0.017595307917888565,0.011730205278592375,0.02346041055718475,42.3,-83.7,0.3,[0.04023841 0.67371803 0.73789219],[ 0.11075878 -0.89728064 -0.42734055],[-0.57202423  0.17286703 -0.80181374],[-0.02994249 -0.13829843  0.98993787],16.154527721382625,-35.439592387717084,-55.80603031990005,[ 0.47914509  0.20367401 -0.25930306 -0.81344871],[ 0.47144883  0.20512897 -0.2590644  -0.81764524]
1717778922.4568064,-26.680000000000003,-3.64,-11.986666666666668,1.0975609756097562,0.0,0.1829268292682927,-0.0087890625,-0.8525390625,-0.408935546875,0.3460410557184751,0.30791788856304986,0.26099706744868034,0.017595307917888565,0.011730205278592375,0.02346041055718475,42.3,-83.7,0.3,[0.04023841 0.67371803 0.73789219],[ 0.12349615 -0.90518609 -0.40667781],[-0.57202423  0.17286703 -0.80181374],[-0.02994249 -0.13829843  0.98993787],16.618535153018666,-35.41889114319772,-55.05233188747131,[ 0.47461531  0.20330028 -0.2611906  -0.81559106],[ 0.47260993  0.21241105 -0.27851419 -0.80867252]
1717778922.478271,-26.720000000000002,-3.466666666666667,-11.986666666666668,-3.658536585365854,-0.24390243902439027,0.1829268292682927,-0.01806640625,-0.83837890625,-0.466064453125,0.3460410557184751,0.30791788856304986,0.26099706744868034,0.017595307917888565,0.008797653958944282,0.02346041055718475,42.3,-83.7,0.3,[0.04023841 0.67371803 0.73789219],[ 0.11755423 -0.9060718  -0.40646634],[-0.57202423  0.17286703 -0.80181374],[-0.02994249 -0.13829843  0.98993787],16.100986604147273,-35.72942683577815,-55.93432151634269,[ 0.47989942  0.20576471 -0.26017376 -0.81219889],[ 0.49234808  0.17157201 -0.21296141 -0.82631946]
