Time,MagX,MagY,MagZ,GyroX,GyroY,GyroZ,Tri11,Tri12,Tri13,Tri21,Tri22,Tri23,Lat,Lon,Alt,SunVect,MagVect,MagRef,SunRef,Roll,Pitch,Yaw,static_q,dynamic_q
17:53:22.93,-18.826666666666668,-32.88,-31.853333333333335,-63.278536587560986,-3.1735365851219512,-13.0127642297561,1.3841642228739004,1.4545454545454546,1.0909090909090908,0.12316715542521994,0.11436950146627566,0.11436950146627566,42.75,-84.99,0.3,"[[ 0.48407346]
 [-0.53860042]
 [ 0.68962488]]",[-0.31656859 -0.63486752 -0.70478902],[-0.17570567  0.66702152 -0.72402335],[-0.85283551 -0.17257377  0.49283859],-4.917097319471931,-13.577158973730624,-58.162477422228704,[ 0.47776594  0.12391257 -0.02017521 -0.86947015],[ 0.46302658  0.06206104  0.06880017 -0.88148815]
17:53:22.96,-18.44,-31.38666666666667,-33.413333333333334,-79.13219512414635,10.05817073195122,-30.939593498048783,1.4486803519061584,1.530791788856305,1.155425219941349,0.12609970674486803,0.11730205278592376,0.11436950146627566,42.75,-84.99,0.3,"[[ 0.48948894]
 [-0.51513097]
 [ 0.70359126]]",[-0.30969557 -0.60521379 -0.73335184],[-0.17570567  0.66702152 -0.72402335],[-0.85283551 -0.17257377  0.49283859],-5.604411033322488,-14.155147879023046,-56.76616845040592,[ 0.46587868  0.13133451 -0.0158175  -0.87490463],[ 0.43618375  0.0841225   0.09679059 -0.89067319]
17:53:22.99,-18.44,-31.38666666666667,-33.413333333333334,-88.76634146560977,-3.051585365609757,-65.20788618097562,1.5161290322580645,1.6070381231671553,1.2258064516129032,0.12609970674486803,0.11730205278592376,0.11730205278592376,42.75,-84.99,0.3,"[[ 0.48993375]
 [-0.49673569]
 [ 0.71639275]]",[-0.30969557 -0.60521379 -0.73335184],[-0.17570567  0.66702152 -0.72402335],[-0.85283551 -0.17257377  0.49283859],-5.287170836986508,-15.116642911749146,-56.309673370925864,[ 0.46190946  0.13742234 -0.02168755 -0.87594771],[ 0.40351865  0.07724892  0.08704156 -0.90754012]
17:53:23.02,-16.746666666666666,-29.813333333333336,-35.66666666666667,-94.01024390463415,-18.112560975365856,-69.96398374195122,1.5161290322580645,1.6070381231671553,1.2258064516129032,0.12609970674486803,0.11730205278592376,0.11730205278592376,42.75,-84.99,0.3,"[[ 0.48993375]
 [-0.49673569]
 [ 0.71639275]]",[-0.27726194 -0.57213489 -0.77187271],[-0.17570567  0.66702152 -0.72402335],[-0.85283551 -0.17257377  0.49283859],-7.6879832810114905,-14.483621761122505,-54.74457932621078,[ 0.44757196  0.14226883  0.00123218 -0.88285752],[ 0.3848848   0.08511272  0.10848138 -0.91260687]
17:53:23.05,-16.746666666666666,-29.813333333333336,-35.66666666666667,-94.01024390463415,-18.112560975365856,-69.96398374195122,1.5865102639296187,1.6803519061583578,1.2873900293255132,0.12903225806451613,0.11730205278592376,0.11730205278592376,42.75,-84.99,0.3,"[[ 0.48830919]
 [-0.48756518]
 [ 0.723764  ]]",[-0.27726194 -0.57213489 -0.77187271],[-0.17570567  0.66702152 -0.72402335],[-0.85283551 -0.17257377  0.49283859],-7.5527166094391,-15.039004341134628,-54.604256587427685,[ 0.44609189  0.14598302 -0.0018727  -0.88299914],[ 0.38420898  0.07404079  0.10325807 -0.91446115]
17:53:23.07,-16.213333333333335,-27.933333333333334,-37.45333333333333,-106.69317073390245,-30.612560975365856,-51.79325203463415,1.651026392961877,1.7624633431085044,1.3548387096774193,0.13196480938416422,0.12023460410557185,0.11730205278592376,42.75,-84.99,0.3,"[[ 0.49922401]
 [-0.46116339]
 [ 0.73355553]]",[-0.26725538 -0.5339509  -0.80216644],[-0.17570567  0.66702152 -0.72402335],[-0.85283551 -0.17257377  0.49283859],-8.366353390164642,-15.244400396140897,-52.41949193261206,[ 0.42790916  0.15061803  0.00644139 -0.89116018],[ 0.38765188  0.06338128  0.1135248  -0.91259024]
17:53:23.10,-15.853333333333333,-25.680000000000003,-39.10666666666667,-100.22975609975612,-34.27109756073171,-13.50056910780488,1.6979472140762464,1.8328445747800586,1.4134897360703813,0.13196480938416422,0.12023460410557185,0.12023460410557185,42.75,-84.99,0.3,"[[ 0.51810899]
 [-0.43242161]
 [ 0.737953  ]]",[-0.26139727 -0.49013642 -0.83152736],[-0.17570567  0.66702152 -0.72402335],[-0.85283551 -0.17257377  0.49283859],-9.052470622723135,-14.988194444815043,-49.6051906680188,[ 0.40526983  0.15084608  0.01648301 -0.90151547],[ 0.40435788  0.05766935  0.12073308 -0.904761  ]
17:53:23.13,-16.573333333333334,-22.666666666666668,-40.52,-100.22975609975612,-34.27109756073171,-13.50056910780488,1.6979472140762464,1.8328445747800586,1.4134897360703813,0.13196480938416422,0.12023460410557185,0.12023460410557185,42.75,-84.99,0.3,"[[ 0.51810899]
 [-0.43242161]
 [ 0.737953  ]]",[-0.27666512 -0.4328079  -0.85798236],[-0.17570567  0.66702152 -0.72402335],[-0.85283551 -0.17257377  0.49283859],-9.970890266310107,-14.375633287152606,-49.32704546608462,[ 0.40256146  0.1492562   0.02633969 -0.90275859],[ 0.40313144  0.05388758  0.12870876 -0.90444194]
17:53:23.15,-16.573333333333334,-22.666666666666668,-40.52,-91.63219512414635,-27.0149999997561,-17.22008130292683,1.7419354838709677,1.903225806451613,1.4780058651026393,0.13196480938416422,0.12316715542521994,0.12023460410557185,42.75,-84.99,0.3,"[[ 0.53141879]
 [-0.39187234]
 [ 0.7510194 ]]",[-0.27666512 -0.4328079  -0.85798236],[-0.17570567  0.66702152 -0.72402335],[-0.85283551 -0.17257377  0.49283859],-9.101273845434527,-15.370253323094428,-47.141758104356185,[ 0.38531736  0.15362682  0.01875991 -0.90971281],[ 0.3816488   0.06425585  0.12274482 -0.91386492]
17:53:23.18,-16.826666666666668,-20.186666666666667,-41.74666666666667,-95.04682927048782,-11.710121950975612,-70.5737398395122,1.7917888563049853,1.9560117302052786,1.530791788856305,0.1348973607038123,0.12609970674486803,0.12023460410557185,42.75,-84.99,0.3,"[[ 0.52386791]
 [-0.37732044]
 [ 0.76366989]]",[-0.28224909 -0.38476333 -0.87880181],[-0.17570567  0.66702152 -0.72402335],[-0.85283551 -0.17257377  0.49283859],-9.97336950932711,-15.856366631214295,-46.5062892126403,[ 0.378525    0.160237    0.02485143 -0.91127676],[ 0.31697737  0.09060775  0.13094764 -0.93496968]
17:53:23.21,-16.26666666666667,-17.76,-43.013333333333335,-103.82731707536587,-14.636951219268294,-68.4395934980488,1.844574780058651,2.0117302052785924,1.5894428152492668,0.1378299120234604,0.12609970674486803,0.12316715542521994,42.75,-84.99,0.3,"[[ 0.5193282 ]
 [-0.36156486]
 [ 0.77431845]]",[-0.27287006 -0.33824188 -0.90062998],[-0.17570567  0.66702152 -0.72402335],[-0.85283551 -0.17257377  0.49283859],-11.509751852225484,-16.131353841647687,-44.85968101397581,[ 0.36286877  0.16692059  0.03850497 -0.91595914],[ 0.30453177  0.1015318   0.15360897 -0.93453517]
17:53:23.24,-16.066666666666666,-15.133333333333335,-43.88,-103.82731707536587,-14.636951219268294,-68.4395934980488,1.844574780058651,2.0117302052785924,1.5894428152492668,0.1378299120234604,0.12609970674486803,0.12316715542521994,42.75,-84.99,0.3,"[[ 0.5193282 ]
 [-0.36156486]
 [ 0.77431845]]",[-0.27128658 -0.28908029 -0.9180611 ],[-0.17570567  0.66702152 -0.72402335],[-0.85283551 -0.17257377  0.49283859],-13.117315095473705,-15.553770178707298,-43.69668667230667,[ 0.35196943  0.16689071  0.05501268 -0.9193686 ],[ 0.29506021  0.10211107  0.17170061 -0.93436165]
17:53:23.26,-16.066666666666666,-15.133333333333335,-43.88,-102.42487805097562,-11.710121950975612,-32.646910571219514,1.8914956011730206,2.070381231671554,1.653958944281525,0.1378299120234604,0.12903225806451613,0.12903225806451613,42.75,-84.99,0.3,"[[ 0.51629661]
 [-0.33860026]
 [ 0.78663058]]",[-0.27128658 -0.28908029 -0.9180611 ],[-0.17570567  0.66702152 -0.72402335],[-0.85283551 -0.17257377  0.49283859],-12.679435366416037,-16.578942208813455,-42.93164243335379,[ 0.34509241  0.17334013  0.04925285 -0.92110726],[ 0.32243412  0.11258061  0.17539845 -0.92336192]
17:53:23.29,-16.240000000000002,-12.146666666666668,-44.720000000000006,-95.96146341682928,-14.5149999997561,-33.1956910590244,1.9296187683284458,2.1202346041055717,1.715542521994135,0.14076246334310852,0.13196480938416422,0.12609970674486803,42.75,-84.99,0.3,"[[ 0.51062377]
 [-0.29480877]
 [ 0.80768258]]",[-0.27616098 -0.2322412  -0.93263023],[-0.17570567  0.66702152 -0.72402335],[-0.85283551 -0.17257377  0.49283859],-13.530718837438126,-17.759302078537655,-40.006382904001576,[ 0.3185322   0.18385196  0.05693574 -0.92816702],[ 0.30017183  0.11676323  0.17682874 -0.93005098]
17:53:23.32,-16.240000000000002,-12.146666666666668,-44.720000000000006,-91.57121951439025,-18.966219511951223,-69.17130081512195,1.9560117302052786,2.1524926686217007,1.750733137829912,0.14076246334310852,0.13196480938416422,0.12609970674486803,42.75,-84.99,0.3,"[[ 0.5085509 ]
 [-0.27928946]
 [ 0.81447736]]",[-0.27616098 -0.2322412  -0.93263023],[-0.17570567  0.66702152 -0.72402335],[-0.85283551 -0.17257377  0.49283859],-13.254800762635705,-18.369304387777742,-39.35133291970204,[ 0.31281143  0.18765353  0.05389729 -0.92953227],[ 0.25677459  0.11755938  0.16494088 -0.94500852]
17:53:23.34,-16.240000000000002,-12.146666666666668,-44.720000000000006,-91.57121951439025,-18.966219511951223,-69.17130081512195,1.9560117302052786,2.1524926686217007,1.750733137829912,0.14076246334310852,0.1348973607038123,0.12903225806451613,42.75,-84.99,0.3,"[[ 0.50645592]
 [-0.28380239]
 [ 0.8142227 ]]",[-0.27616098 -0.2322412  -0.93263023],[-0.17570567  0.66702152 -0.72402335],[-0.85283551 -0.17257377  0.49283859],-13.28882495605369,-18.360502277996908,-39.775365544378076,[ 0.31620551  0.18787523  0.05350514 -0.92836102],[ 0.25526104  0.12318156  0.16639558 -0.94444725]
17:53:23.37,-16.52,-9.8,-45.52,-76.44926829487805,-27.258902438780492,-67.82983740048782,1.9794721407624634,1.8328445747800586,1.7771260997067448,0.1466275659824047,0.1378299120234604,0.12903225806451613,42.75,-84.99,0.3,"[[-0.09358596]
 [-0.32942016]
 [ 0.93953394]]",[-0.28104171 -0.18654659 -0.94139042],[-0.17570567  0.66702152 -0.72402335],[-0.85283551 -0.17257377  0.49283859],-23.05700708103594,-33.435830414336046,-105.92121433171903,[ 0.71442952  0.32256626 -0.10968669 -0.61115489],[ 0.66304236  0.25591485  0.0039383  -0.70346777]
17:53:23.40,-16.78666666666667,-7.426666666666667,-45.85333333333334,-67.42487805097562,-24.149146341219517,-33.0127642297561,1.9853372434017595,0.2961876832844575,1.6422287390029326,0.1495601173020528,0.1378299120234604,0.13196480938416422,42.75,-84.99,0.3,"[[-0.96392686]
 [-0.17940204]
 [ 0.19662124]]",[-0.28747746 -0.14182588 -0.94722866],[-0.17570567  0.66702152 -0.72402335],[-0.85283551 -0.17257377  0.49283859],-48.28653163316714,12.147857098531315,-154.61014399210782,[ 0.89473146  0.37556165  0.18357689 -0.15718968],[ 0.89280156  0.28539485  0.22901543 -0.26269201]
17:53:23.42,-17.453333333333333,-5.5200000000000005,-45.96,-67.42487805097562,-24.149146341219517,-33.0127642297561,1.9853372434017595,0.2961876832844575,1.6422287390029326,0.1495601173020528,0.1378299120234604,0.13196480938416422,42.75,-84.99,0.3,"[[-0.96392686]
 [-0.17940204]
 [ 0.19662124]]",[-0.30065136 -0.10574342 -0.94785394],[-0.17570567  0.66702152 -0.72402335],[-0.85283551 -0.17257377  0.49283859],-46.14521753971827,12.627855216159537,-155.5036580426475,[ 0.90275744  0.35918915  0.18151112 -0.15187453],[ 0.92887554  0.24783926  0.19528743 -0.19398133]
17:53:23.45,-17.453333333333333,-5.5200000000000005,-45.96,-64.25414634365855,-22.807682926585368,-39.41520325414635,1.9941348973607038,1.8005865102639296,0.2903225806451613,0.1495601173020528,0.1378299120234604,0.1348973607038123,42.75,-84.99,0.3,"[[ 0.40458313]
 [-0.89300204]
 [ 0.19712901]]",[-0.30065136 -0.10574342 -0.94785394],[-0.17570567  0.66702152 -0.72402335],[-0.85283551 -0.17257377  0.49283859],-24.77728766331658,18.96515248658781,-62.344599771497414,[ 0.5288945  -0.02814595  0.26434672 -0.80597719],[ 0.57784026 -0.0989835   0.253783   -0.76934848]
17:53:23.48,-18.200000000000003,-3.7600000000000002,-45.98666666666667,-52.241951221707325,-32.624756097317075,-78.1956910590244,1.9941348973607038,2.1700879765395893,0.9501466275659824,0.15249266862170088,0.1436950146627566,0.13196480938416422,42.75,-84.99,0.3,"[[ 0.58012192]
 [-0.73826406]
 [ 0.34412895]]",[-0.31495183 -0.07244631 -0.94633867],[-0.17570567  0.66702152 -0.72402335],[-0.85283551 -0.17257377  0.49283859],-24.471335060486076,12.524002970527096,-49.46587647033152,[ 0.42744171 -0.00867742  0.2359428  -0.87266791],[ 0.36600276 -0.10972051  0.25180872 -0.88915452]
17:53:23.51,-19.133333333333333,-3.0133333333333336,-45.720000000000006,-30.96146341682927,-44.45402439000001,-72.82983740048782,1.9941348973607038,2.1700879765395893,0.9501466275659824,0.15249266862170088,0.1436950146627566,0.13196480938416422,42.75,-84.99,0.3,"[[ 0.58012192]
 [-0.73826406]
 [ 0.34412895]]",[-0.33258071 -0.0583896  -0.94126549],[-0.17570567  0.66702152 -0.72402335],[-0.85283551 -0.17257377  0.49283859],-23.94367674783425,12.734231798954863,-49.84442531914268,[ 0.43054111 -0.01151468  0.23266957 -0.87199004],[ 0.35148547 -0.11289552  0.2403557  -0.89774256]
17:53:23.53,-19.133333333333333,-3.0133333333333336,-45.720000000000006,-30.96146341682927,-44.45402439000001,-72.82983740048782,1.9824046920821115,2.187683284457478,1.2873900293255132,0.15249266862170088,0.14076246334310852,0.13196480938416422,42.75,-84.99,0.3,"[[ 0.60286476]
 [-0.63535516]
 [ 0.48257426]]",[-0.33258071 -0.0583896  -0.94126549],[-0.17570567  0.66702152 -0.72402335],[-0.85283551 -0.17257377  0.49283859],-22.877067715991007,5.546395892843267,-45.69590091293072,[ 0.38897132  0.03321276  0.2009555  -0.89845151],[ 0.3113814  -0.07154871  0.21181115 -0.92361163]
17:53:23.56,-20.533333333333335,-2.8800000000000003,-45.32,-8.461463416829268,-54.14914634121952,-42.220081302926836,1.9501466275659824,2.187683284457478,1.7067448680351907,0.15249266862170088,0.1436950146627566,0.1348973607038123,42.75,-84.99,0.3,"[[ 0.57152895]
 [-0.31111683]
 [ 0.75931612]]",[-0.35770087 -0.05575023 -0.93217058],[-0.17570567  0.66702152 -0.72402335],[-0.85283551 -0.17257377  0.49283859],-17.99066617971069,-11.720303473708606,-34.24016659305356,[ 0.27397887  0.14216276  0.11895879 -0.94370235],[ 0.23879845  0.02643469  0.11250922 -0.96416709]
17:53:23.59,-22.16,-3.226666666666667,-44.81333333333334,-1.8151219534146343,-41.83207317048781,-39.47617886390245,1.9208211143695015,2.167155425219941,1.686217008797654,0.15249266862170088,0.1436950146627566,0.13196480938416422,42.75,-84.99,0.3,"[[ 0.58166406]
 [-0.2977548 ]
 [ 0.75697358]]",[-0.38614508 -0.06203453 -0.92034977],[-0.17570567  0.66702152 -0.72402335],[-0.85283551 -0.17257377  0.49283859],-16.03468392872394,-11.613825763689524,-34.7007149503159,[ 0.28031454  0.1370081   0.10256626 -0.94452777],[ 0.22317585  0.05157326  0.09272349 -0.96898663]
17:53:23.62,-22.16,-3.226666666666667,-44.81333333333334,-1.8151219534146343,-41.83207317048781,-39.47617886390245,1.9208211143695015,2.167155425219941,1.686217008797654,0.15249266862170088,0.1436950146627566,0.13196480938416422,42.75,-84.99,0.3,"[[ 0.58166406]
 [-0.2977548 ]
 [ 0.75697358]]",[-0.38614508 -0.06203453 -0.92034977],[-0.17570567  0.66702152 -0.72402335],[-0.85283551 -0.17257377  0.49283859],-16.03468392872394,-11.613825763689524,-34.7007149503159,[ 0.28031454  0.1370081   0.10256626 -0.94452777],[ 0.21956818  0.05551596  0.09295898 -0.96957023]
17:53:23.64,-23.413333333333334,-3.7733333333333334,-44.120000000000005,-20.961463416829268,-34.75890243878049,-69.17130081512195,1.906158357771261,2.1466275659824046,1.5043988269794721,0.15542521994134897,0.1466275659824047,0.1348973607038123,42.75,-84.99,0.3,"[[ 0.61821903]
 [-0.4640076 ]
 [ 0.6344306 ]]",[-0.40946101 -0.07235866 -0.90945363],[-0.17570567  0.66702152 -0.72402335],[-0.85283551 -0.17257377  0.49283859],-16.171214833045873,-3.164058067535755,-42.21437579482844,[ 0.35277544  0.07613141  0.12132268 -0.92468065],[ 0.25269264  0.01131049  0.1425092  -0.95692718]
17:53:23.67,-24.26666666666667,-4.36,-43.906666666666666,-19.620000002195123,-21.039390243658538,-68.1956910590244,1.903225806451613,2.102639296187683,0.9794721407624634,0.15542521994134897,0.1466275659824047,0.1348973607038123,42.75,-84.99,0.3,"[[ 0.60032825]
 [-0.71168467]
 [ 0.36484369]]",[-0.42303636 -0.08299013 -0.90230421],[-0.17570567  0.66702152 -0.72402335],[-0.85283551 -0.17257377  0.49283859],-17.784784220078887,11.9796068367153,-51.68762780230402,[ 0.44284584 -0.02576982  0.18330162 -0.87728216],[ 0.33565648 -0.07325981  0.20181818 -0.91718981]
17:53:23.70,-24.58666666666667,-4.626666666666667,-43.52,-13.034634148536586,-11.039390243658538,-45.08593496146342,1.903225806451613,1.9413489736070382,0.4398826979472141,0.15542521994134897,0.1466275659824047,0.1348973607038123,42.75,-84.99,0.3,"[[ 0.51033098]
 [-0.82993939]
 [ 0.22530626]]",[-0.43023733 -0.08826703 -0.8983901 ],[-0.17570567  0.66702152 -0.72402335],[-0.85283551 -0.17257377  0.49283859],-17.491112608603668,18.685609686779934,-59.50202999547155,[ 0.50538612 -0.06485461  0.20987653 -0.83446425],[ 0.42070816 -0.10695064  0.2195252  -0.87371327]
17:53:23.73,-24.58666666666667,-4.626666666666667,-43.52,-13.034634148536586,-11.039390243658538,-45.08593496146342,1.903225806451613,1.9413489736070382,0.4398826979472141,0.15542521994134897,0.1466275659824047,0.1348973607038123,42.75,-84.99,0.3,"[[ 0.51033098]
 [-0.82993939]
 [ 0.22530626]]",[-0.43023733 -0.08826703 -0.8983901 ],[-0.17570567  0.66702152 -0.72402335],[-0.85283551 -0.17257377  0.49283859],-17.491112608603668,18.685609686779934,-59.50202999547155,[ 0.50538612 -0.06485461  0.20987653 -0.83446425],[ 0.43183022 -0.11297975  0.21531095 -0.86856171]
17:53:23.75,-24.58666666666667,-4.626666666666667,-43.52,-11.571219514390245,-9.819878048536587,-42.463983741951225,1.906158357771261,1.533724340175953,0.31085043988269795,0.15542521994134897,0.1436950146627566,0.1348973607038123,42.75,-84.99,0.3,"[[ 0.29253122]
 [-0.93500545]
 [ 0.20047518]]",[-0.43023733 -0.08826703 -0.8983901 ],[-0.17570567  0.66702152 -0.72402335],[-0.85283551 -0.17257377  0.49283859],-16.83686338435134,19.012508992987524,-73.4935064150044,[ 0.6030799  -0.04452497  0.21344291 -0.76730326],[ 0.52626497 -0.09348771  0.21834507 -0.81647453]
17:53:23.78,-25.013333333333335,-4.933333333333334,-43.14666666666667,-14.498048782682927,-7.197926829024391,-59.35422764439025,1.9090909090909092,0.5953079178885631,0.9266862170087976,0.15542521994134897,0.1495601173020528,0.1348973607038123,42.75,-84.99,0.3,"[[-0.68739848]
 [-0.69241097]
 [ 0.21920397]]",[-0.43885715 -0.09420778 -0.89360466],[-0.17570567  0.66702152 -0.72402335],[-0.85283551 -0.17257377  0.49283859],-28.7745309878002,13.889081775215809,-128.41693382259953,[ 0.87881879  0.17112379  0.21276755 -0.39131081],[ 0.81627583  0.10589268  0.2327603  -0.51797987]
17:53:23.81,-25.080000000000002,-5.226666666666667,-43.13333333333333,-14.985853660731708,-10.124756097317075,-72.28105691268294,1.9090909090909092,0.5953079178885631,0.9266862170087976,0.15542521994134897,0.1495601173020528,0.1348973607038123,42.75,-84.99,0.3,"[[-0.68739848]
 [-0.69241097]
 [ 0.21920397]]",[-0.43951386 -0.09961643 -0.89269487],[-0.17570567  0.66702152 -0.72402335],[-0.85283551 -0.17257377  0.49283859],-28.956981994535138,13.83053233091904,-128.32217950700831,[ 0.87822008  0.17257422  0.21309762 -0.39183803],[ 0.83163597  0.11683105  0.22798016 -0.49270394]
17:53:23.83,-25.080000000000002,-5.226666666666667,-43.13333333333333,-14.985853660731708,-10.124756097317075,-72.28105691268294,1.9120234604105573,0.4046920821114369,1.6246334310850439,0.15542521994134897,0.1466275659824047,0.1378299120234604,42.75,-84.99,0.3,"[[-0.96198028]
 [-0.16482826]
 [ 0.21777415]]",[-0.43951386 -0.09961643 -0.89269487],[-0.17570567  0.66702152 -0.72402335],[-0.85283551 -0.17257377  0.49283859],-44.22251450502098,10.676222195103017,-157.04458846743879,[ 0.91095814  0.35012838  0.15904211 -0.14923468],[ 0.89588931  0.28844253  0.18532763 -0.28255429]
17:53:23.86,-24.560000000000002,-6.186666666666667,-43.17333333333334,-15.71756097780488,-19.45402439,-68.50056910780489,1.9149560117302054,1.3665689149560116,1.6950146627565983,0.15542521994134897,0.1466275659824047,0.1378299120234604,42.75,-84.99,0.3,"[[-0.70851539]
 [-0.28319646]
 [ 0.64637892]]",[-0.43010056 -0.11779784 -0.89506267],[-0.17570567  0.66702152 -0.72402335],[-0.85283551 -0.17257377  0.49283859],-35.53591305076263,-11.173791839487645,-146.9884373980727,[ 0.90027889  0.3175379  -0.00260234 -0.29775968],[ 0.88136221  0.26647018  0.02764518 -0.38914013]
17:53:23.89,-25.226666666666667,-6.706666666666667,-42.89333333333334,-6.083414636341463,-18.966219511951223,-53.561544717560984,1.9090909090909092,1.9208211143695015,1.689149560117302,0.15835777126099707,0.1495601173020528,0.1378299120234604,42.75,-84.99,0.3,"[[ 0.24323793]
 [-0.34937111]
 [ 0.90486194]]",[-0.44112806 -0.12727532 -0.88837325],[-0.17570567  0.66702152 -0.72402335],[-0.85283551 -0.17257377  0.49283859],-5.078428587857196,-31.2504823097868,-82.37567040193753,[ 0.6245903   0.23059391 -0.14508853 -0.73188983],[ 0.60952818  0.20670234 -0.12153826 -0.75563086]
17:53:23.92,-25.506666666666668,-7.16,-42.586666666666666,-2.7297560997560977,-9.697926829024391,-45.39081301024391,1.9090909090909092,1.9208211143695015,1.689149560117302,0.15835777126099707,0.1495601173020528,0.1378299120234604,42.75,-84.99,0.3,"[[ 0.24323793]
 [-0.34937111]
 [ 0.90486194]]",[-0.44671989 -0.13597657 -0.88428034],[-0.17570567  0.66702152 -0.72402335],[-0.85283551 -0.17257377  0.49283859],-4.875086859586643,-31.38804212918057,-82.55340718631156,[ 0.62588204  0.23011669 -0.14751499 -0.73045007],[ 0.56379218  0.22106468 -0.13468588 -0.78430128]
17:53:23.94,-25.506666666666668,-7.16,-42.586666666666666,-2.7297560997560977,-9.697926829024391,-45.39081301024391,1.906158357771261,2.1055718475073313,1.6920821114369502,0.15542521994134897,0.1466275659824047,0.1378299120234604,42.75,-84.99,0.3,"[[ 0.52692392]
 [-0.2925749 ]
 [ 0.79796686]]",[-0.44671989 -0.13597657 -0.88428034],[-0.17570567  0.66702152 -0.72402335],[-0.85283551 -0.17257377  0.49283859],-5.39212447549511,-17.899020544587394,-48.16258974985774,[ 0.39593828  0.16082699 -0.02098374 -0.90384028],[ 0.34980967  0.1608034  -0.02353757 -0.92261663]
17:53:23.97,-25.400000000000002,-7.866666666666667,-42.6,-42.8517073192683,14.875243902682927,-49.35422764439025,1.932551319648094,2.129032258064516,1.715542521994135,0.16129032258064516,0.1495601173020528,0.1378299120234604,42.75,-84.99,0.3,"[[ 0.52166667]
 [-0.28670437]
 [ 0.80353251]]",[-0.44378276 -0.14904167 -0.88365346],[-0.17570567  0.66702152 -0.72402335],[-0.85283551 -0.17257377  0.49283859],-4.968615690537469,-18.634278243713773,-48.55927352461512,[ 0.39898743  0.16502848 -0.02751821 -0.90156385],[ 0.33471858  0.16410631  0.05282759 -0.92641343]
17:53:24.00,-24.533333333333335,-7.293333333333334,-43.42666666666667,-58.58341463634147,29.204512195365854,-71.91520325414635,1.9853372434017595,2.167155425219941,1.7712609970674487,0.15835777126099707,0.15249266862170088,0.1378299120234604,42.75,-84.99,0.3,"[[ 0.49271828]
 [-0.281583  ]
 [ 0.82337094]]",[-0.42603308 -0.13761785 -0.89417959],[-0.17570567  0.66702152 -0.72402335],[-0.85283551 -0.17257377  0.49283859],-5.652274462803696,-20.377643611613525,-49.93907010602879,[ 0.40706738  0.18064932 -0.03058994 -0.89483307],[ 0.32796024  0.184762    0.07373515 -0.92350864]
17:53:24.03,-24.533333333333335,-7.293333333333334,-43.42666666666667,-58.58341463634147,29.204512195365854,-71.91520325414635,1.9853372434017595,2.167155425219941,1.7712609970674487,0.15835777126099707,0.15249266862170088,0.1378299120234604,42.75,-84.99,0.3,"[[ 0.48640306]
 [-0.28661515]
 [ 0.82538707]]",[-0.42603308 -0.13761785 -0.89417959],[-0.17570567  0.66702152 -0.72402335],[-0.85283551 -0.17257377  0.49283859],-5.552629907354491,-20.648752872218907,-50.889464206851834,[ 0.41434892  0.18211993 -0.03387976 -0.89106648],[ 0.3361464   0.18717471  0.07438824 -0.92002044]
17:53:24.05,-23.10666666666667,-6.546666666666667,-43.973333333333336,-58.64439024609757,46.46060975634147,-75.8176422785366,2.0439882697947214,2.2082111436950145,1.8328445747800586,0.16422287390029325,0.15249266862170088,0.1378299120234604,42.75,-84.99,0.3,"[[ 0.45748482]
 [-0.27278895]
 [ 0.84634143]]",[-0.40199425 -0.12421967 -0.90717699],[-0.17570567  0.66702152 -0.72402335],[-0.85283551 -0.17257377  0.49283859],-6.635275795537169,-22.46094454806416,-51.4384010552916,[ 0.41478383  0.19980083 -0.03323511 -0.88709043],[ 0.33581809  0.22133224  0.07746811 -0.91227021]
17:53:24.08,-21.213333333333335,-5.36,-44.85333333333334,-64.86390244121952,51.88743902463415,-53.37861788829269,2.102639296187683,2.2492668621700878,1.8973607038123168,0.16129032258064516,0.15542521994134897,0.14076246334310852,42.75,-84.99,0.3,"[[ 0.41610949]
 [-0.27188943]
 [ 0.86771483]]",[-0.36851073 -0.10219759 -0.9239889 ],[-0.17570567  0.66702152 -0.72402335],[-0.85283551 -0.17257377  0.49283859],-8.57960920604102,-24.21149906901359,-53.06600886962654,[ 0.42152081  0.21977474 -0.02798598 -0.87933842],[ 0.36819389  0.24871066  0.09355106 -0.89096827]
17:53:24.11,-19.14666666666667,-4.053333333333334,-45.42666666666667,-64.86390244121952,51.88743902463415,-53.37861788829269,2.102639296187683,2.2492668621700878,1.8973607038123168,0.16129032258064516,0.15542521994134897,0.14076246334310852,42.75,-84.99,0.3,"[[ 0.41610949]
 [-0.27188943]
 [ 0.86771483]]",[-0.33342886 -0.07823079 -0.93952389],[-0.17570567  0.66702152 -0.72402335],[-0.85283551 -0.17257377  0.49283859],-12.076439579179544,-23.1081504534606,-48.714624805234756,[ 0.38263286  0.22395726  0.01173941 -0.89626861],[ 0.33644447  0.24857639  0.13285746 -0.89853425]
17:53:24.14,-19.14666666666667,-4.053333333333334,-45.42666666666667,-65.77853658756098,53.289878049024395,-44.11032520536586,2.1495601173020527,2.281524926686217,1.9618768328445748,0.16129032258064516,0.15542521994134897,0.1436950146627566,42.75,-84.99,0.3,"[[ 0.37948135]
 [-0.25080458]
 [ 0.89055655]]",[-0.33342886 -0.07823079 -0.93952389],[-0.17570567  0.66702152 -0.72402335],[-0.85283551 -0.17257377  0.49283859],-10.403823400493682,-26.303476791988864,-53.13048554503345,[ 0.41524156  0.24215488 -0.02236961 -0.87660428],[ 0.37357259  0.27162638  0.10632963 -0.88054338]
17:53:24.16,-19.14666666666667,-6.146666666666667,-45.42666666666667,-56.08341463634147,51.94841463439025,-56.36642276634147,2.187683284457478,2.304985337243402,2.0175953079178885,0.16129032258064516,0.15542521994134897,0.1436950146627566,42.75,-84.99,0.3,"[[ 0.34114132]
 [-0.22592245]
 [ 0.91245912]]",[-0.330782   -0.11724076 -0.93639622],[-0.17570567  0.66702152 -0.72402335],[-0.85283551 -0.17257377  0.49283859],-8.453317299379169,-30.185976396802985,-58.55095584763798,[ 0.45411653  0.26130954 -0.06491381 -0.84928305],[ 0.40122168  0.29078546  0.06023927 -0.86650806]
17:53:24.19,-17.32,-2.7333333333333334,-46.58666666666667,-54.01024390463415,55.6679268295122,-75.32983740048782,2.219941348973607,2.3255131964809386,2.067448680351906,0.16422287390029325,0.15835777126099707,0.14076246334310852,42.75,-84.99,0.3,"[[ 0.30292143]
 [-0.19238095]
 [ 0.93339605]]",[-0.29809272 -0.0529258  -0.95306851],[-0.17570567  0.66702152 -0.72402335],[-0.85283551 -0.17257377  0.49283859],-10.004091311043473,-32.583513996333046,-59.4475445389326,[ 0.45285588  0.28418571 -0.06588297 -0.84250785],[ 0.3886486   0.31359196  0.05391783 -0.8646995 ]
17:53:24.22,-15.453333333333335,-1.3466666666666667,-46.96,-54.01024390463415,55.6679268295122,-75.32983740048782,2.219941348973607,2.3255131964809386,2.067448680351906,0.16422287390029325,0.15835777126099707,0.14076246334310852,42.75,-84.99,0.3,"[[ 0.30292143]
 [-0.19238095]
 [ 0.93339605]]",[-0.26592008 -0.02709256 -0.96361429],[-0.17570567  0.66702152 -0.72402335],[-0.85283551 -0.17257377  0.49283859],-13.556243086020087,-31.156339539683145,-52.95828675214058,[ 0.39812012  0.28939146 -0.0171405  -0.8703213 ],[ 0.33644923  0.31900958  0.09846993 -0.88053306]
17:53:24.25,-15.453333333333335,-1.3466666666666667,-46.96,-63.94926829487806,68.1679268295122,-59.781056912682935,2.2492668621700878,2.340175953079179,2.12316715542522,0.16129032258064516,0.15835777126099707,0.1436950146627566,42.75,-84.99,0.3,"[[ 0.25612899]
 [-0.16251735]
 [ 0.95288302]]",[-0.26592008 -0.02709256 -0.96361429],[-0.17570567  0.66702152 -0.72402335],[-0.85283551 -0.17257377  0.49283859],-10.78904785472345,-35.859960328062144,-63.7684910651162,[ 0.4757505   0.30749319 -0.08593885 -0.81958765],[ 0.42625157  0.35339914  0.04592778 -0.83145011]
17:53:24.27,-12.746666666666668,0.13333333333333333,-47.56,-75.2297560997561,88.89963414658537,-39.963983741951225,2.275659824046921,1.4076246334310851,2.1700879765395893,0.16129032258064516,0.15542521994134897,0.1436950146627566,42.75,-84.99,0.3,"[[-0.86182155]
 [-0.08025369]
 [ 0.50082229]]",[-2.17373031e-01  7.80037279e-04 -9.76088294e-01],[-0.17570567  0.66702152 -0.72402335],[-0.85283551 -0.17257377  0.49283859],-39.09598360816634,-0.851325387613991,-162.85909259806846,[ 0.93144239  0.33189418  0.04293922 -0.14288998],[ 0.88995195  0.38212831  0.1705221  -0.18134413]
17:53:24.30,-10.173333333333334,2.3866666666666667,-47.93333333333334,-75.4736585387805,93.77768292707317,-54.963983741951225,2.2932551319648096,2.340175953079179,2.228739002932551,0.16129032258064516,0.15542521994134897,0.1436950146627566,42.75,-84.99,0.3,"[[ 0.13353683]
 [-0.07116694]
 [ 0.9884853 ]]",[-0.1714902   0.04349817 -0.98422509],[-0.17570567  0.66702152 -0.72402335],[-0.85283551 -0.17257377  0.49283859],-12.090701356026262,-49.66516411755613,-114.82197940316365,[ 0.73657741  0.30547062 -0.30039965 -0.52335597],[ 0.79466519  0.26382804 -0.14943045 -0.52590166]
17:53:24.32,-10.173333333333334,2.3866666666666667,-47.93333333333334,-75.4736585387805,93.77768292707317,-54.963983741951225,2.2932551319648096,2.340175953079179,2.228739002932551,0.16129032258064516,0.15835777126099707,0.1436950146627566,42.75,-84.99,0.3,"[[ 0.12854487]
 [-0.0712468 ]
 [ 0.9891411 ]]",[-0.1714902   0.04349817 -0.98422509],[-0.17570567  0.66702152 -0.72402335],[-0.85283551 -0.17257377  0.49283859],-12.44539040198535,-50.03472512211387,-118.29543826561148,[ 0.74985741  0.29991712 -0.31053955 -0.50132701],[ 0.76819761  0.29835327 -0.1663782  -0.54145734]
17:53:24.35,-7.000000000000001,4.786666666666667,-48.17333333333334,-45.04682927048781,87.92402439048782,-70.5127642297561,2.2991202346041058,2.3284457478005867,2.2639296187683287,0.16129032258064516,0.15835777126099707,0.1436950146627566,42.75,-84.99,0.3,"[[ 0.07222807]
 [-0.02680772]
 [ 0.99702781]]",[-0.11415662  0.08929939 -0.9894412 ],[-0.17570567  0.66702152 -0.72402335],[-0.85283551 -0.17257377  0.49283859],-27.51450552445102,-53.75274443065627,141.7683403398221,[ 0.85382623  0.05662962 -0.48435086  0.18214857],[ 0.91864842  0.11395616 -0.36685205  0.0922965 ]
17:53:24.38,-4.2,6.16,-48.13333333333334,-28.095609758292685,80.6679268295122,-55.6956910590244,2.302052785923754,2.304985337243402,2.269794721407625,0.15835777126099707,0.15542521994134897,0.14076246334310852,42.75,-84.99,0.3,"[[ 0.02329446]
 [-0.0224151 ]
 [ 0.99947733]]",[-0.0629027   0.11597922 -0.99125782],[-0.17570567  0.66702152 -0.72402335],[-0.85283551 -0.17257377  0.49283859],-25.54069865745599,-51.519493966607634,132.27181916190835,[ 0.84211951  0.01058223 -0.4681529   0.26749881],[ 0.90991031  0.00427363 -0.368683    0.19004689]
17:53:24.41,-1.76,7.12,-48.0,-24.376097563170735,67.25329268317074,-43.1956910590244,2.302052785923754,2.278592375366569,0.39296187683284456,0.15835777126099707,0.15542521994134897,0.14076246334310852,42.75,-84.99,0.3,"[[ 0.48112352]
 [-0.85181949]
 [ 0.20718039]]",[-0.01768407  0.13485102 -0.99070807],[-0.17570567  0.66702152 -0.72402335],[-0.85283551 -0.17257377  0.49283859],-47.28868450903149,16.127613694196544,-46.03394088926497,[ 0.40641844  0.03699469  0.41572371 -0.81279102],[ 0.49626951  0.00739513  0.40827559 -0.76614159]
17:53:24.43,-1.76,7.12,-48.0,-24.376097563170735,67.25329268317074,-43.1956910590244,2.302052785923754,2.278592375366569,0.39296187683284456,0.15835777126099707,0.15542521994134897,0.14076246334310852,42.75,-84.99,0.3,"[[ 0.48112352]
 [-0.85181949]
 [ 0.20718039]]",[-0.01768407  0.13485102 -0.99070807],[-0.17570567  0.66702152 -0.72402335],[-0.85283551 -0.17257377  0.49283859],-47.28868450903149,16.127613694196544,-46.03394088926497,[ 0.40641844  0.03699469  0.41572371 -0.81279102],[ 0.32778387  0.0630223   0.47995686 -0.81131211]
17:53:24.46,0.29333333333333333,7.906666666666667,-47.733333333333334,-33.15658536804879,73.4118292685366,-63.317642278536596,1.4134897360703813,0.35777126099706746,2.278592375366569,0.15542521994134897,0.15542521994134897,0.14076246334310852,42.75,-84.99,0.3,"[[-0.87554174]
 [ 0.44602434]
 [ 0.18571202]]",[ 0.02067932  0.15061252 -0.98837657],[-0.17570567  0.66702152 -0.72402335],[-0.85283551 -0.17257377  0.49283859],-35.66900824034974,17.77235758319009,161.94819035047,[0.92145108 0.32191487 0.09775707 0.19427371],[0.88973788 0.37385028 0.23306058 0.11952087]
17:53:24.49,2.506666666666667,9.426666666666668,-47.733333333333334,-35.16878049,81.27768292707317,-65.7566666687805,2.2844574780058653,2.2023460410557183,2.272727272727273,0.15542521994134897,0.15249266862170088,0.1378299120234604,42.75,-84.99,0.3,"[[-0.14592617]
 [ 0.00902684]
 [ 0.9892543 ]]",[ 0.06142249  0.17907831 -0.9819156 ],[-0.17570567  0.66702152 -0.72402335],[-0.85283551 -0.17257377  0.49283859],-17.048851245839543,-43.84693147098576,139.20081136015645,[ 8.79188881e-01  1.81993975e-04 -3.94017528e-01  2.67912423e-01],[ 0.93714496 -0.03556856 -0.2449499   0.24595477]
17:53:24.52,2.506666666666667,9.426666666666668,-47.38666666666667,-26.14439024609756,91.88743902463415,-47.89081301024391,2.269794721407625,2.1524926686217007,2.2609970674486806,0.15542521994134897,0.15249266862170088,0.1378299120234604,42.75,-84.99,0.3,"[[-0.14592617]
 [ 0.00902684]
 [ 0.9892543 ]]",[ 0.06183219  0.1802728  -0.98167128],[-0.17570567  0.66702152 -0.72402335],[-0.85283551 -0.17257377  0.49283859],-17.00568602239266,-43.87420730727857,138.9886491307255,[ 0.87862016 -0.00096732 -0.39411556  0.26962677],[ 0.93360291 -0.04689064 -0.29056704  0.20434693]
17:53:24.55,2.506666666666667,9.426666666666668,-47.38666666666667,-26.14439024609756,91.88743902463415,-47.89081301024391,2.269794721407625,2.1524926686217007,2.2609970674486806,0.15249266862170088,0.1495601173020528,0.1348973607038123,42.75,-84.99,0.3,"[[-0.21080196]
 [ 0.01352295]
 [ 0.97743525]]",[ 0.06183219  0.1802728  -0.98167128],[-0.17570567  0.66702152 -0.72402335],[-0.85283551 -0.17257377  0.49283859],-17.122191904287014,-39.60976213211681,152.3714960504636,[ 0.91550094  0.05600784 -0.35879428  0.17316991],[ 0.9596791   0.01183659 -0.25918431  0.10816385]
17:53:24.57,5.32,10.546666666666667,-46.61333333333334,-4.92487805097561,88.1069512197561,-48.80544715658537,2.2404692082111435,2.0821114369501466,2.2375366568914954,0.1495601173020528,0.1466275659824047,0.1348973607038123,42.75,-84.99,0.3,"[[-0.28597246]
 [ 0.01801159]
 [ 0.95806854]]",[ 0.11551322  0.20354004 -0.97222844],[-0.17570567  0.66702152 -0.72402335],[-0.85283551 -0.17257377  0.49283859],-14.733250224093284,-35.745763346098315,153.82494274898383,[ 0.92827758  0.04993839 -0.3240994   0.17540371],[ 0.96946509  0.04460302 -0.21395113  0.11123366]
17:53:24.60,7.733333333333333,11.213333333333335,-45.96,-4.92487805097561,88.1069512197561,-48.80544715658537,2.2404692082111435,2.0821114369501466,2.2375366568914954,0.1495601173020528,0.1466275659824047,0.1348973607038123,42.75,-84.99,0.3,"[[-0.28597246]
 [ 0.01801159]
 [ 0.95806854]]",[ 0.16213111  0.21761753 -0.96247396],[-0.17570567  0.66702152 -0.72402335],[-0.85283551 -0.17257377  0.49283859],-11.566243212434639,-36.955312995918185,145.98093818617602,[ 9.11684599e-01 -8.53257777e-04 -3.29485113e-01  2.45499538e-01],[ 0.96007838 -0.00183157 -0.21374299  0.18044413]
17:53:24.63,7.733333333333333,11.213333333333335,-45.96,-12.302926831463415,72.31426829292684,-64.41520325414635,2.2082111436950145,2.0146627565982405,2.2140762463343107,0.1466275659824047,0.1466275659824047,0.1348973607038123,42.75,-84.99,0.3,"[[-0.35668878]
 [ 0.026861  ]
 [ 0.93383703]]",[ 0.16213111  0.21761753 -0.96247396],[-0.17570567  0.66702152 -0.72402335],[-0.85283551 -0.17257377  0.49283859],-13.337182161582712,-31.746352657281953,155.56195218137603,[ 0.94044113  0.05167153 -0.28914513  0.17115965],[ 0.97566668  0.032619   -0.19712517  0.09028948]
17:53:24.66,10.120000000000001,11.933333333333334,-45.040000000000006,-14.071219514390245,63.77768292707317,-57.463983741951225,2.1759530791788855,1.9618768328445748,2.187683284457478,0.1436950146627566,0.1466275659824047,0.13196480938416422,42.75,-84.99,0.3,"[[-0.40210084]
 [ 0.03571585]
 [ 0.91489852]]",[ 0.20918384  0.23345502 -0.94960038],[-0.17570567  0.66702152 -0.72402335],[-0.85283551 -0.17257377  0.49283859],-11.203690553674674,-29.49075157255207,153.90706934085242,[ 0.94321327  0.0347813  -0.26807979  0.19306013],[ 0.97795187  0.02374695 -0.17766653  0.10714866]
17:53:24.68,11.773333333333333,13.066666666666668,-44.42666666666667,-24.315121953414636,53.350853658780494,-49.23227642487805,2.1466275659824046,1.9178885630498534,2.1730205278592374,0.1436950146627566,0.1436950146627566,0.13196480938416422,42.75,-84.99,0.3,"[[-0.43426089]
 [ 0.05785861]
 [ 0.89892706]]",[ 0.24063889  0.2559091  -0.93627104],[-0.17570567  0.66702152 -0.72402335],[-0.85283551 -0.17257377  0.49283859],-9.388081530216043,-27.969722194362028,150.77976914684595,[ 0.94082173  0.01608821 -0.25309702  0.22480557],[ 0.97469624 -0.01295914 -0.17374811  0.14003889]
17:53:24.71,12.56,14.413333333333334,-43.62666666666667,-23.339512197317074,46.27768292707317,-45.6347154492683,2.1466275659824046,1.9178885630498534,2.1730205278592374,0.1436950146627566,0.1436950146627566,0.13196480938416422,42.75,-84.99,0.3,"[[-0.43426089]
 [ 0.05785861]
 [ 0.89892706]]",[ 0.25636574  0.28391813 -0.92394107],[-0.17570567  0.66702152 -0.72402335],[-0.85283551 -0.17257377  0.49283859],-7.170809155920171,-28.881544644239348,147.6383353060128,[ 0.93256999 -0.01119688 -0.25590803  0.25435985],[ 0.96823673 -0.04420439 -0.17998972  0.16783122]
17:53:24.73,12.56,14.413333333333334,-43.62666666666667,-23.339512197317074,46.27768292707317,-45.6347154492683,2.1114369501466275,1.8739002932551319,2.155425219941349,0.14076246334310852,0.1436950146627566,0.13196480938416422,42.75,-84.99,0.3,"[[-0.4659581 ]
 [ 0.07981943]
 [ 0.88119913]]",[ 0.25636574  0.28391813 -0.92394107],[-0.17570567  0.66702152 -0.72402335],[-0.85283551 -0.17257377  0.49283859],-8.308364975477811,-26.216098030532372,149.31867471922618,[ 0.94112108  0.00819846 -0.23679841  0.24114397],[ 0.97163164 -0.03101437 -0.17307117  0.15816581]
17:53:24.76,13.706666666666667,15.706666666666667,-42.86666666666667,-34.62000000219513,36.09475609780488,-55.14691057121952,2.0762463343108504,1.8387096774193548,2.1407624633431084,0.14076246334310852,0.1436950146627566,0.12903225806451613,42.75,-84.99,0.3,"[[-0.48539457]
 [ 0.115047  ]
 [ 0.86669273]]",[ 0.27840305  0.31010517 -0.90902504],[-0.17570567  0.66702152 -0.72402335],[-0.85283551 -0.17257377  0.49283859],-6.954772363717421,-25.131408188848802,145.63041554437646,[ 0.93465526 -0.00760166 -0.22495525  0.27523971],[ 0.96627081 -0.05381957 -0.18026964  0.17586082]
17:53:24.79,14.213333333333335,17.453333333333333,-42.10666666666667,-39.802926831463424,36.58256097585366,-60.14691057121952,2.0410557184750733,1.8093841642228738,2.131964809384164,0.14076246334310852,0.1436950146627566,0.12903225806451613,42.75,-84.99,0.3,"[[-0.49719484]
 [ 0.15456839]
 [ 0.85375987]]",[ 0.28745507  0.34509794 -0.89346348],[-0.17570567  0.66702152 -0.72402335],[-0.85283551 -0.17257377  0.49283859],-6.126655556931491,-24.23607611817823,142.28289046602674,[ 0.92753684 -0.01831402 -0.21526211  0.30496267],[ 0.96103292 -0.07018141 -0.17813186  0.19939743]
17:53:24.82,14.573333333333334,19.44,-41.17333333333334,-39.802926831463424,36.58256097585366,-60.14691057121952,2.0410557184750733,1.8093841642228738,2.131964809384164,0.14076246334310852,0.1436950146627566,0.12903225806451613,42.75,-84.99,0.3,"[[-0.49719484]
 [ 0.15456839]
 [ 0.85375987]]",[ 0.2936747   0.38515362 -0.8748782 ],[-0.17570567  0.66702152 -0.72402335],[-0.85283551 -0.17257377  0.49283859],-4.4352189051499735,-25.01990496912576,140.62686825659284,[ 0.92133082 -0.03734726 -0.2165214   0.32073849],[ 0.95512899 -0.09013969 -0.18189061  0.21568321]
17:53:24.84,14.573333333333334,19.44,-41.17333333333334,-28.095609758292685,48.472804878292685,-58.86642276634147,1.997067448680352,1.7536656891495601,2.102639296187683,0.1378299120234604,0.1378299120234604,0.12903225806451613,42.75,-84.99,0.3,"[[-0.52252422]
 [ 0.17217806]
 [ 0.83505878]]",[ 0.2936747   0.38515362 -0.8748782 ],[-0.17570567  0.66702152 -0.72402335],[-0.85283551 -0.17257377  0.49283859],-5.0403929444480315,-22.811792010613377,141.83179711396716,[ 0.92832304 -0.02386145 -0.20080141  0.31197077],[ 0.96318556 -0.06814953 -0.15104485  0.21169477]
17:53:24.87,15.520000000000001,20.733333333333334,-40.32,-21.327317075365855,43.411829268536586,-54.29325203463415,1.9413489736070382,1.715542521994135,2.0762463343108504,0.1348973607038123,0.14076246334310852,0.12903225806451613,42.75,-84.99,0.3,"[[-0.52838708]
 [ 0.21324892]
 [ 0.82178586]]",[ 0.31148096  0.411014   -0.85676549],[-0.17570567  0.66702152 -0.72402335],[-0.85283551 -0.17257377  0.49283859],-4.210774526503856,-21.98137379460205,138.49936229525053,[ 0.91984301 -0.03377629 -0.19093955  0.34101333],[ 0.95746624 -0.06973447 -0.13853175  0.24331967]
17:53:24.90,15.520000000000001,20.733333333333334,-40.32,-17.851707319268293,24.57036585390244,-49.781056912682935,1.9266862170087977,1.7067448680351907,2.067448680351906,0.1348973607038123,0.14076246334310852,0.12609970674486803,42.75,-84.99,0.3,"[[-0.52694437]
 [ 0.22706056]
 [ 0.81900741]]",[ 0.31148096  0.411014   -0.85676549],[-0.17570567  0.66702152 -0.72402335],[-0.85283551 -0.17257377  0.49283859],-4.520761021077401,-21.661989918419735,137.75482861614285,[ 0.91815214 -0.0315289  -0.18911061  0.34675604],[ 0.95215672 -0.06233333 -0.1591057   0.25337229]
17:53:24.93,15.693333333333335,21.506666666666668,-39.720000000000006,-17.851707319268293,24.57036585390244,-49.781056912682935,1.9266862170087977,1.7067448680351907,2.067448680351906,0.1348973607038123,0.14076246334310852,0.12609970674486803,42.75,-84.99,0.3,"[[-0.52694437]
 [ 0.22706056]
 [ 0.81900741]]",[ 0.31543632  0.42783439 -0.84702873],[-0.17570567  0.66702152 -0.72402335],[-0.85283551 -0.17257377  0.49283859],-3.7937904342772284,-21.982667214765282,137.14814695425486,[ 0.91561904 -0.03936156 -0.18925675  0.35252563],[ 0.94982013 -0.06691133 -0.16137322  0.2594673 ]
17:53:24.95,15.693333333333335,21.506666666666668,-39.720000000000006,-12.607804880243902,-6.893048780243903,-51.73227642487806,1.9149560117302054,1.7126099706744868,2.064516129032258,0.1378299120234604,0.14076246334310852,0.12609970674486803,42.75,-84.99,0.3,"[[-0.50658482]
 [ 0.24748044]
 [ 0.82590874]]",[ 0.31543632  0.42783439 -0.84702873],[-0.17570567  0.66702152 -0.72402335],[-0.85283551 -0.17257377  0.49283859],-4.282592830231469,-22.640630547966495,134.71391122210017,[ 0.90715764 -0.04170503 -0.1951421   0.37046628],[ 0.9360501  -0.0480353  -0.21395595  0.27518298]
17:53:24.98,14.866666666666667,23.053333333333335,-39.400000000000006,2.5751219490243904,-31.100365853414637,-56.36642276634147,1.9296187683284458,1.7448680351906158,2.0879765395894427,0.1348973607038123,0.14076246334310852,0.12903225806451613,42.75,-84.99,0.3,"[[-0.4838368 ]
 [ 0.25231008]
 [ 0.83799855]]",[ 0.29737773  0.45744665 -0.83803881],[-0.17570567  0.66702152 -0.72402335],[-0.85283551 -0.17257377  0.49283859],-4.5758364358603565,-24.062099821080583,133.2025067548528,[ 0.9001935  -0.04687867 -0.20665323  0.38045828],[ 0.92155247 -0.01153673 -0.25641826  0.29130331]
17:53:25.01,13.093333333333334,23.64,-40.0,5.197073168536586,-41.52719512170732,-60.024959351707324,1.9501466275659824,1.7888563049853372,2.1085043988269794,0.1378299120234604,0.14076246334310852,0.12903225806451613,42.75,-84.99,0.3,"[[-0.44336708]
 [ 0.25900743]
 [ 0.85810301]]",[ 0.26056344  0.46609798 -0.84549357],[-0.17570567  0.66702152 -0.72402335],[-0.85283551 -0.17257377  0.49283859],-6.597993223035646,-25.827217787138338,131.67647338662107,[ 0.89310762 -0.04014549 -0.22652416  0.38656684],[ 0.91029657  0.01024096 -0.28583206  0.29925795]
17:53:25.04,10.92,24.093333333333334,-40.57333333333334,5.197073168536586,-41.52719512170732,-60.024959351707324,1.9501466275659824,1.7888563049853372,2.1085043988269794,0.1378299120234604,0.14076246334310852,0.12903225806451613,42.75,-84.99,0.3,"[[-0.44336708]
 [ 0.25900743]
 [ 0.85810301]]",[ 0.21693212  0.47280772 -0.85404527],[-0.17570567  0.66702152 -0.72402335],[-0.85283551 -0.17257377  0.49283859],-8.318299388373712,-25.475987271018134,133.83948155036748,[ 0.9012211  -0.0211304  -0.23004218  0.3666533 ],[ 0.91422178  0.03260542 -0.28924202  0.28191217]
17:53:25.07,10.92,24.093333333333334,-40.57333333333334,6.050731705121952,-51.039390243658545,-61.061544717560984,1.0498533724340176,1.844574780058651,2.1407624633431084,0.1378299120234604,0.1436950146627566,0.13196480938416422,42.75,-84.99,0.3,"[[0.22661196]
 [0.89509929]
 [0.38398474]]",[ 0.21693212  0.47280772 -0.85404527],[-0.17570567  0.66702152 -0.72402335],[-0.85283551 -0.17257377  0.49283859],-35.9079383987773,3.089510604667573,85.90733510205781,[ 0.64190768  0.22873897 -0.20805505  0.70167379],[ 0.6966729   0.2701973  -0.28648268  0.59963987]
17:53:25.09,8.186666666666667,24.26666666666667,-41.38666666666667,18.916585363658537,-53.539390243658545,-49.29325203463415,2.0175953079178885,1.903225806451613,2.1730205278592374,0.14076246334310852,0.1436950146627566,0.12903225806451613,42.75,-84.99,0.3,"[[-0.35956985]
 [ 0.25911836]
 [ 0.8964191 ]]",[ 0.16274748  0.47296874 -0.86591791],[-0.17570567  0.66702152 -0.72402335],[-0.85283551 -0.17257377  0.49283859],-11.767891997721836,-29.353510226644715,130.2597475802042,[ 0.88395957 -0.01602245 -0.27036494  0.38113194],[ 0.88576559  0.10149033 -0.29323382  0.34515642]
17:53:25.12,5.746666666666667,24.080000000000002,-42.10666666666667,14.404390241707318,-48.84426829243903,-49.11032520536586,2.0469208211143695,1.847507331378299,2.193548387096774,0.14076246334310852,0.1436950146627566,0.12903225806451613,42.75,-84.99,0.3,"[[-0.47699182]
 [ 0.23236146]
 [ 0.8476361 ]]",[ 0.11527032  0.46671791 -0.8768621 ],[-0.17570567  0.66702152 -0.72402335],[-0.85283551 -0.17257377  0.49283859],-11.567533218900476,-23.730697088206167,142.45551395004125,[ 0.92852645  0.02754442 -0.22542084  0.2937097 ],[ 0.92500944  0.10098619 -0.28217481  0.23353096]
17:53:25.15,5.746666666666667,24.080000000000002,-42.10666666666667,14.404390241707318,-48.84426829243903,-49.11032520536586,2.0469208211143695,1.847507331378299,2.193548387096774,0.1378299120234604,0.1466275659824047,0.1348973607038123,42.75,-84.99,0.3,"[[-0.48066505]
 [ 0.21999663]
 [ 0.84885959]]",[ 0.11527032  0.46671791 -0.8768621 ],[-0.17570567  0.66702152 -0.72402335],[-0.85283551 -0.17257377  0.49283859],-11.227062845690165,-23.860730310341495,143.32862752270913,[ 0.93063334  0.02612632 -0.22539357  0.28711798],[ 0.92902559  0.09212075 -0.2878015   0.21353106]
17:53:25.17,3.5333333333333337,23.720000000000002,-42.92,18.794634144146343,-28.29548780463415,-56.42739837609757,2.067448680351906,0.3870967741935484,2.1524926686217007,0.14076246334310852,0.1466275659824047,0.13196480938416422,42.75,-84.99,0.3,"[[-0.97702746]
 [ 0.04581418]
 [ 0.20813076]]",[ 0.07253884  0.45594454 -0.88704718],[-0.17570567  0.66702152 -0.72402335],[-0.85283551 -0.17257377  0.49283859],-15.27361153389957,18.62782301615539,175.58235492033876,[0.9765081  0.13722605 0.15523435 0.05918811],[9.77878329e-01 1.93572826e-01 7.92649315e-02 7.77660902e-04]
17:53:25.20,1.9733333333333334,23.16,-43.14666666666667,29.465365851463417,-4.393048780243903,-61.42739837609757,2.0791788856304985,1.4428152492668622,1.3519061583577712,0.14076246334310852,0.1466275659824047,0.13196480938416422,42.75,-84.99,0.3,"[[-0.35897263]
 [-0.78927934]
 [ 0.49817344]]",[ 0.04334323  0.44585041 -0.89405748],[-0.17570567  0.66702152 -0.72402335],[-0.85283551 -0.17257377  0.49283859],-29.04017785066439,6.673543230684035,-110.45251628159717,[ 0.80214953  0.17345845  0.18903513 -0.53919757],[ 0.78582616  0.20453269  0.18181273 -0.55460595]
17:53:25.23,0.6933333333333334,22.226666666666667,-43.14666666666667,39.03853658317073,8.655731707560976,-54.47617886390245,2.093841642228739,1.4222873900293256,1.4222873900293256,0.14076246334310852,0.1466275659824047,0.13196480938416422,42.75,-84.99,0.3,"[[-0.44381944]
 [-0.73614504]
 [ 0.51099392]]",[ 0.01973333  0.43110689 -0.90208506],[-0.17570567  0.66702152 -0.72402335],[-0.85283551 -0.17257377  0.49283859],-24.551336362599038,5.666452873422777,-120.02110206146145,[ 0.85053302  0.15978314  0.14797637 -0.47871278],[ 0.7871569   0.20456295  0.14691524 -0.56298662]
17:53:25.26,0.6933333333333334,22.226666666666667,-43.14666666666667,39.03853658317073,8.655731707560976,-54.47617886390245,2.093841642228739,1.4222873900293256,1.4222873900293256,0.14076246334310852,0.1466275659824047,0.13196480938416422,42.75,-84.99,0.3,"[[-0.44381944]
 [-0.73614504]
 [ 0.51099392]]",[ 0.01973333  0.43110689 -0.90208506],[-0.17570567  0.66702152 -0.72402335],[-0.85283551 -0.17257377  0.49283859],-24.551336362599038,5.666452873422777,-120.02110206146145,[ 0.85053302  0.15978314  0.14797637 -0.47871278],[ 0.78757699  0.20778209  0.14260011 -0.56232935]
17:53:25.28,0.6933333333333334,22.226666666666667,-44.17333333333334,45.86780487585366,7.131341463658537,-49.35422764439025,2.1114369501466275,0.533724340175953,2.1378299120234603,0.14076246334310852,0.1495601173020528,0.1348973607038123,42.75,-84.99,0.3,"[[-0.97230778]
 [ 0.01694872]
 [ 0.23308868]]",[ 0.01937789  0.42334174 -0.90576281],[-0.17570567  0.66702152 -0.72402335],[-0.85283551 -0.17257377  0.49283859],-17.760623487251753,17.102122956367246,178.61438959891427,[0.976681   0.15442004 0.14505184 0.03476554],[ 0.95875082  0.22476848  0.13861568 -0.1051746 ]
17:53:25.31,0.7733333333333334,21.386666666666667,-44.93333333333334,56.11170731487805,-28.661341463170736,-47.70788618097561,2.1378299120234603,0.2697947214076246,2.2463343108504397,0.14076246334310852,0.1495601173020528,0.13196480938416422,42.75,-84.99,0.3,"[[-0.98062299]
 [ 0.05146936]
 [ 0.18902239]]",[ 0.02124079  0.40441308 -0.91432975],[-0.17570567  0.66702152 -0.72402335],[-0.85283551 -0.17257377  0.49283859],-19.23973548841704,19.24396792881481,177.58234507385242,[0.97126234 0.16819968 0.16128413 0.04843302],[ 0.96102852  0.23909632  0.12828797 -0.05290873]
17:53:25.34,-0.6133333333333334,19.253333333333334,-45.2,57.87999999780488,-49.6979268290244,-42.646910571219514,2.167155425219941,0.9618768328445748,1.9824046920821115,0.1436950146627566,0.1495601173020528,0.1378299120234604,42.75,-84.99,0.3,"[[-0.98062299]
 [ 0.05146936]
 [ 0.18902239]]",[-0.00341031  0.36742526 -0.9300468 ],[-0.17570567  0.66702152 -0.72402335],[-0.85283551 -0.17257377  0.49283859],-21.81021664882905,19.01902268046974,178.96718834443274,[0.96812716 0.18803783 0.16053968 0.03998239],[ 0.95921072  0.25825914  0.10327956 -0.05050097]
17:53:25.37,-0.6133333333333334,19.253333333333334,-45.2,57.87999999780488,-49.6979268290244,-42.646910571219514,2.167155425219941,0.9618768328445748,1.9824046920821115,0.1436950146627566,0.1495601173020528,0.1378299120234604,42.75,-84.99,0.3,"[[-0.9307258 ]
 [-0.1285437 ]
 [ 0.34238283]]",[-0.00341031  0.36742526 -0.9300468 ],[-0.17570567  0.66702152 -0.72402335],[-0.85283551 -0.17257377  0.49283859],-20.630141600069475,11.826007306730952,-171.56865611277823,[ 0.97731175  0.17017583  0.114172   -0.05354145],[ 0.9586853   0.2440345   0.05987302 -0.13335993]
17:53:25.39,-2.52,17.373333333333335,-45.906666666666666,52.331219510000004,3.411829268536586,-36.97617886390245,2.193548387096774,0.41642228739002934,2.2903225806451615,0.1436950146627566,0.1466275659824047,0.14076246334310852,42.75,-84.99,0.3,"[[-0.97655581]
 [ 0.04608101]
 [ 0.21027431]]",[-0.03812209  0.3304588  -0.9430502 ],[-0.17570567  0.66702152 -0.72402335],[-0.85283551 -0.17257377  0.49283859],-24.222163367926882,17.60179537380531,-179.4662665464466,[0.96636975 0.20663838 0.15056001 0.0276001 ],[ 0.94466601  0.28777274  0.14948595 -0.04946646]
17:53:25.42,-2.8800000000000003,15.506666666666668,-46.46666666666667,41.72146341243902,39.631341463658536,-54.35422764439025,2.2023460410557183,2.1466275659824046,2.2903225806451615,0.1436950146627566,0.1495601173020528,0.1378299120234604,42.75,-84.99,0.3,"[[-0.19242594]
 [ 0.14412606]
 [ 0.97066984]]",[-0.04375024  0.29467771 -0.95459466],[-0.17570567  0.66702152 -0.72402335],[-0.85283551 -0.17257377  0.49283859],-22.24219529550118,-38.46416974740034,139.18426572349227,[ 0.89046622  0.05798447 -0.36642838  0.26351084],[ 0.938418    0.13954499 -0.26031565  0.17926131]
17:53:25.45,-2.04,13.826666666666668,-46.800000000000004,41.72146341243902,39.631341463658536,-54.35422764439025,2.2023460410557183,2.1466275659824046,2.2903225806451615,0.1436950146627566,0.1495601173020528,0.1378299120234604,42.75,-84.99,0.3,"[[-0.19242594]
 [ 0.14412606]
 [ 0.97066984]]",[-0.0270264   0.26339881 -0.96430838],[-0.17570567  0.66702152 -0.72402335],[-0.85283551 -0.17257377  0.49283859],-22.414174583632583,-38.1897090670074,139.16956835246833,[ 0.89091387  0.0601911  -0.36480449  0.26375592],[ 0.92630898  0.13520742 -0.28327821  0.20838448]
17:53:25.48,-2.04,13.826666666666668,-46.800000000000004,46.53853658317073,51.58256097585366,-67.28105691268293,2.196480938416422,2.131964809384164,2.2844574780058653,0.1436950146627566,0.1466275659824047,0.1348973607038123,42.75,-84.99,0.3,"[[-0.20539989]
 [ 0.14860988]
 [ 0.96732931]]",[-0.0270264   0.26339881 -0.96430838],[-0.17570567  0.66702152 -0.72402335],[-0.85283551 -0.17257377  0.49283859],-22.356711593158074,-37.49089099445348,140.30498663903262,[ 0.89496031  0.0656367  -0.35886924  0.25680875],[ 0.9320094   0.13837221 -0.26880052  0.19989467]
17:53:25.50,-1.0666666666666667,12.16,-47.2,46.90439024170732,40.48500000024391,-61.61032520536586,2.2111436950146626,2.126099706744868,2.2844574780058653,0.14076246334310852,0.1466275659824047,0.1348973607038123,42.75,-84.99,0.3,"[[-0.23052472]
 [ 0.12113005]
 [ 0.96549773]]",[-0.00766094  0.23157737 -0.97278632],[-0.17570567  0.66702152 -0.72402335],[-0.85283551 -0.17257377  0.49283859],-21.35429723272892,-36.813567202577985,145.6374983130241,[ 0.90808379  0.07629134 -0.34837693  0.21953808],[ 0.93694745  0.15323361 -0.2668705   0.16561726]
17:53:25.53,-0.06666666666666667,10.946666666666667,-47.413333333333334,54.58731707097561,41.15573170756098,-42.70788618097561,2.2111436950146626,2.1143695014662756,2.275659824046921,0.14076246334310852,0.1466275659824047,0.1378299120234604,42.75,-84.99,0.3,"[[-0.24163358]
 [ 0.10350535]
 [ 0.96483152]]",[ 0.01196248  0.20852886 -0.97794305],[-0.17570567  0.66702152 -0.72402335],[-0.85283551 -0.17257377  0.49283859],-20.77947630331728,-36.468472831562664,148.4248748446407,[ 0.91432407  0.08108968 -0.34276434  0.19987136],[ 0.9354087   0.16747368 -0.26057461  0.17048167]
17:53:25.56,0.9733333333333334,8.466666666666667,-47.413333333333334,54.58731707097561,41.15573170756098,-42.70788618097561,2.2111436950146626,2.1143695014662756,2.275659824046921,0.14076246334310852,0.1466275659824047,0.1378299120234604,42.75,-84.99,0.3,"[[-0.24163358]
 [ 0.10350535]
 [ 0.96483152]]",[ 0.03338671  0.16217901 -0.98619638],[-0.17570567  0.66702152 -0.72402335],[-0.85283551 -0.17257377  0.49283859],-21.584977689228634,-36.055194601206004,149.8027312421258,[ 0.91693683  0.09272639 -0.33988782  0.18736308],[ 0.93638348  0.17865766 -0.25617085  0.16013716]
17:53:25.58,0.9733333333333334,8.466666666666667,-47.413333333333334,65.13609755878049,35.911829268536586,-45.5737398395122,2.032258064516129,2.099706744868035,2.269794721407625,0.14076246334310852,0.1466275659824047,0.1378299120234604,42.75,-84.99,0.3,"[[-0.10296852]
 [ 0.36561075]
 [ 0.92505473]]",[ 0.03338671  0.16217901 -0.98619638],[-0.17570567  0.66702152 -0.72402335],[-0.85283551 -0.17257377  0.49283859],-29.020240373146585,-30.65440257047546,114.36974437874409,[ 0.82056935  0.0643997  -0.3460158   0.45032397],[ 0.85675953  0.16933514 -0.27265134  0.40367062]
17:53:25.61,0.9733333333333334,8.466666666666667,-47.32,61.11170731487805,16.58256097585366,-66.06154471756098,2.2170087976539588,2.096774193548387,2.2609970674486806,0.14076246334310852,0.1436950146627566,0.1378299120234604,42.75,-84.99,0.3,"[[-0.2602727 ]
 [ 0.07212889]
 [ 0.96283724]]",[ 0.03344721  0.16247289 -0.98614595],[-0.17570567  0.66702152 -0.72402335],[-0.85283551 -0.17257377  0.49283859],-20.986555087733077,-35.61655560080401,156.17132177848052,[ 0.92749425  0.10757556 -0.33003694  0.1387715 ],[ 0.9396042   0.19529268 -0.25657398  0.1147803 ]
17:53:25.64,1.5333333333333334,6.133333333333334,-47.78666666666667,38.611707314878046,3.5947560978048783,-64.17130081512195,2.2170087976539588,2.096774193548387,2.2609970674486806,0.14076246334310852,0.1436950146627566,0.1378299120234604,42.75,-84.99,0.3,"[[-0.2602727 ]
 [ 0.07212889]
 [ 0.96283724]]",[ 0.04539003  0.11675455 -0.99212304],[-0.17570567  0.66702152 -0.72402335],[-0.85283551 -0.17257377  0.49283859],-22.716689107584806,-35.203080635301006,159.829449737403,[ 0.93050311  0.132907   -0.32476502  0.10501129],[ 0.93248549  0.21533932 -0.28798556  0.0341188 ]
17:53:25.67,1.5333333333333334,6.133333333333334,-47.78666666666667,38.611707314878046,3.5947560978048783,-64.17130081512195,2.225806451612903,2.102639296187683,2.2521994134897363,0.1436950146627566,0.1466275659824047,0.1378299120234604,42.75,-84.99,0.3,"[[-0.25332056]
 [ 0.04975675]
 [ 0.96610194]]",[ 0.04539003  0.11675455 -0.99212304],[-0.17570567  0.66702152 -0.72402335],[-0.85283551 -0.17257377  0.49283859],-22.29920172877821,-35.82094653497647,162.76160856879804,[ 0.93194711  0.13670355 -0.32589398  0.08111624],[ 0.92828117  0.22471682 -0.29622903  0.00669265]
17:53:25.69,1.5866666666666667,4.626666666666667,-48.24,24.465365851463417,9.936219512439024,-53.43959349804879,2.228739002932551,2.102639296187683,2.2609970674486806,0.1436950146627566,0.1436950146627566,0.1378299120234604,42.75,-84.99,0.3,"[[-0.25750164]
 [ 0.05856643]
 [ 0.96450136]]",[ 0.04701818  0.08706791 -0.99509219],[-0.17570567  0.66702152 -0.72402335],[-0.85283551 -0.17257377  0.49283859],-24.158469829954484,-35.30479482216256,165.57896524220396,[ 0.93241123  0.16061497 -0.31921151  0.0540014 ],[ 0.93095617  0.22980722 -0.28333082 -0.0152609 ]
17:53:25.72,1.4800000000000002,4.093333333333334,-48.040000000000006,34.16048780268293,32.61914634170732,-49.41520325414635,2.2346041055718473,2.0879765395894427,2.2492668621700878,0.14076246334310852,0.1466275659824047,0.1378299120234604,42.75,-84.99,0.3,"[[-0.28516327]
 [ 0.02694094]
 [ 0.95810025]]",[ 0.04553391  0.07717665 -0.99597712],[-0.17570567  0.66702152 -0.72402335],[-0.85283551 -0.17257377  0.49283859],-25.42220048511034,-34.01142832664944,175.97085611685304,[ 0.9345248   0.20025492 -0.29251977 -0.03152056],[ 0.93180018  0.27234487 -0.22861472 -0.07288354]
17:53:25.75,2.4000000000000004,3.0933333333333337,-48.10666666666667,34.16048780268293,32.61914634170732,-49.41520325414635,2.2346041055718473,2.0879765395894427,2.2492668621700878,0.14076246334310852,0.1466275659824047,0.1378299120234604,42.75,-84.99,0.3,"[[-0.28516327]
 [ 0.02694094]
 [ 0.95810025]]",[ 0.06354296  0.05783978 -0.99630159],[-0.17570567  0.66702152 -0.72402335],[-0.85283551 -0.17257377  0.49283859],-26.383610101127925,-33.88832155937003,177.91921550605184,[ 0.93240044  0.21311668 -0.28766598 -0.04958822],[ 0.92678713  0.28910779 -0.21939566 -0.09668423]
