Time,MagX,MagY,MagZ,GyroX,GyroY,GyroZ,Tri11,Tri12,Tri13,Tri21,Tri22,Tri23,Lat,Lon,Alt,SunVect,MagVect,MagRef,SunRef,Roll,Pitch,Yaw,static_q,dynamic_q
17:40:54.89,0,0,0,0,0,0,0,0,0,0,0,0,42.75,-84.99,0.3,[0 0 1],[0 0 1],[-0.17570567  0.66702152 -0.72402335],[-0.85283551 -0.17257377  0.49283859],-6.421268564557994,-68.47479724422087,175.62752403483643,[ 8.26017140e-01  2.48387488e-02 -5.63097434e-01 -3.99003633e-13],[ 8.72780100e-01  2.15102261e-02 -4.87639423e-01 -3.45535052e-13]
17:40:54.90,0,0,0,0,0,0,0,0,0,0,0,0,42.75,-84.99,0.3,[0 0 1],[0 0 1],[-0.17570567  0.66702152 -0.72402335],[-0.85283551 -0.17257377  0.49283859],-6.421268564557994,-68.47479724422087,175.62752403483643,[ 8.26017140e-01  2.48387488e-02 -5.63097434e-01 -3.99003633e-13],[ 8.33257896e-01  2.43645547e-02 -5.52347397e-01 -3.91386294e-13]
17:40:54.93,0,0,0,0,0,0,0,0,0,0,0,0,42.75,-84.99,0.3,[0 0 1],[0 0 1],[-0.17570567  0.66702152 -0.72402335],[-0.85283551 -0.17257377  0.49283859],-6.421268564557994,-68.47479724422087,175.62752403483643,[ 8.26017140e-01  2.48387488e-02 -5.63097434e-01 -3.99003633e-13],[ 8.27082247e-01  2.47698227e-02 -5.61534872e-01 -3.97896421e-13]
17:40:54.96,0,0,0,0,0,0,0,0,0,0,0,0,42.75,-84.99,0.3,[0 0 1],[0 0 1],[-0.17570567  0.66702152 -0.72402335],[-0.85283551 -0.17257377  0.49283859],-6.421268564557994,-68.47479724422087,175.62752403483643,[ 8.26017140e-01  2.48387488e-02 -5.63097434e-01 -3.99003633e-13],[ 8.26172722e-01  2.48286982e-02 -5.62869585e-01 -3.98842182e-13]
17:40:54.98,0,0,0,0,0,0,0,0,0,0,0,0,42.75,-84.99,0.3,[0 0 1],[0 0 1],[-0.17570567  0.66702152 -0.72402335],[-0.85283551 -0.17257377  0.49283859],-6.421268564557994,-68.47479724422087,175.62752403483643,[ 8.26017140e-01  2.48387488e-02 -5.63097434e-01 -3.99003633e-13],[ 8.26039843e-01  2.48372826e-02 -5.63064194e-01 -3.98980079e-13]
17:40:55.01,0,0,0,0,0,0,0,0,0,0,0,0,42.75,-84.99,0.3,[0 0 1],[0 0 1],[-0.17570567  0.66702152 -0.72402335],[-0.85283551 -0.17257377  0.49283859],-6.421268564557994,-68.47479724422087,175.62752403483643,[ 8.26017140e-01  2.48387488e-02 -5.63097434e-01 -3.99003633e-13],[ 8.26020453e-01  2.48385349e-02 -5.63092585e-01 -3.99000196e-13]
17:40:55.03,0,0,0,0,0,0,0,0,0,0,0,0,42.75,-84.99,0.3,[0 0 1],[0 0 1],[-0.17570567  0.66702152 -0.72402335],[-0.85283551 -0.17257377  0.49283859],-6.421268564557994,-68.47479724422087,175.62752403483643,[ 8.26017140e-01  2.48387488e-02 -5.63097434e-01 -3.99003633e-13],[ 8.26017624e-01  2.48387176e-02 -5.63096727e-01 -3.99003131e-13]
17:40:55.06,0,0,0,0,0,0,0,0,0,0,0,0,42.75,-84.99,0.3,[0 0 1],[0 0 1],[-0.17570567  0.66702152 -0.72402335],[-0.85283551 -0.17257377  0.49283859],-6.421268564557994,-68.47479724422087,175.62752403483643,[ 8.26017140e-01  2.48387488e-02 -5.63097434e-01 -3.99003633e-13],[ 8.26017211e-01  2.48387443e-02 -5.63097331e-01 -3.99003560e-13]
17:40:55.09,0,0,0,0,0,0,0,0,0,0,0,0,42.75,-84.99,0.3,[0 0 1],[0 0 1],[-0.17570567  0.66702152 -0.72402335],[-0.85283551 -0.17257377  0.49283859],-6.421268564557994,-68.47479724422087,175.62752403483643,[ 8.26017140e-01  2.48387488e-02 -5.63097434e-01 -3.99003633e-13],[ 8.26017151e-01  2.48387482e-02 -5.63097419e-01 -3.99003622e-13]
17:40:55.12,0,0,0,0,0,0,0,0,0,0,0,0,42.75,-84.99,0.3,[0 0 1],[0 0 1],[-0.17570567  0.66702152 -0.72402335],[-0.85283551 -0.17257377  0.49283859],-6.421268564557994,-68.47479724422087,175.62752403483643,[ 8.26017140e-01  2.48387488e-02 -5.63097434e-01 -3.99003633e-13],[ 8.26017142e-01  2.48387487e-02 -5.63097432e-01 -3.99003631e-13]
17:40:55.14,0,0,0,0,0,0,0,0,0,0,0,0,42.75,-84.99,0.3,[0 0 1],[0 0 1],[-0.17570567  0.66702152 -0.72402335],[-0.85283551 -0.17257377  0.49283859],-6.421268564557994,-68.47479724422087,175.62752403483643,[ 8.26017140e-01  2.48387488e-02 -5.63097434e-01 -3.99003633e-13],[ 8.26017141e-01  2.48387488e-02 -5.63097434e-01 -3.99003633e-13]
17:40:55.17,0,0,0,0,0,0,0,0,0,0,0,0,42.75,-84.99,0.3,[0 0 1],[0 0 1],[-0.17570567  0.66702152 -0.72402335],[-0.85283551 -0.17257377  0.49283859],-6.421268564557994,-68.47479724422087,175.62752403483643,[ 8.26017140e-01  2.48387488e-02 -5.63097434e-01 -3.99003633e-13],[ 8.26017140e-01  2.48387488e-02 -5.63097434e-01 -3.99003633e-13]
17:40:55.20,0,0,0,0,0,0,0,0,0,0,0,0,42.75,-84.99,0.3,[0 0 1],[0 0 1],[-0.17570567  0.66702152 -0.72402335],[-0.85283551 -0.17257377  0.49283859],-6.421268564557994,-68.47479724422087,175.62752403483643,[ 8.26017140e-01  2.48387488e-02 -5.63097434e-01 -3.99003633e-13],[ 8.26017140e-01  2.48387488e-02 -5.63097434e-01 -3.99003633e-13]
17:40:55.23,0,0,0,0,0,0,0,0,0,0,0,0,42.75,-84.99,0.3,[0 0 1],[0 0 1],[-0.17570567  0.66702152 -0.72402335],[-0.85283551 -0.17257377  0.49283859],-6.421268564557994,-68.47479724422087,175.62752403483643,[ 8.26017140e-01  2.48387488e-02 -5.63097434e-01 -3.99003633e-13],[ 8.26017140e-01  2.48387488e-02 -5.63097434e-01 -3.99003633e-13]
17:40:55.25,0,0,0,0,0,0,0,0,0,0,0,0,42.75,-84.99,0.3,[0 0 1],[0 0 1],[-0.17570567  0.66702152 -0.72402335],[-0.85283551 -0.17257377  0.49283859],-6.421268564557994,-68.47479724422087,175.62752403483643,[ 8.26017140e-01  2.48387488e-02 -5.63097434e-01 -3.99003633e-13],[ 8.26017140e-01  2.48387488e-02 -5.63097434e-01 -3.99003633e-13]
17:40:55.28,0,0,0,0,0,0,0,0,0,0,0,0,42.75,-84.99,0.3,[0 0 1],[0 0 1],[-0.17570567  0.66702152 -0.72402335],[-0.85283551 -0.17257377  0.49283859],-6.421268564557994,-68.47479724422087,175.62752403483643,[ 8.26017140e-01  2.48387488e-02 -5.63097434e-01 -3.99003633e-13],[ 8.26017140e-01  2.48387488e-02 -5.63097434e-01 -3.99003633e-13]
17:40:55.31,0,0,0,0,0,0,0,0,0,0,0,0,42.75,-84.99,0.3,[0 0 1],[0 0 1],[-0.17570567  0.66702152 -0.72402335],[-0.85283551 -0.17257377  0.49283859],-6.421268564557994,-68.47479724422087,175.62752403483643,[ 8.26017140e-01  2.48387488e-02 -5.63097434e-01 -3.99003633e-13],[ 8.26017140e-01  2.48387488e-02 -5.63097434e-01 -3.99003633e-13]
17:40:55.33,0,0,0,0,0,0,0,0,0,0,0,0,42.75,-84.99,0.3,[0 0 1],[0 0 1],[-0.17570567  0.66702152 -0.72402335],[-0.85283551 -0.17257377  0.49283859],-6.421268564557994,-68.47479724422087,175.62752403483643,[ 8.26017140e-01  2.48387488e-02 -5.63097434e-01 -3.99003633e-13],[ 8.26017140e-01  2.48387488e-02 -5.63097434e-01 -3.99003633e-13]
17:40:55.36,0,0,0,0,0,0,0,0,0,0,0,0,42.75,-84.99,0.3,[0 0 1],[0 0 1],[-0.17570567  0.66702152 -0.72402335],[-0.85283551 -0.17257377  0.49283859],-6.421268564557994,-68.47479724422087,175.62752403483643,[ 8.26017140e-01  2.48387488e-02 -5.63097434e-01 -3.99003633e-13],[ 8.26017140e-01  2.48387488e-02 -5.63097434e-01 -3.99003633e-13]
17:40:55.39,0,0,0,0,0,0,0,0,0,0,0,0,42.75,-84.99,0.3,[0 0 1],[0 0 1],[-0.17570567  0.66702152 -0.72402335],[-0.85283551 -0.17257377  0.49283859],-6.421268564557994,-68.47479724422087,175.62752403483643,[ 8.26017140e-01  2.48387488e-02 -5.63097434e-01 -3.99003633e-13],[ 8.26017140e-01  2.48387488e-02 -5.63097434e-01 -3.99003633e-13]
17:40:55.42,0,0,0,0,0,0,0,0,0,0,0,0,42.75,-84.99,0.3,[0 0 1],[0 0 1],[-0.17570567  0.66702152 -0.72402335],[-0.85283551 -0.17257377  0.49283859],-6.421268564557994,-68.47479724422087,175.62752403483643,[ 8.26017140e-01  2.48387488e-02 -5.63097434e-01 -3.99003633e-13],[ 8.26017140e-01  2.48387488e-02 -5.63097434e-01 -3.99003633e-13]
17:40:55.44,0,0,0,0,0,0,0,0,0,0,0,0,42.75,-84.99,0.3,[0 0 1],[0 0 1],[-0.17570567  0.66702152 -0.72402335],[-0.85283551 -0.17257377  0.49283859],-6.421268564557994,-68.47479724422087,175.62752403483643,[ 8.26017140e-01  2.48387488e-02 -5.63097434e-01 -3.99003633e-13],[ 8.26017140e-01  2.48387488e-02 -5.63097434e-01 -3.99003633e-13]
17:40:55.47,0,0,0,0,0,0,0,0,0,0,0,0,42.75,-84.99,0.3,[0 0 1],[0 0 1],[-0.17570567  0.66702152 -0.72402335],[-0.85283551 -0.17257377  0.49283859],-6.421268564557994,-68.47479724422087,175.62752403483643,[ 8.26017140e-01  2.48387488e-02 -5.63097434e-01 -3.99003633e-13],[ 8.26017140e-01  2.48387488e-02 -5.63097434e-01 -3.99003633e-13]
17:40:55.50,0,0,0,0,0,0,0,0,0,0,0,0,42.75,-84.99,0.3,[0 0 1],[0 0 1],[-0.17570567  0.66702152 -0.72402335],[-0.85283551 -0.17257377  0.49283859],-6.421268564557994,-68.47479724422087,175.62752403483643,[ 8.26017140e-01  2.48387488e-02 -5.63097434e-01 -3.99003633e-13],[ 8.26017140e-01  2.48387488e-02 -5.63097434e-01 -3.99003633e-13]
17:40:55.53,0,0,0,0,0,0,0,0,0,0,0,0,42.75,-84.99,0.3,[0 0 1],[0 0 1],[-0.17570567  0.66702152 -0.72402335],[-0.85283551 -0.17257377  0.49283859],-6.421268564557994,-68.47479724422087,175.62752403483643,[ 8.26017140e-01  2.48387488e-02 -5.63097434e-01 -3.99003633e-13],[ 8.26017140e-01  2.48387488e-02 -5.63097434e-01 -3.99003633e-13]
17:40:55.55,0,0,0,0,0,0,0,0,0,0,0,0,42.75,-84.99,0.3,[0 0 1],[0 0 1],[-0.17570567  0.66702152 -0.72402335],[-0.85283551 -0.17257377  0.49283859],-6.421268564557994,-68.47479724422087,175.62752403483643,[ 8.26017140e-01  2.48387488e-02 -5.63097434e-01 -3.99003633e-13],[ 8.26017140e-01  2.48387488e-02 -5.63097434e-01 -3.99003633e-13]
17:40:55.58,0,0,0,0,0,0,0,0,0,0,0,0,42.75,-84.99,0.3,[0 0 1],[0 0 1],[-0.17570567  0.66702152 -0.72402335],[-0.85283551 -0.17257377  0.49283859],-6.421268564557994,-68.47479724422087,175.62752403483643,[ 8.26017140e-01  2.48387488e-02 -5.63097434e-01 -3.99003633e-13],[ 8.26017140e-01  2.48387488e-02 -5.63097434e-01 -3.99003633e-13]
17:40:55.60,0,0,0,0,0,0,0,0,0,0,0,0,42.75,-84.99,0.3,[0 0 1],[0 0 1],[-0.17570567  0.66702152 -0.72402335],[-0.85283551 -0.17257377  0.49283859],-6.421268564557994,-68.47479724422087,175.62752403483643,[ 8.26017140e-01  2.48387488e-02 -5.63097434e-01 -3.99003633e-13],[ 8.26017140e-01  2.48387488e-02 -5.63097434e-01 -3.99003633e-13]
17:40:55.63,0,0,0,0,0,0,0,0,0,0,0,0,42.75,-84.99,0.3,[0 0 1],[0 0 1],[-0.17570567  0.66702152 -0.72402335],[-0.85283551 -0.17257377  0.49283859],-6.421268564557994,-68.47479724422087,175.62752403483643,[ 8.26017140e-01  2.48387488e-02 -5.63097434e-01 -3.99003633e-13],[ 8.26017140e-01  2.48387488e-02 -5.63097434e-01 -3.99003633e-13]
17:40:55.66,0,0,0,0,0,0,0,0,0,0,0,0,42.75,-84.99,0.3,[0 0 1],[0 0 1],[-0.17570567  0.66702152 -0.72402335],[-0.85283551 -0.17257377  0.49283859],-6.421268564557994,-68.47479724422087,175.62752403483643,[ 8.26017140e-01  2.48387488e-02 -5.63097434e-01 -3.99003633e-13],[ 8.26017140e-01  2.48387488e-02 -5.63097434e-01 -3.99003633e-13]
17:40:55.69,0,0,0,0,0,0,0,0,0,0,0,0,42.75,-84.99,0.3,[0 0 1],[0 0 1],[-0.17570567  0.66702152 -0.72402335],[-0.85283551 -0.17257377  0.49283859],-6.421268564557994,-68.47479724422087,175.62752403483643,[ 8.26017140e-01  2.48387488e-02 -5.63097434e-01 -3.99003633e-13],[ 8.26017140e-01  2.48387488e-02 -5.63097434e-01 -3.99003633e-13]
17:40:55.71,0,0,0,0,0,0,0,0,0,0,0,0,42.75,-84.99,0.3,[0 0 1],[0 0 1],[-0.17570567  0.66702152 -0.72402335],[-0.85283551 -0.17257377  0.49283859],-6.421268564557994,-68.47479724422087,175.62752403483643,[ 8.26017140e-01  2.48387488e-02 -5.63097434e-01 -3.99003633e-13],[ 8.26017140e-01  2.48387488e-02 -5.63097434e-01 -3.99003633e-13]
17:40:55.74,0,0,0,0,0,0,0,0,0,0,0,0,42.75,-84.99,0.3,[0 0 1],[0 0 1],[-0.17570567  0.66702152 -0.72402335],[-0.85283551 -0.17257377  0.49283859],-6.421268564557994,-68.47479724422087,175.62752403483643,[ 8.26017140e-01  2.48387488e-02 -5.63097434e-01 -3.99003633e-13],[ 8.26017140e-01  2.48387488e-02 -5.63097434e-01 -3.99003633e-13]
17:40:55.77,0,0,0,0,0,0,0,0,0,0,0,0,42.75,-84.99,0.3,[0 0 1],[0 0 1],[-0.17570567  0.66702152 -0.72402335],[-0.85283551 -0.17257377  0.49283859],-6.421268564557994,-68.47479724422087,175.62752403483643,[ 8.26017140e-01  2.48387488e-02 -5.63097434e-01 -3.99003633e-13],[ 8.26017140e-01  2.48387488e-02 -5.63097434e-01 -3.99003633e-13]
17:40:55.80,0,0,0,0,0,0,0,0,0,0,0,0,42.75,-84.99,0.3,[0 0 1],[0 0 1],[-0.17570567  0.66702152 -0.72402335],[-0.85283551 -0.17257377  0.49283859],-6.421268564557994,-68.47479724422087,175.62752403483643,[ 8.26017140e-01  2.48387488e-02 -5.63097434e-01 -3.99003633e-13],[ 8.26017140e-01  2.48387488e-02 -5.63097434e-01 -3.99003633e-13]
17:40:55.82,-27.400000000000002,19.293333333333333,-24.90666666666667,0.13609755878048785,0.05817073195121941,0.34089430682926836,0.008797653958944282,0.01466275659824047,0.008797653958944282,0.0,0.0,0.0,42.75,-84.99,0.3,[0 0 1],[-0.60893741  0.44081913 -0.65944956],[-0.17570567  0.66702152 -0.72402335],[-0.85283551 -0.17257377  0.49283859],-21.958863123722907,-55.12870508290007,166.2156454293854,[ 0.87455225  0.1131046  -0.47125242  0.01693704],[ 0.86854447  0.10018724 -0.48514142  0.01519285]
17:40:55.85,-27.360000000000003,19.293333333333333,-24.893333333333334,0.1970731685365854,0.18012195146341453,0.21894308731707324,0.011730205278592375,0.01466275659824047,0.008797653958944282,0.0,0.0,0.0,42.75,-84.99,0.3,[0 0 1],[-0.60850468  0.4411602  -0.6596209 ],[-0.17570567  0.66702152 -0.72402335],[-0.85283551 -0.17257377  0.49283859],-21.960234650987058,-55.12677549598208,166.17411551057216,[ 0.87455196  0.11294751 -0.47127922  0.01725209],[ 0.87381814  0.1112105  -0.47303915  0.01755097]
17:40:55.88,-27.373333333333335,19.293333333333333,-24.893333333333334,0.1970731685365854,0.18012195146341453,0.21894308731707324,0.011730205278592375,0.01466275659824047,0.008797653958944282,0.0,0.0,0.0,42.75,-84.99,0.3,[0 0 1],[-0.60869061  0.44107661 -0.65950524],[-0.17570567  0.66702152 -0.72402335],[-0.85283551 -0.17257377  0.49283859],-21.9593088555403,-55.12807800975758,166.18835202433564,[ 0.87455011  0.11299681 -0.47127474  0.01714472],[ 0.87456029  0.11286525 -0.47126291  0.01780447]
17:40:55.91,-27.373333333333335,19.293333333333333,-24.893333333333334,0.25804877829268297,0.2410975612195121,0.15796747756097573,0.011730205278592375,0.01466275659824047,0.008797653958944282,0.0,0.0,0.0,42.75,-84.99,0.3,[0 0 1],[-0.60869061  0.44107661 -0.65950524],[-0.17570567  0.66702152 -0.72402335],[-0.85283551 -0.17257377  0.49283859],-21.9593088555403,-55.12807800975758,166.18835202433564,[ 0.87455011  0.11299681 -0.47127474  0.01714472],[ 0.87471267  0.11326733 -0.47088341  0.01780676]
17:40:55.93,-27.386666666666667,19.293333333333333,-24.06666666666667,0.5629268270731709,0.05817073195121941,0.34089430682926836,0.011730205278592375,0.01466275659824047,0.008797653958944282,0.0,0.0,0.0,42.75,-84.99,0.3,[0 0 1],[-0.61664495  0.44661955 -0.64829005],[-0.17570567  0.66702152 -0.72402335],[-0.85283551 -0.17257377  0.49283859],-21.869676871177518,-55.25374805061909,166.27541341630354,[ 0.8741781   0.11246103 -0.47211165  0.01660618],[ 0.87417329  0.11323104 -0.47188897  0.01790483]
17:40:55.96,-27.96,19.16,-24.706666666666667,0.3190243880487805,-0.0028048778048781475,0.09699186780487812,0.011730205278592375,0.011730205278592375,0.008797653958944282,0.0,0.0,0.0,42.75,-84.99,0.3,[0 0 1],[-0.61925253  0.43618562 -0.65289234],[-0.17570567  0.66702152 -0.72402335],[-0.85283551 -0.17257377  0.49283859],-21.906424503956593,-55.20232923477674,167.00015779544,[ 0.87442291  0.11580848 -0.47101109  0.01102408],[ 0.87431355  0.11589271 -0.47115672  0.01249137]
17:40:55.99,-27.666666666666668,19.213333333333335,-24.400000000000002,0.3190243880487805,-0.0028048778048781475,0.09699186780487812,0.011730205278592375,0.011730205278592375,0.008797653958944282,0.0,0.0,0.0,42.75,-84.99,0.3,[0 0 1],[-0.61782831  0.44107273 -0.65095547],[-0.17570567  0.66702152 -0.72402335],[-0.85283551 -0.17257377  0.49283859],-21.906424503956593,-55.20232923477674,167.00015779544,[ 0.87442291  0.11580848 -0.47101109  0.01102408],[ 0.87432954  0.11628073 -0.47105173  0.01170106]
17:40:56.01,-27.666666666666668,19.213333333333335,-24.400000000000002,0.13609755878048785,0.3020731709756097,0.03601625804878056,0.011730205278592375,0.01466275659824047,0.011730205278592375,0.0,0.0,0.0,42.75,-84.99,0.3,[0 0 1],[-0.61782831  0.44107273 -0.65095547],[-0.17570567  0.66702152 -0.72402335],[-0.85283551 -0.17257377  0.49283859],-21.89095371729433,-55.223994151021195,166.64939389199264,[ 0.87431876  0.11421249 -0.47152296  0.01372267],[ 0.87456921  0.11470847 -0.47093881  0.01368546]
17:40:56.04,-27.413333333333334,19.32,-23.96,0.1970731685365854,0.18012195146341453,0.03601625804878056,0.008797653958944282,0.01466275659824047,0.008797653958944282,0.0,0.0,0.0,42.75,-84.99,0.3,[0 0 1],[-0.61786777  0.44766957 -0.64639878],[-0.17570567  0.66702152 -0.72402335],[-0.85283551 -0.17257377  0.49283859],-21.854588918242523,-55.2748180953558,166.27781610185917,[ 0.8741138   0.11232067 -0.47226397  0.01660935],[ 0.87430297  0.11297068 -0.47176343  0.01646861]
17:40:56.07,-27.30666666666667,19.26666666666667,-24.866666666666667,0.25804877829268297,0.11914634170731697,-0.14691057121951212,0.011730205278592375,0.01466275659824047,0.008797653958944282,0.0,0.0,0.0,42.75,-84.99,0.3,[0 0 1],[-0.60815687  0.44118355 -0.65992598],[-0.17570567  0.66702152 -0.72402335],[-0.85283551 -0.17257377  0.49283859],-21.962676972461317,-55.123338920317686,166.15510202016398,[ 0.87455959  0.11289372 -0.47127273  0.01739383],[ 0.87458008  0.11348251 -0.47109774  0.01727215]
17:40:56.10,-27.30666666666667,19.26666666666667,-24.866666666666667,0.25804877829268297,0.11914634170731697,-0.14691057121951212,0.011730205278592375,0.01466275659824047,0.008797653958944282,0.0,0.0,0.0,42.75,-84.99,0.3,[0 0 1],[-0.60815687  0.44118355 -0.65992598],[-0.17570567  0.66702152 -0.72402335],[-0.85283551 -0.17257377  0.49283859],-21.962676972461317,-55.123338920317686,166.15510202016398,[ 0.87455959  0.11289372 -0.47127273  0.01739383],[ 0.87462064  0.11355699 -0.47100017  0.01738909]
17:40:56.12,-27.386666666666667,19.28,-24.853333333333335,0.07512194902439026,0.3630487807317072,0.27991869707317085,0.011730205278592375,0.01466275659824047,0.008797653958944282,0.0,0.0,0.0,42.75,-84.99,0.3,[0 0 1],[-0.6093245   0.44101811 -0.65895878],[-0.17570567  0.66702152 -0.72402335],[-0.85283551 -0.17257377  0.49283859],-21.954934908521974,-55.13423052943636,166.22388131963066,[ 0.87453657  0.11309924 -0.47128486  0.01687963],[ 0.87485955  0.11302318 -0.47067739  0.01758768]
17:40:56.15,-27.413333333333334,19.28,-24.493333333333336,0.07512194902439026,0.05817073195121941,0.27991869707317085,0.008797653958944282,0.01466275659824047,0.008797653958944282,0.0,0.0,0.0,42.75,-84.99,0.3,[0 0 1],[-0.61307318  0.44329279 -0.65393637],[-0.17570567  0.66702152 -0.72402335],[-0.85283551 -0.17257377  0.49283859],-21.91476713636915,-55.190635807680366,166.28375498438965,[ 0.87437271  0.11294475 -0.47164002  0.01647881],[ 0.87447175  0.11282405 -0.47145927  0.01720609]
17:40:56.17,-27.346666666666668,19.30666666666667,-24.933333333333334,0.3190243880487805,-0.0028048778048781475,0.34089430682926836,0.008797653958944282,0.01466275659824047,0.008797653958944282,0.0,0.0,0.0,42.75,-84.99,0.3,[0 0 1],[-0.60787095  0.4412182  -0.6601662 ],[-0.17570567  0.66702152 -0.72402335],[-0.85283551 -0.17257377  0.49283859],-21.964600150622854,-55.1206323773675,166.13857730562327,[ 0.87456535  0.11284498 -0.47126915  0.01751729],[ 0.874466    0.11307511 -0.47136643  0.01835551]
17:40:56.20,-27.346666666666668,19.30666666666667,-24.933333333333334,0.3190243880487805,-0.0028048778048781475,0.34089430682926836,0.008797653958944282,0.01466275659824047,0.008797653958944282,0.0,0.0,0.0,42.75,-84.99,0.3,[0 0 1],[-0.60787095  0.4412182  -0.6601662 ],[-0.17570567  0.66702152 -0.72402335],[-0.85283551 -0.17257377  0.49283859],-21.964600150622854,-55.1206323773675,166.13857730562327,[ 0.87456535  0.11284498 -0.47126915  0.01751729],[ 0.87446506  0.11311191 -0.47135278  0.01852316]
17:40:56.23,-27.30666666666667,19.333333333333336,-24.866666666666667,-0.04682927048780487,0.2410975612195121,0.40186991658536597,0.008797653958944282,0.017595307917888565,0.008797653958944282,0.0,0.0,0.0,42.75,-84.99,0.3,[0 0 1],[-0.60778845  0.44241395 -0.6594415 ],[-0.17570567  0.66702152 -0.72402335],[-0.85283551 -0.17257377  0.49283859],-21.95879864188877,-55.12879579672488,166.06588913639527,[ 0.87452909  0.112488   -0.4714005   0.01808004],[ 0.87473924  0.11211598 -0.47106902  0.01884778]
17:40:56.26,-27.346666666666668,19.293333333333333,-25.186666666666667,0.25804877829268297,-0.06378048756097576,0.09699186780487812,0.011730205278592375,0.01466275659824047,0.008797653958944282,0.0,0.0,0.0,42.75,-84.99,0.3,[0 0 1],[-0.60557777  0.4392557  -0.66357365],[-0.17570567  0.66702152 -0.72402335],[-0.85283551 -0.17257377  0.49283859],-21.991895427633494,-55.082176109347635,166.13466173004883,[ 0.87468226  0.11310184 -0.4709908   0.01750964],[ 0.87457084  0.11331535 -0.47112414  0.01809772]
17:40:56.28,-27.346666666666668,19.32,-24.84,0.13609755878048785,-0.12475609731707327,0.34089430682926836,0.011730205278592375,0.01466275659824047,0.008797653958944282,0.0,0.0,0.0,42.75,-84.99,0.3,[0 0 1],[-0.60867036  0.44209797 -0.65883972],[-0.17570567  0.66702152 -0.72402335],[-0.85283551 -0.17257377  0.49283859],-21.95398203266981,-55.135570599709965,166.12882690124613,[ 0.87451817  0.11269874 -0.47138835  0.01760638],[ 0.87436734  0.11271118 -0.47163618  0.0183644 ]
17:40:56.31,-27.346666666666668,19.32,-24.84,0.13609755878048785,-0.12475609731707327,0.34089430682926836,0.011730205278592375,0.01466275659824047,0.008797653958944282,0.0,0.0,0.0,42.75,-84.99,0.3,[0 0 1],[-0.60867036  0.44209797 -0.65883972],[-0.17570567  0.66702152 -0.72402335],[-0.85283551 -0.17257377  0.49283859],-21.95398203266981,-55.135570599709965,166.12882690124613,[ 0.87451817  0.11269874 -0.47138835  0.01760638],[ 0.87433781  0.11262274 -0.47171052  0.01840346]
17:40:56.34,-27.360000000000003,19.293333333333333,-24.893333333333334,0.014146339268292701,0.11914634170731697,-0.08593496146341456,0.011730205278592375,0.01466275659824047,0.008797653958944282,0.0,0.0,0.0,42.75,-84.99,0.3,[0 0 1],[-0.60850468  0.4411602  -0.6596209 ],[-0.17570567  0.66702152 -0.72402335],[-0.85283551 -0.17257377  0.49283859],-21.960234650987058,-55.12677549598208,166.17411551057216,[ 0.87455196  0.11294751 -0.47127922  0.01725209],[ 0.87463134  0.11300009 -0.47111708  0.01731155]
17:40:56.37,-27.360000000000003,19.30666666666667,-25.16,0.014146339268292701,0.05817073195121941,0.15796747756097573,0.008797653958944282,0.01466275659824047,0.008797653958944282,0.0,0.0,0.0,42.75,-84.99,0.3,[0 0 1],[-0.60594017  0.439599   -0.66301525],[-0.17570567  0.66702152 -0.72402335],[-0.85283551 -0.17257377  0.49283859],-21.987420435680544,-55.088486409209665,166.1333485089771,[ 0.87466278  0.11305168 -0.47103841  0.0175258 ],[ 0.87470359  0.11291982 -0.47098424  0.01779304]
17:40:56.39,-27.346666666666668,19.30666666666667,-24.853333333333335,0.07512194902439026,0.11914634170731697,0.15796747756097573,0.011730205278592375,0.01466275659824047,0.008797653958944282,0.0,0.0,0.0,42.75,-84.99,0.3,[0 0 1],[-0.60861936  0.44176143 -0.65911252],[-0.17570567  0.66702152 -0.72402335],[-0.85283551 -0.17257377  0.49283859],-21.956165339805676,-55.13249997691851,166.14549736844333,[ 0.87453012  0.11278914 -0.47134942  0.01747613],[ 0.87464388  0.1127869  -0.47112324  0.01789108]
17:40:56.42,-27.346666666666668,19.30666666666667,-24.853333333333335,0.07512194902439026,0.11914634170731697,0.15796747756097573,0.011730205278592375,0.01466275659824047,0.008797653958944282,0.0,0.0,0.0,42.75,-84.99,0.3,[0 0 1],[-0.60861936  0.44176143 -0.65911252],[-0.17570567  0.66702152 -0.72402335],[-0.85283551 -0.17257377  0.49283859],-21.956165339805676,-55.13249997691851,166.14549736844333,[ 0.87453012  0.11278914 -0.47134942  0.01747613],[ 0.87463519  0.11276743 -0.47114348  0.01790535]
17:40:56.45,-27.333333333333336,19.30666666666667,-24.893333333333334,0.014146339268292701,0.4850000002439024,-0.024959351707317,0.008797653958944282,0.01466275659824047,0.008797653958944282,0.0,0.0,0.0,42.75,-84.99,0.3,[0 0 1],[-0.60805894  0.44157339 -0.65975546],[-0.17570567  0.66702152 -0.72402335],[-0.85283551 -0.17257377  0.49283859],-21.961311867118162,-55.12525983065619,166.1277778529523,[ 0.87454954  0.1127677  -0.47131373  0.01760425],[ 0.87501004  0.11279808 -0.47044638  0.0177261 ]
17:40:56.48,-27.333333333333336,19.30666666666667,-24.933333333333334,0.3799999978048781,0.05817073195121941,0.27991869707317085,0.011730205278592375,0.01466275659824047,0.008797653958944282,0.0,0.0,0.0,42.75,-84.99,0.3,[0 0 1],[-0.60768479  0.44130169 -0.66028177],[-0.17570567  0.66702152 -0.72402335],[-0.85283551 -0.17257377  0.49283859],-21.965525511603158,-55.11932994920135,166.1243210866959,[ 0.87456714  0.1127956  -0.47127363  0.01762481],[ 0.87459117  0.11318982 -0.47110142  0.01848787]
17:40:56.50,-27.30666666666667,19.293333333333333,-24.866666666666667,0.3799999978048781,0.05817073195121941,0.27991869707317085,0.011730205278592375,0.01466275659824047,0.008797653958944282,0.0,0.0,0.0,42.75,-84.99,0.3,[0 0 1],[-0.60800958  0.44167601 -0.65973226],[-0.17570567  0.66702152 -0.72402335],[-0.85283551 -0.17257377  0.49283859],-21.96112612960279,-55.12552117605992,166.11938868331023,[ 0.87454745  0.11273133 -0.4713239   0.01766853],[ 0.87451318  0.1131914  -0.47123993  0.01863667]
17:40:56.53,-27.30666666666667,19.293333333333333,-24.866666666666667,0.13609755878048785,0.18012195146341453,0.40186991658536597,0.011730205278592375,0.01466275659824047,0.008797653958944282,0.0,0.0,0.0,42.75,-84.99,0.3,[0 0 1],[-0.60800958  0.44167601 -0.65973226],[-0.17570567  0.66702152 -0.72402335],[-0.85283551 -0.17257377  0.49283859],-21.96112612960279,-55.12552117605992,166.11938868331023,[ 0.87454745  0.11273133 -0.4713239   0.01766853],[ 0.87466495  0.11265316 -0.47108593  0.01866931]
17:40:56.56,-27.360000000000003,19.30666666666667,-24.893333333333334,0.1970731685365854,0.11914634170731697,-0.024959351707317,0.011730205278592375,0.01466275659824047,0.008797653958944282,0.0,0.0,0.0,42.75,-84.99,0.3,[0 0 1],[-0.60843111  0.44140613 -0.65952423],[-0.17570567  0.66702152 -0.72402335],[-0.85283551 -0.17257377  0.49283859],-21.959460842895,-55.12786418306266,166.15628190517432,[ 0.87454593  0.11286643 -0.47130478  0.01738927],[ 0.87463125  0.11319398 -0.47105467  0.01774248]
17:40:56.58,-27.373333333333335,19.293333333333333,-25.813333333333336,0.1970731685365854,0.05817073195121941,0.09699186780487812,0.011730205278592375,0.01466275659824047,0.008797653958944282,0.0,0.0,0.0,42.75,-84.99,0.3,[0 0 1],[-0.60012567  0.43487017 -0.67136958],[-0.17570567  0.66702152 -0.72402335],[-0.85283551 -0.17257377  0.49283859],-22.054452952219318,-54.99373601930942,166.11035651597777,[ 0.87494832  0.11362837 -0.47036572  0.01761031],[ 0.87490857  0.11381269 -0.47038061  0.01799285]
17:40:56.61,-27.333333333333336,19.30666666666667,-24.893333333333334,0.1970731685365854,0.05817073195121941,0.09699186780487812,0.011730205278592375,0.01466275659824047,0.008797653958944282,0.0,0.0,0.0,42.75,-84.99,0.3,[0 0 1],[-0.60805894  0.44157339 -0.65975546],[-0.17570567  0.66702152 -0.72402335],[-0.85283551 -0.17257377  0.49283859],-21.961311867118162,-55.12525983065619,166.1277778529523,[ 0.87454954  0.1127677  -0.47131373  0.01760425],[ 0.8746086   0.11316814 -0.47109223  0.01802408]
17:40:56.64,-27.333333333333336,19.30666666666667,-24.893333333333334,0.3190243880487805,0.3020731709756097,0.21894308731707324,0.008797653958944282,0.01466275659824047,0.008797653958944282,0.0,0.0,0.0,42.75,-84.99,0.3,[0 0 1],[-0.60805894  0.44157339 -0.65975546],[-0.17570567  0.66702152 -0.72402335],[-0.85283551 -0.17257377  0.49283859],-21.961311867118162,-55.12525983065619,166.1277778529523,[ 0.87454954  0.1127677  -0.47131373  0.01760425],[ 0.87475979  0.11316215 -0.47079807  0.01840673]
17:40:56.67,-27.32,19.333333333333336,-24.893333333333334,0.3799999978048781,0.11914634170731697,0.15796747756097573,0.011730205278592375,0.01466275659824047,0.008797653958944282,0.0,0.0,0.0,42.75,-84.99,0.3,[0 0 1],[-0.60772545  0.44214875 -0.65967739],[-0.17570567  0.66702152 -0.72402335],[-0.85283551 -0.17257377  0.49283859],-21.96068688085449,-55.1261392143943,166.07785981762802,[ 0.8745391   0.11255612 -0.47136926  0.01798608],[ 0.87459163  0.11314899 -0.47110203  0.01869919]
17:40:56.69,-27.46666666666667,19.28,-25.653333333333336,0.25804877829268297,0.54597561,0.34089430682926836,0.008797653958944282,0.011730205278592375,0.011730205278592375,0.0,0.0,0.0,42.75,-84.99,0.3,[0 0 1],[-0.60298068  0.43513513 -0.66863422],[-0.17570567  0.66702152 -0.72402335],[-0.85283551 -0.17257377  0.49283859],-22.032485674698908,-55.02484019551004,166.24090397984367,[ 0.87487303  0.11394433 -0.47046452  0.01664325],[ 0.8752693   0.11393654 -0.46968284  0.01789247]
17:40:56.72,-27.333333333333336,19.26666666666667,-24.880000000000003,0.25804877829268297,0.54597561,0.34089430682926836,0.008797653958944282,0.011730205278592375,0.011730205278592375,0.0,0.0,0.0,42.75,-84.99,0.3,[0 0 1],[-0.6084045   0.44092567 -0.65987008],[-0.17570567  0.66702152 -0.72402335],[-0.85283551 -0.17257377  0.49283859],-21.96222945432611,-55.12396866827653,166.18247389597107,[ 0.87456179  0.11300182 -0.47125037  0.01718554],[ 0.87510184  0.11324872 -0.47014769  0.01823855]
17:40:56.75,-27.333333333333336,19.26666666666667,-24.880000000000003,0.014146339268292701,0.05817073195121941,0.21894308731707324,0.008797653958944282,0.01466275659824047,0.011730205278592375,0.0,0.0,0.0,42.75,-84.99,0.3,[0 0 1],[-0.6084045   0.44092567 -0.65987008],[-0.17570567  0.66702152 -0.72402335],[-0.85283551 -0.17257377  0.49283859],-21.96222945432611,-55.12396866827653,166.18247389597107,[ 0.87456179  0.11300182 -0.47125037  0.01718554],[ 0.87468388  0.11285726 -0.47103772  0.01774303]
17:40:56.77,-27.386666666666667,19.293333333333333,-24.866666666666667,0.1970731685365854,0.18012195146341453,0.21894308731707324,0.011730205278592375,0.01466275659824047,0.008797653958944282,0.0,0.0,0.0,42.75,-84.99,0.3,[0 0 1],[-0.609126    0.44117377 -0.6590381 ],[-0.17570567  0.66702152 -0.72402335],[-0.85283551 -0.17257377  0.49283859],-21.955569745525484,-55.133337676798874,166.2048880323359,[ 0.87453649  0.11302747 -0.47129705  0.0170237 ],[ 0.87467397  0.11313288 -0.47099052  0.01772932]
17:40:56.80,-27.400000000000002,19.293333333333333,-25.680000000000003,-0.04682927048780487,0.3020731709756097,0.03601625804878056,0.011730205278592375,0.01466275659824047,0.008797653958944282,0.0,0.0,0.0,42.75,-84.99,0.3,[0 0 1],[-0.60173364  0.43560422 -0.66945171],[-0.17570567  0.66702152 -0.72402335],[-0.85283551 -0.17257377  0.49283859],-22.039048752754248,-55.01555278946256,166.14990332473775,[ 0.87488786  0.1136364  -0.47048667  0.01732913],[ 0.87514605  0.11343814 -0.47004877  0.01747351]
17:40:56.83,-27.400000000000002,19.293333333333333,-25.680000000000003,-0.04682927048780487,0.3020731709756097,0.03601625804878056,0.011730205278592375,0.01466275659824047,0.008797653958944282,0.0,0.0,0.0,42.75,-84.99,0.3,[0 0 1],[-0.60173364  0.43560422 -0.66945171],[-0.17570567  0.66702152 -0.72402335],[-0.85283551 -0.17257377  0.49283859],-22.039048752754248,-55.01555278946256,166.14990332473775,[ 0.87488786  0.1136364  -0.47048667  0.01732913],[ 0.87521481  0.11348291 -0.46991131  0.0174365 ]
17:40:56.85,-27.346666666666668,19.333333333333336,-24.94666666666667,0.25804877829268297,0.3020731709756097,0.21894308731707324,0.011730205278592375,0.01466275659824047,0.008797653958944282,0.0,0.0,0.0,42.75,-84.99,0.3,[0 0 1],[-0.60759945  0.44161912 -0.66014806],[-0.17570567  0.66702152 -0.72402335],[-0.85283551 -0.17257377  0.49283859],-21.964454915261694,-55.12083678505596,166.1017819716979,[ 0.87455905  0.1126922  -0.47130686  0.01779831],[ 0.8748697   0.11303966 -0.47062233  0.01842998]
17:40:56.88,-27.346666666666668,19.346666666666668,-24.893333333333334,0.13609755878048785,0.18012195146341453,0.09699186780487812,0.011730205278592375,0.01466275659824047,0.008797653958944282,0.0,0.0,0.0,42.75,-84.99,0.3,[0 0 1],[-0.60802419  0.44222702 -0.65934956],[-0.17570567  0.66702152 -0.72402335],[-0.85283551 -0.17257377  0.49283859],-21.958062642751543,-55.129831177642906,166.08858281850766,[ 0.87452949  0.11257399 -0.4713858   0.01790786],[ 0.87471274  0.11278018 -0.47098058  0.01831777]
17:40:56.91,-27.413333333333334,19.28,-25.813333333333336,0.014146339268292701,0.2410975612195121,0.09699186780487812,0.011730205278592375,0.011730205278592375,0.005865102639296188,0.0,0.0,0.0,42.75,-84.99,0.3,[0 0 1],[-0.60075431  0.43438542 -0.67112113],[-0.17570567  0.66702152 -0.72402335],[-0.85283551 -0.17257377  0.49283859],-22.052456812539656,-54.996564574730634,166.17083715900563,[ 0.87494887  0.11385661 -0.47032646  0.0171512 ],[ 0.87513173  0.1136252  -0.4700272   0.01755542]
17:40:56.94,-27.413333333333334,19.28,-25.813333333333336,0.014146339268292701,0.2410975612195121,0.09699186780487812,0.011730205278592375,0.011730205278592375,0.005865102639296188,0.0,0.0,0.0,42.75,-84.99,0.3,[0 0 1],[-0.60075431  0.43438542 -0.67112113],[-0.17570567  0.66702152 -0.72402335],[-0.85283551 -0.17257377  0.49283859],-22.052456812539656,-54.996564574730634,166.17083715900563,[ 0.87494887  0.11385661 -0.47032646  0.0171512 ],[ 0.87519256  0.11374905 -0.4698881   0.01744465]
17:40:56.96,-27.413333333333334,19.26666666666667,-24.893333333333334,0.1970731685365854,0.11914634170731697,0.03601625804878056,0.008797653958944282,0.01466275659824047,0.008797653958944282,0.0,0.0,0.0,42.75,-84.99,0.3,[0 0 1],[-0.60939482  0.4403339  -0.6593512 ],[-0.17570567  0.66702152 -0.72402335],[-0.85283551 -0.17257377  0.49283859],-21.95807578179191,-55.12981269455892,166.26668561536337,[ 0.87455632  0.11330663 -0.47121013  0.0165486 ],[ 0.87471469  0.11367384 -0.47081328  0.01695078]
17:40:56.99,-27.493333333333336,19.30666666666667,-24.933333333333334,0.07512194902439026,0.18012195146341453,-0.024959351707317,0.011730205278592375,0.01466275659824047,0.008797653958944282,0.0,0.0,0.0,42.75,-84.99,0.3,[0 0 1],[-0.60991188  0.44030037 -0.65889536],[-0.17570567  0.66702152 -0.72402335],[-0.85283551 -0.17257377  0.49283859],-21.954427263959175,-55.13494446393382,166.29481521690445,[ 0.87454467  0.11338589 -0.47122001  0.01633898],[ 0.87472082  0.11357462 -0.47084201  0.0164953 ]
17:40:57.02,-27.493333333333336,19.30666666666667,-24.933333333333334,0.07512194902439026,0.18012195146341453,-0.024959351707317,0.011730205278592375,0.01466275659824047,0.008797653958944282,0.0,0.0,0.0,42.75,-84.99,0.3,[0 0 1],[-0.60991188  0.44030037 -0.65889536],[-0.17570567  0.66702152 -0.72402335],[-0.85283551 -0.17257377  0.49283859],-21.954427263959175,-55.13494446393382,166.29481521690445,[ 0.87454467  0.11338589 -0.47122001  0.01633898],[ 0.87472166  0.1135603  -0.47084623  0.01642881]
17:40:57.05,-27.58666666666667,18.933333333333334,-25.64,0.1970731685365854,0.18012195146341453,0.27991869707317085,0.011730205278592375,0.01466275659824047,0.008797653958944282,0.0,0.0,0.0,42.75,-84.99,0.3,[0 0 1],[-0.60660022  0.42811477 -0.66989098],[-0.17570567  0.66702152 -0.72402335],[-0.85283551 -0.17257377  0.49283859],-22.042576065941244,-55.01055936747957,166.83541728481183,[ 0.87499106  0.11648402 -0.46976158  0.01209021],[ 0.87506898  0.11613207 -0.4696672   0.01342926]
17:40:57.07,-28.453333333333337,19.533333333333335,-24.90666666666667,0.07512194902439026,-0.06378048756097576,0.27991869707317085,0.008797653958944282,0.01466275659824047,0.011730205278592375,0.0,0.0,0.0,42.75,-84.99,0.3,[0 0 1],[-0.62196381  0.43861988 -0.64867066],[-0.17570567  0.66702152 -0.72402335],[-0.85283551 -0.17257377  0.49283859],-21.872714174979166,-55.24950358412639,166.9955655735561,[ 0.87427819  0.11545584 -0.47136421  0.01110771],[ 0.87431085  0.11542672 -0.47128928  0.01198432]
17:40:57.10,-28.453333333333337,19.533333333333335,-24.90666666666667,0.07512194902439026,-0.06378048756097576,0.27991869707317085,0.008797653958944282,0.01466275659824047,0.011730205278592375,0.0,0.0,0.0,42.75,-84.99,0.3,[0 0 1],[-0.62196381  0.43861988 -0.64867066],[-0.17570567  0.66702152 -0.72402335],[-0.85283551 -0.17257377  0.49283859],-21.872714174979166,-55.24950358412639,166.9955655735561,[ 0.87427819  0.11545584 -0.47136421  0.01110771],[ 0.87420021  0.11532253 -0.47152528  0.01177341]
17:40:57.13,-27.493333333333336,18.560000000000002,-24.026666666666667,0.07512194902439026,0.4240243904878048,0.34089430682926836,0.011730205278592375,0.01466275659824047,0.008797653958944282,0.0,0.0,0.0,42.75,-84.99,0.3,[0 0 1],[-0.62268791  0.43243924 -0.65211661],[-0.17570567  0.66702152 -0.72402335],[-0.85283551 -0.17257377  0.49283859],-21.90022729798317,-55.21101071916473,167.38624102968444,[ 0.87442858  0.1173336  -0.47068258  0.0080869 ],[ 0.87476684  0.11684324 -0.47015175  0.00937855]
17:40:57.16,-26.46666666666667,19.28,-23.893333333333334,0.1970731685365854,0.2410975612195121,0.34089430682926836,0.011730205278592375,0.01466275659824047,0.008797653958944282,0.0,0.0,0.0,42.75,-84.99,0.3,[0 0 1],[-0.60532872  0.4536081  -0.65407708],[-0.17570567  0.66702152 -0.72402335],[-0.85283551 -0.17257377  0.49283859],-21.915891713255352,-55.18905897883587,165.3059097075381,[ 0.87420509  0.10892735 -0.47257514  0.02393787],[ 0.87446559  0.11010253 -0.4718843   0.02264005]
17:40:57.18,-27.373333333333335,19.293333333333333,-23.893333333333334,0.13609755878048785,-0.0028048778048781475,0.40186991658536597,0.011730205278592375,0.011730205278592375,0.008797653958944282,0.0,0.0,0.0,42.75,-84.99,0.3,[0 0 1],[-0.61809667  0.44789254 -0.64602537],[-0.17570567  0.66702152 -0.72402335],[-0.85283551 -0.17257377  0.49283859],-21.85161088102616,-55.27897400876388,166.27679199828762,[ 0.8741009   0.1122868  -0.47229548  0.01662142],[ 0.87410983  0.11182975 -0.47232463  0.0183185 ]
17:40:57.21,-27.373333333333335,19.293333333333333,-23.893333333333334,0.13609755878048785,-0.0028048778048781475,0.40186991658536597,0.011730205278592375,0.011730205278592375,0.008797653958944282,0.0,0.0,0.0,42.75,-84.99,0.3,[0 0 1],[-0.61809667  0.44789254 -0.64602537],[-0.17570567  0.66702152 -0.72402335],[-0.85283551 -0.17257377  0.49283859],-21.85161088102616,-55.27897400876388,166.27679199828762,[ 0.8741009   0.1122868  -0.47229548  0.01662142],[ 0.87405602  0.11208065 -0.47238877  0.01768772]
17:40:57.24,-28.06666666666667,19.293333333333333,-24.373333333333335,0.07512194902439026,0.18012195146341453,0.15796747756097573,0.011730205278592375,0.01466275659824047,0.008797653958944282,0.0,0.0,0.0,42.75,-84.99,0.3,[0 0 1],[-0.62307819  0.44017477 -0.64654446],[-0.17570567  0.66702152 -0.72402335],[-0.85283551 -0.17257377  0.49283859],-21.85575088547055,-55.273196290109645,166.96230576878165,[ 0.87420239  0.11515112 -0.47157265  0.01138606],[ 0.87433096  0.11467976 -0.47141591  0.01268751]
17:40:57.26,-27.400000000000002,18.666666666666668,-24.96,0.3190243880487805,0.3020731709756097,0.34089430682926836,0.008797653958944282,0.01466275659824047,0.008797653958944282,0.0,0.0,0.0,42.75,-84.99,0.3,[0 0 1],[-0.61185459  0.42879573 -0.66465644],[-0.17570567  0.66702152 -0.72402335],[-0.85283551 -0.17257377  0.49283859],-22.000574957259353,-55.06993073742141,167.0595155217233,[ 0.87483238  0.11698553 -0.46997207  0.01043753],[ 0.87496014  0.11687478 -0.46973155  0.01171823]
17:40:57.30,-27.373333333333335,19.293333333333333,-24.880000000000003,0.1970731685365854,-0.06378048756097576,-0.08593496146341456,0.011730205278592375,0.01466275659824047,0.008797653958944282,0.0,0.0,0.0,42.75,-84.99,0.3,[0 0 1],[-0.60881539  0.44116703 -0.65932956],[-0.17570567  0.66702152 -0.72402335],[-0.85283551 -0.17257377  0.49283859],-21.957902612891775,-55.13005629502859,166.18950576490516,[ 0.87454423  0.11298751 -0.47128813  0.01713786],[ 0.87450591  0.11397613 -0.47114858  0.01636679]
17:40:57.32,-27.373333333333335,19.293333333333333,-24.880000000000003,0.1970731685365854,-0.06378048756097576,-0.08593496146341456,0.011730205278592375,0.01466275659824047,0.008797653958944282,0.0,0.0,0.0,42.75,-84.99,0.3,[0 0 1],[-0.60881539  0.44116703 -0.65932956],[-0.17570567  0.66702152 -0.72402335],[-0.85283551 -0.17257377  0.49283859],-21.957902612891775,-55.13005629502859,166.18950576490516,[ 0.87454423  0.11298751 -0.47128813  0.01713786],[ 0.87443818  0.11355345 -0.47135222  0.01704594]
17:40:57.35,-27.44,19.28,-25.706666666666667,0.25804877829268297,0.2410975612195121,0.5238211360975611,0.011730205278592375,0.01466275659824047,0.008797653958944282,0.0,0.0,0.0,42.75,-84.99,0.3,[0 0 1],[-0.60211466  0.43493919 -0.66954151],[-0.17570567  0.66702152 -0.72402335],[-0.85283551 -0.17257377  0.49283859],-22.0397698299938,-55.014532109756054,166.20810049484604,[ 0.87489966  0.11388255 -0.4704214   0.01688383],[ 0.87498028  0.11378443 -0.47024976  0.0181043 ]
17:40:57.37,-27.360000000000003,19.293333333333333,-24.92,0.3190243880487805,0.18012195146341453,0.34089430682926836,0.011730205278592375,0.01466275659824047,0.008797653958944282,0.0,0.0,0.0,42.75,-84.99,0.3,[0 0 1],[-0.60825516  0.4409793  -0.6599719 ],[-0.17570567  0.66702152 -0.72402335],[-0.85283551 -0.17257377  0.49283859],-21.963044630821823,-55.12282153502453,166.17181020471574,[ 0.8745637   0.11296611 -0.47125247  0.0172658 ],[ 0.87470838  0.11331344 -0.47086089  0.0183124 ]
17:40:57.40,-27.333333333333336,19.32,-24.92,0.3190243880487805,0.18012195146341453,0.34089430682926836,0.011730205278592375,0.01466275659824047,0.008797653958944282,0.0,0.0,0.0,42.75,-84.99,0.3,[0 0 1],[-0.60773598  0.44163808 -0.66000969],[-0.17570567  0.66702152 -0.72402335],[-0.85283551 -0.17257377  0.49283859],-21.963347110605646,-55.12239586105714,166.10764369281262,[ 0.87455519  0.11270523 -0.47131253  0.0177551 ],[ 0.87466138  0.1130212  -0.47100076  0.0187607 ]
17:40:57.43,-27.333333333333336,19.32,-24.92,0.25804877829268297,-0.18573170707317088,0.09699186780487812,0.011730205278592375,0.01466275659824047,0.011730205278592375,0.0,0.0,0.0,42.75,-84.99,0.3,[0 0 1],[-0.60773598  0.44163808 -0.66000969],[-0.17570567  0.66702152 -0.72402335],[-0.85283551 -0.17257377  0.49283859],-21.963347110605646,-55.12239586105714,166.10764369281262,[ 0.87455519  0.11270523 -0.47131253  0.0177551 ],[ 0.87433727  0.11311315 -0.47159947  0.01826732]
17:40:57.46,-28.186666666666667,19.30666666666667,-24.973333333333336,0.07512194902439026,0.2410975612195121,0.09699186780487812,0.011730205278592375,0.01466275659824047,0.008797653958944282,0.0,0.0,0.0,42.75,-84.99,0.3,[0 0 1],[-0.61901935  0.43571232 -0.65342928],[-0.17570567  0.66702152 -0.72402335],[-0.85283551 -0.17257377  0.49283859],-21.91071475179273,-55.1963167497807,167.01575897868042,[ 0.87444277  0.1159151  -0.47095089  0.01089888],[ 0.87463592  0.11553754 -0.47065132  0.01226479]
17:40:57.48,-27.30666666666667,19.28,-24.96,0.3190243880487805,-0.12475609731707327,0.15796747756097573,0.011730205278592375,0.01466275659824047,0.008797653958944282,0.0,0.0,0.0,42.75,-84.99,0.3,[0 0 1],[-0.60720942  0.44079549 -0.66105677],[-0.17570567  0.66702152 -0.72402335],[-0.85283551 -0.17257377  0.49283859],-21.971731352019717,-55.11059296891768,166.1291770710726,[ 0.8745946   0.11287762 -0.47120474  0.0175792 ],[ 0.87440863  0.11367229 -0.47136754  0.01734386]
17:40:57.51,-27.30666666666667,19.28,-24.96,0.3190243880487805,-0.12475609731707327,0.15796747756097573,0.011730205278592375,0.01466275659824047,0.008797653958944282,0.0,0.0,0.0,42.75,-84.99,0.3,[0 0 1],[-0.60720942  0.44079549 -0.66105677],[-0.17570567  0.66702152 -0.72402335],[-0.85283551 -0.17257377  0.49283859],-21.971731352019717,-55.11059296891768,166.1291770710726,[ 0.8745946   0.11287762 -0.47120474  0.0175792 ],[ 0.87437463  0.11340101 -0.47146806  0.01808571]
17:40:57.53,-27.346666666666668,19.32,-24.880000000000003,0.014146339268292701,0.05817073195121941,0.27991869707317085,0.008797653958944282,0.01466275659824047,0.008797653958944282,0.0,0.0,0.0,42.75,-84.99,0.3,[0 0 1],[-0.60829617  0.44182618 -0.65936742],[-0.17570567  0.66702152 -0.72402335],[-0.85283551 -0.17257377  0.49283859],-21.958205634245818,-55.12963002616368,166.12536153210144,[ 0.87453581  0.11272671 -0.47134817  0.01762698],[ 0.87455317  0.1125872  -0.47132743  0.01820261]
17:40:57.57,-27.986666666666668,19.26666666666667,-24.173333333333336,0.3190243880487805,0.3630487807317072,0.21894308731707324,0.011730205278592375,0.01466275659824047,0.008797653958944282,0.0,0.0,0.0,42.75,-84.99,0.3,[0 0 1],[-0.62402456  0.44152293 -0.6447099 ],[-0.17570567  0.66702152 -0.72402335],[-0.85283551 -0.17257377  0.49283859],-21.841121873717768,-55.293604136252185,166.932727001667,[ 0.8741369   0.11488461 -0.47175299  0.01163299],[ 0.8744619   0.11488375 -0.47110508  0.0133461 ]
17:40:57.59,-27.333333333333336,19.28,-24.893333333333334,0.3190243880487805,0.3630487807317072,0.21894308731707324,0.011730205278592375,0.01466275659824047,0.008797653958944282,0.0,0.0,0.0,42.75,-84.99,0.3,[0 0 1],[-0.60820607  0.44108133 -0.65994897],[-0.17570567  0.66702152 -0.72402335],[-0.85283551 -0.17257377  0.49283859],-21.962861006641173,-55.12307994100061,166.1634635947095,[ 0.87456165  0.11292995 -0.47126259  0.01732976],[ 0.87480516  0.11355196 -0.4706543   0.01750455]
17:40:57.62,-27.333333333333336,19.28,-24.893333333333334,0.1970731685365854,0.11914634170731697,-0.08593496146341456,0.011730205278592375,0.011730205278592375,0.005865102639296188,0.0,0.0,0.0,42.75,-84.99,0.3,[0 0 1],[-0.60820607  0.44108133 -0.65994897],[-0.17570567  0.66702152 -0.72402335],[-0.85283551 -0.17257377  0.49283859],-21.962861006641173,-55.12307994100061,166.1634635947095,[ 0.87456165  0.11292995 -0.47126259  0.01732976],[ 0.87466684  0.11343626 -0.47094245  0.01741659]
17:40:57.65,-27.386666666666667,19.28,-24.92,0.13609755878048785,0.2410975612195121,0.21894308731707324,0.008797653958944282,0.01466275659824047,0.008797653958944282,0.0,0.0,0.0,42.75,-84.99,0.3,[0 0 1],[-0.60870039  0.44056639 -0.65983718],[-0.17570567  0.66702152 -0.72402335],[-0.85283551 -0.17257377  0.49283859],-21.961966026349135,-55.124339354331326,166.21811267976256,[ 0.87456596  0.11314574 -0.47121793  0.01691391],[ 0.8747667   0.11321127 -0.47080633  0.0175451 ]
17:40:57.67,-27.346666666666668,19.333333333333336,-24.92,0.13609755878048785,0.18012195146341453,0.15796747756097573,0.011730205278592375,0.01466275659824047,0.008797653958944282,0.0,0.0,0.0,42.75,-84.99,0.3,[0 0 1],[-0.60784861  0.44180022 -0.65979741],[-0.17570567  0.66702152 -0.72402335],[-0.85283551 -0.17257377  0.49283859],-21.961647719478623,-55.12478725398205,166.10408493786701,[ 0.87454733  0.1126736  -0.47133357  0.0177846 ],[ 0.87471068  0.11283391 -0.47097654  0.01818864]
17:40:57.70,-27.346666666666668,19.32,-24.880000000000003,0.13609755878048785,0.18012195146341453,0.15796747756097573,0.011730205278592375,0.01466275659824047,0.008797653958944282,0.0,0.0,0.0,42.75,-84.99,0.3,[0 0 1],[-0.60829617  0.44182618 -0.65936742],[-0.17570567  0.66702152 -0.72402335],[-0.85283551 -0.17257377  0.49283859],-21.958205634245818,-55.12963002616368,166.12536153210144,[ 0.87453581  0.11272671 -0.47134817  0.01762698],[ 0.87469282  0.11282394 -0.47101368  0.0181478 ]
17:40:57.73,-27.346666666666668,19.32,-24.880000000000003,0.13609755878048785,0.05817073195121941,0.03601625804878056,0.008797653958944282,0.011730205278592375,0.008797653958944282,0.0,0.0,0.0,42.75,-84.99,0.3,[0 0 1],[-0.60829617  0.44182618 -0.65936742],[-0.17570567  0.66702152 -0.72402335],[-0.85283551 -0.17257377  0.49283859],-21.958205634245818,-55.12963002616368,166.12536153210144,[ 0.87453581  0.11272671 -0.47134817  0.01762698],[ 0.87458128  0.11294008 -0.47120225  0.01790441]
17:40:57.76,-27.373333333333335,19.28,-24.94666666666667,0.1970731685365854,0.18012195146341453,0.03601625804878056,0.011730205278592375,0.01466275659824047,0.008797653958944282,0.0,0.0,0.0,42.75,-84.99,0.3,[0 0 1],[-0.60826502  0.44046915 -0.66030341],[-0.17570567  0.66702152 -0.72402335],[-0.85283551 -0.17257377  0.49283859],-21.965698796886226,-55.119086043205826,166.20158484479913,[ 0.87457957  0.11311507 -0.47119568  0.01703489],[ 0.87470207  0.11338954 -0.47088715  0.01744705]
17:40:57.78,-27.90666666666667,19.293333333333333,-25.173333333333336,0.3190243880487805,0.3020731709756097,0.09699186780487812,0.011730205278592375,0.017595307917888565,0.008797653958944282,0.0,0.0,0.0,42.75,-84.99,0.3,[0 0 1],[-0.6134335   0.43588488 -0.65856185],[-0.17570567  0.66702152 -0.72402335],[-0.85283551 -0.17257377  0.49283859],-21.95175820542269,-55.13869768468209,166.72653042568953,[ 0.87458856  0.11513383 -0.47081716  0.01304784],[ 0.87481293  0.11532935 -0.47031824  0.01422067]
17:40:57.81,-27.373333333333335,19.30666666666667,-24.933333333333334,0.3190243880487805,0.3020731709756097,0.09699186780487812,0.011730205278592375,0.017595307917888565,0.008797653958944282,0.0,0.0,0.0,42.75,-84.99,0.3,[0 0 1],[-0.60824296  0.44105126 -0.65993507],[-0.17570567  0.66702152 -0.72402335],[-0.85283551 -0.17257377  0.49283859],-21.95175820542269,-55.13869768468209,166.72653042568953,[ 0.87458856  0.11513383 -0.47081716  0.01304784],[ 0.87482664  0.11561425 -0.47023675  0.01375075]
17:40:57.84,-27.373333333333335,19.30666666666667,-24.933333333333334,0.014146339268292701,-0.0028048778048781475,0.09699186780487812,0.011730205278592375,0.011730205278592375,0.008797653958944282,0.0,0.0,0.0,42.75,-84.99,0.3,[0 0 1],[-0.60824296  0.44105126 -0.65993507],[-0.17570567  0.66702152 -0.72402335],[-0.85283551 -0.17257377  0.49283859],-21.96274970303701,-55.12323657174944,166.16706329599893,[ 0.87456171  0.11294364 -0.47126019  0.01730244],[ 0.8745924   0.11326789 -0.4711377   0.01696403]
17:40:57.87,-27.360000000000003,19.30666666666667,-24.92,0.3799999978048781,0.2410975612195121,0.09699186780487812,0.011730205278592375,0.01466275659824047,0.008797653958944282,0.0,0.0,0.0,42.75,-84.99,0.3,[0 0 1],[-0.60818169  0.44122518 -0.65987527],[-0.17570567  0.66702152 -0.72402335],[-0.85283551 -0.17257377  0.49283859],-21.96227099263132,-55.12391021643739,166.15397642939988,[ 0.87455767  0.11288503 -0.47127803  0.01740298],[ 0.87469826  0.11349793 -0.47085061  0.01791299]
17:40:57.89,-27.173333333333336,18.573333333333334,-24.400000000000002,0.1970731685365854,0.11914634170731697,0.21894308731707324,0.008797653958944282,0.01466275659824047,0.008797653958944282,0.0,0.0,0.0,42.75,-84.99,0.3,[0 0 1],[-0.61456151  0.43221217 -0.65992938],[-0.17570567  0.66702152 -0.72402335],[-0.85283551 -0.17257377  0.49283859],-21.962704169286205,-55.12330064824371,166.99568723085756,[ 0.87466377  0.11634794 -0.47043165  0.01097805],[ 0.87473319  0.11606528 -0.47033235  0.0125771 ]
17:40:57.92,-27.173333333333336,18.573333333333334,-24.400000000000002,0.1970731685365854,0.11914634170731697,0.21894308731707324,0.008797653958944282,0.01466275659824047,0.008797653958944282,0.0,0.0,0.0,42.75,-84.99,0.3,[0 0 1],[-0.61456151  0.43221217 -0.65992938],[-0.17570567  0.66702152 -0.72402335],[-0.85283551 -0.17257377  0.49283859],-21.962704169286205,-55.12330064824371,166.99568723085756,[ 0.87466377  0.11634794 -0.47043165  0.01097805],[ 0.87473452  0.11644068 -0.47025725  0.01179896]
17:40:57.95,-27.373333333333335,19.30666666666667,-24.92,0.1970731685365854,0.4240243904878048,0.09699186780487812,0.011730205278592375,0.01466275659824047,0.008797653958944282,0.0,0.0,0.0,42.75,-84.99,0.3,[0 0 1],[-0.60836764  0.44114166 -0.65975969],[-0.17570567  0.66702152 -0.72402335],[-0.85283551 -0.17257377  0.49283859],-21.96134574908025,-55.12521215601669,166.16821509098054,[ 0.87455585  0.11293435 -0.47127356  0.01729559],[ 0.87492891  0.11368616 -0.47041243  0.01694101]
17:40:57.98,-27.32,19.293333333333333,-24.92,0.25804877829268297,-0.06378048756097576,0.15796747756097573,0.011730205278592375,0.01466275659824047,0.008797653958944282,0.0,0.0,0.0,42.75,-84.99,0.3,[0 0 1],[-0.60769671  0.44122983 -0.66031882],[-0.17570567  0.66702152 -0.72402335],[-0.85283551 -0.17257377  0.49283859],-21.965822175674084,-55.11891238063857,166.1290481830771,[ 0.87456915  0.11281801 -0.47126591  0.01758833],[ 0.87449915  0.1132454  -0.47127808  0.01799141]
17:40:58.00,-27.373333333333335,20.14666666666667,-24.46666666666667,0.25804877829268297,-0.06378048756097576,0.15796747756097573,0.011730205278592375,0.01466275659824047,0.008797653958944282,0.0,0.0,0.0,42.75,-84.99,0.3,[0 0 1],[-0.60782978  0.45955883 -0.64757133],[-0.17570567  0.66702152 -0.72402335],[-0.85283551 -0.17257377  0.49283859],-21.863942334063854,-55.26175907707707,165.10329024658733,[ 0.87393785  0.10756842 -0.47329548  0.02555478],[ 0.87390042  0.10869747 -0.47313894  0.02494928]
17:40:58.03,-27.373333333333335,20.14666666666667,-24.46666666666667,0.3190243880487805,-0.0028048778048781475,0.21894308731707324,0.008797653958944282,0.01466275659824047,0.011730205278592375,0.0,0.0,0.0,42.75,-84.99,0.3,[0 0 1],[-0.60782978  0.45955883 -0.64757133],[-0.17570567  0.66702152 -0.72402335],[-0.85283551 -0.17257377  0.49283859],-21.863942334063854,-55.26175907707707,165.10329024658733,[ 0.87393785  0.10756842 -0.47329548  0.02555478],[ 0.87385046  0.10807869 -0.47330861  0.02614066]
17:40:58.05,-27.373333333333335,20.573333333333334,-24.94666666666667,0.014146339268292701,0.3020731709756097,0.21894308731707324,0.011730205278592375,0.01466275659824047,0.008797653958944282,0.0,0.0,0.0,42.75,-84.99,0.3,[0 0 1],[-0.60103782  0.46385551 -0.65083915],[-0.17570567  0.66702152 -0.72402335],[-0.85283551 -0.17257377  0.49283859],-21.89002486505709,-55.22529408065994,164.51407456208614,[ 0.87390727  0.10539732 -0.47357863  0.03001281],[ 0.87416592  0.10559294 -0.47306438  0.02990263]
17:40:58.08,-27.96,18.813333333333336,-24.8,0.25804877829268297,0.3020731709756097,0.03601625804878056,0.008797653958944282,0.01466275659824047,0.011730205278592375,0.0,0.0,0.0,42.75,-84.99,0.3,[0 0 1],[-0.62027904  0.42913932 -0.656577  ],[-0.17570567  0.66702152 -0.72402335],[-0.85283551 -0.17257377  0.49283859],-21.935878889727498,-55.16101133447469,167.45848505877726,[ 0.87458605  0.11798205 -0.47023767  0.007484  ],[ 0.87478788  0.11657283 -0.47014176  0.01112091]
17:40:58.11,-27.96,18.813333333333336,-24.8,0.25804877829268297,0.3020731709756097,0.03601625804878056,0.008797653958944282,0.01466275659824047,0.011730205278592375,0.0,0.0,0.0,42.75,-84.99,0.3,[0 0 1],[-0.62027904  0.42913932 -0.656577  ],[-0.17570567  0.66702152 -0.72402335],[-0.85283551 -0.17257377  0.49283859],-21.935878889727498,-55.16101133447469,167.45848505877726,[ 0.87458605  0.11798205 -0.47023767  0.007484  ],[ 0.87483661  0.11818166 -0.46970596  0.00838536]
17:40:58.14,-25.840000000000003,19.346666666666668,-24.240000000000002,0.07512194902439026,0.18012195146341453,0.15796747756097573,0.011730205278592375,0.01466275659824047,0.008797653958944282,0.0,0.0,0.0,42.75,-84.99,0.3,[0 0 1],[-0.5924783   0.4564708  -0.66377999],[-0.17570567  0.66702152 -0.72402335],[-0.85283551 -0.17257377  0.49283859],-21.99354921479734,-55.079843516460734,164.4763471462007,[ 0.87434444  0.10629107 -0.47256131  0.03016319],[ 0.87459105  0.10800965 -0.47188478  0.02737075]
17:40:58.16,-28.080000000000002,19.013333333333335,-25.933333333333334,-0.04682927048780487,0.4240243904878048,0.27991869707317085,0.011730205278592375,0.017595307917888565,0.008797653958944282,0.0,0.0,0.0,42.75,-84.99,0.3,[0 0 1],[-0.61020858  0.42473035 -0.66876724],[-0.17570567  0.66702152 -0.72402335],[-0.85283551 -0.17257377  0.49283859],-22.033553515403398,-55.02332941224319,167.21625222185048,[ 0.87498759  0.11795511 -0.46946646  0.00919475],[ 0.87535097  0.1161443  -0.46916735  0.01237638]
17:40:58.19,-27.453333333333337,19.053333333333335,-25.30666666666667,0.13609755878048785,0.18012195146341453,-0.14691057121951212,0.011730205278592375,0.017595307917888565,0.008797653958944282,0.0,0.0,0.0,42.75,-84.99,0.3,[0 0 1],[-0.60723792  0.43336144 -0.6659279 ],[-0.17570567  0.66702152 -0.72402335],[-0.85283551 -0.17257377  0.49283859],-22.010770589906848,-55.05553602845948,166.56050032118932,[ 0.87482252  0.11503946 -0.47037103  0.014233  ],[ 0.87529536  0.11485052 -0.46952867  0.01449899]
17:40:58.22,-27.453333333333337,19.053333333333335,-25.30666666666667,0.13609755878048785,0.18012195146341453,-0.14691057121951212,0.011730205278592375,0.011730205278592375,0.008797653958944282,0.0,0.0,0.0,42.75,-84.99,0.3,[0 0 1],[-0.60723792  0.43336144 -0.6659279 ],[-0.17570567  0.66702152 -0.72402335],[-0.85283551 -0.17257377  0.49283859],-22.010770589906848,-55.05553602845948,166.56050032118932,[ 0.87482252  0.11503946 -0.47037103  0.014233  ],[ 0.87503176  0.11537763 -0.4699002   0.01418506]
17:40:58.25,-27.733333333333334,19.0,-25.693333333333335,0.07512194902439026,0.18012195146341453,0.15796747756097573,0.011730205278592375,0.01466275659824047,0.008797653958944282,0.0,0.0,0.0,42.75,-84.99,0.3,[0 0 1],[-0.60777565  0.42811503 -0.66882455],[-0.17570567  0.66702152 -0.72402335],[-0.85283551 -0.17257377  0.49283859],-22.034013565709593,-55.022678494095736,166.89465341370925,[ 0.87496032  0.11664167 -0.46979084  0.01164971],[ 0.87511718  0.11643561 -0.46953045  0.01240272]
17:40:58.27,-27.560000000000002,19.42666666666667,-24.46666666666667,0.014146339268292701,0.2410975612195121,-0.024959351707317,0.008797653958944282,0.011730205278592375,0.011730205278592375,0.0,0.0,0.0,42.75,-84.99,0.3,[0 0 1],[-0.6145281   0.44524309 -0.65124021],[-0.17570567  0.66702152 -0.72402335],[-0.85283551 -0.17257377  0.49283859],-21.893227513843364,-55.22081158209419,166.24648246213755,[ 0.87427486  0.11257655 -0.47189826  0.01679353],[ 0.87462133  0.11318158 -0.47113238  0.01617836]
17:40:58.30,-27.453333333333337,18.78666666666667,-24.46666666666667,0.014146339268292701,0.2410975612195121,-0.024959351707317,0.008797653958944282,0.011730205278592375,0.011730205278592375,0.0,0.0,0.0,42.75,-84.99,0.3,[0 0 1],[-0.61664147  0.43402116 -0.65679444],[-0.17570567  0.66702152 -0.72402335],[-0.85283551 -0.17257377  0.49283859],-21.937618002843067,-55.1585688463392,166.99475604627446,[ 0.87455606  0.11609537 -0.47069322  0.01102073],[ 0.87478887  0.11571037 -0.47033644  0.01179714]
17:40:58.33,-27.453333333333337,18.78666666666667,-24.46666666666667,0.25804877829268297,-0.06378048756097576,0.15796747756097573,0.011730205278592375,0.01466275659824047,0.008797653958944282,0.0,0.0,0.0,42.75,-84.99,0.3,[0 0 1],[-0.61664147  0.43402116 -0.65679444],[-0.17570567  0.66702152 -0.72402335],[-0.85283551 -0.17257377  0.49283859],-21.937618002843067,-55.1585688463392,166.99475604627446,[ 0.87455606  0.11609537 -0.47069322  0.01102073],[ 0.87446837  0.11633926 -0.47078122  0.0116312 ]
17:40:58.35,-27.32,18.706666666666667,-26.013333333333335,0.1970731685365854,0.3020731709756097,0.03601625804878056,0.011730205278592375,0.01466275659824047,0.008797653958944282,0.0,0.0,0.0,42.75,-84.99,0.3,[0 0 1],[-0.60055911  0.42302165 -0.67851414],[-0.17570567  0.66702152 -0.72402335],[-0.85283551 -0.17257377  0.49283859],-22.111924022301324,-54.9121134057454,166.83150062539067,[ 0.87528975  0.11715876 -0.46903844  0.01202563],[ 0.8754032   0.11733846 -0.46877508  0.01228237]
17:40:58.38,-27.44,18.693333333333335,-24.76,0.07512194902439026,0.11914634170731697,0.21894308731707324,0.008797653958944282,0.011730205278592375,0.011730205278592375,0.0,0.0,0.0,42.75,-84.99,0.3,[0 0 1],[-0.61417239  0.43038548 -0.66148365],[-0.17570567  0.66702152 -0.72402335],[-0.85283551 -0.17257377  0.49283859],-21.975150228261032,-55.10577788786643,167.08252897042618,[ 0.87472525  0.11682778 -0.47021374  0.0102976 ],[ 0.87491274  0.11682686 -0.46984765  0.01106206]
17:40:58.41,-27.44,18.693333333333335,-24.76,0.07512194902439026,0.11914634170731697,0.21894308731707324,0.008797653958944282,0.011730205278592375,0.011730205278592375,0.0,0.0,0.0,42.75,-84.99,0.3,[0 0 1],[-0.61417239  0.43038548 -0.66148365],[-0.17570567  0.66702152 -0.72402335],[-0.85283551 -0.17257377  0.49283859],-21.975150228261032,-55.10577788786643,167.08252897042618,[ 0.87472525  0.11682778 -0.47021374  0.0102976 ],[ 0.87484115  0.11675185 -0.47000373  0.01088384]
17:40:58.44,-26.986666666666668,19.84,-24.813333333333336,-0.04682927048780487,0.18012195146341453,0.21894308731707324,0.011730205278592375,0.01466275659824047,0.008797653958944282,0.0,0.0,0.0,42.75,-84.99,0.3,[0 0 1],[-0.60095458  0.45408933 -0.65776627],[-0.17570567  0.66702152 -0.72402335],[-0.85283551 -0.17257377  0.49283859],-21.945392292593354,-55.14764632493513,165.05287163486383,[ 0.87427726  0.10818108 -0.47251352  0.02582831],[ 0.87454344  0.10914537 -0.47189396  0.02402396]
