Time,MagX,MagY,MagZ,GyroX,GyroY,GyroZ,Tri11,Tri12,Tri13,Tri21,Tri22,Tri23,Lat,Lon,Alt,SunVect,MagVect,MagRef,SunRef,Roll,Pitch,Yaw,static_q,dynamic_q,"['Solar Panel One Flux (Raw V)', 'Solar Panel Two Flux (Raw V)', 'Solar Panel Three Flux (Raw V)', 'Solar Panel Four Flux (Raw V)']"
17:50:39.04,0,0,0,0,0,0,0,0,0,0,0,0,42.75,-84.99,0.3,[0 0 1],[0 0 1],[-0.17570567  0.66702152 -0.72402335],[-0.85283551 -0.17257377  0.49283859],-6.421268564557994,-68.47479724422087,175.62752403483643,[ 8.26017140e-01  2.48387488e-02 -5.63097434e-01 -3.99003633e-13],[ 8.72780100e-01  2.15102261e-02 -4.87639423e-01 -3.45535052e-13],[1.29492188 0.84960938 0.1757813  0.1757813 ]
17:50:39.05,0,0,0,0,0,0,0,0,0,0,0,0,42.75,-84.99,0.3,[0 0 1],[0 0 1],[-0.17570567  0.66702152 -0.72402335],[-0.85283551 -0.17257377  0.49283859],-6.421268564557994,-68.47479724422087,175.62752403483643,[ 8.26017140e-01  2.48387488e-02 -5.63097434e-01 -3.99003633e-13],[ 8.33257896e-01  2.43645547e-02 -5.52347397e-01 -3.91386294e-13],[1.29492188 0.84960938 0.1757813  0.1757813 ]
17:50:39.07,0,0,0,0,0,0,0,0,0,0,0,0,42.75,-84.99,0.3,[0 0 1],[0 0 1],[-0.17570567  0.66702152 -0.72402335],[-0.85283551 -0.17257377  0.49283859],-6.421268564557994,-68.47479724422087,175.62752403483643,[ 8.26017140e-01  2.48387488e-02 -5.63097434e-01 -3.99003633e-13],[ 8.27082247e-01  2.47698227e-02 -5.61534872e-01 -3.97896421e-13],[0.31347656 0.18164063 0.16699219 0.164063  ]
17:50:39.10,0,0,0,0,0,0,0,0,0,0,0,0,42.75,-84.99,0.3,[0 0 1],[0 0 1],[-0.17570567  0.66702152 -0.72402335],[-0.85283551 -0.17257377  0.49283859],-6.421268564557994,-68.47479724422087,175.62752403483643,[ 8.26017140e-01  2.48387488e-02 -5.63097434e-01 -3.99003633e-13],[ 8.26172722e-01  2.48286982e-02 -5.62869585e-01 -3.98842182e-13],[0.31347656 0.18164063 0.16699219 0.164063  ]
17:50:39.12,0,0,0,0,0,0,0,0,0,0,0,0,42.75,-84.99,0.3,[0 0 1],[0 0 1],[-0.17570567  0.66702152 -0.72402335],[-0.85283551 -0.17257377  0.49283859],-6.421268564557994,-68.47479724422087,175.62752403483643,[ 8.26017140e-01  2.48387488e-02 -5.63097434e-01 -3.99003633e-13],[ 8.26039843e-01  2.48372826e-02 -5.63064194e-01 -3.98980079e-13],[0.31347656 0.18164063 0.16699219 0.164063  ]
17:50:39.15,0,0,0,0,0,0,0,0,0,0,0,0,42.75,-84.99,0.3,[0 0 1],[0 0 1],[-0.17570567  0.66702152 -0.72402335],[-0.85283551 -0.17257377  0.49283859],-6.421268564557994,-68.47479724422087,175.62752403483643,[ 8.26017140e-01  2.48387488e-02 -5.63097434e-01 -3.99003633e-13],[ 8.26020453e-01  2.48385349e-02 -5.63092585e-01 -3.99000196e-13],[0.31347656 0.18164063 0.16699219 0.164063  ]
17:50:39.18,0,0,0,0,0,0,0,0,0,0,0,0,42.75,-84.99,0.3,[0 0 1],[0 0 1],[-0.17570567  0.66702152 -0.72402335],[-0.85283551 -0.17257377  0.49283859],-6.421268564557994,-68.47479724422087,175.62752403483643,[ 8.26017140e-01  2.48387488e-02 -5.63097434e-01 -3.99003633e-13],[ 8.26017624e-01  2.48387176e-02 -5.63096727e-01 -3.99003131e-13],[0.31347656 0.18164063 0.16699219 0.164063  ]
17:50:39.21,0,0,0,0,0,0,0,0,0,0,0,0,42.75,-84.99,0.3,[0 0 1],[0 0 1],[-0.17570567  0.66702152 -0.72402335],[-0.85283551 -0.17257377  0.49283859],-6.421268564557994,-68.47479724422087,175.62752403483643,[ 8.26017140e-01  2.48387488e-02 -5.63097434e-01 -3.99003633e-13],[ 8.26017211e-01  2.48387443e-02 -5.63097331e-01 -3.99003560e-13],[0.31347656 0.18164063 0.16699219 0.164063  ]
17:50:39.23,0,0,0,0,0,0,0,0,0,0,0,0,42.75,-84.99,0.3,[0 0 1],[0 0 1],[-0.17570567  0.66702152 -0.72402335],[-0.85283551 -0.17257377  0.49283859],-6.421268564557994,-68.47479724422087,175.62752403483643,[ 8.26017140e-01  2.48387488e-02 -5.63097434e-01 -3.99003633e-13],[ 8.26017151e-01  2.48387482e-02 -5.63097419e-01 -3.99003622e-13],[0.31347656 0.18164063 0.16699219 0.164063  ]
17:50:39.26,0,0,0,0,0,0,0,0,0,0,0,0,42.75,-84.99,0.3,[0 0 1],[0 0 1],[-0.17570567  0.66702152 -0.72402335],[-0.85283551 -0.17257377  0.49283859],-6.421268564557994,-68.47479724422087,175.62752403483643,[ 8.26017140e-01  2.48387488e-02 -5.63097434e-01 -3.99003633e-13],[ 8.26017142e-01  2.48387487e-02 -5.63097432e-01 -3.99003631e-13],[0.31347656 0.18164063 0.16699219 0.164063  ]
17:50:39.29,0,0,0,0,0,0,0,0,0,0,0,0,42.75,-84.99,0.3,[0 0 1],[0 0 1],[-0.17570567  0.66702152 -0.72402335],[-0.85283551 -0.17257377  0.49283859],-6.421268564557994,-68.47479724422087,175.62752403483643,[ 8.26017140e-01  2.48387488e-02 -5.63097434e-01 -3.99003633e-13],[ 8.26017141e-01  2.48387488e-02 -5.63097434e-01 -3.99003633e-13],[0.31347656 0.18164063 0.16699219 0.164063  ]
17:50:39.32,0,0,0,0,0,0,0,0,0,0,0,0,42.75,-84.99,0.3,[0 0 1],[0 0 1],[-0.17570567  0.66702152 -0.72402335],[-0.85283551 -0.17257377  0.49283859],-6.421268564557994,-68.47479724422087,175.62752403483643,[ 8.26017140e-01  2.48387488e-02 -5.63097434e-01 -3.99003633e-13],[ 8.26017140e-01  2.48387488e-02 -5.63097434e-01 -3.99003633e-13],[0.31347656 0.18164063 0.16699219 0.164063  ]
17:50:39.34,0,0,0,0,0,0,0,0,0,0,0,0,42.75,-84.99,0.3,[0 0 1],[0 0 1],[-0.17570567  0.66702152 -0.72402335],[-0.85283551 -0.17257377  0.49283859],-6.421268564557994,-68.47479724422087,175.62752403483643,[ 8.26017140e-01  2.48387488e-02 -5.63097434e-01 -3.99003633e-13],[ 8.26017140e-01  2.48387488e-02 -5.63097434e-01 -3.99003633e-13],[0.31347656 0.18164063 0.16699219 0.164063  ]
17:50:39.37,0,0,0,0,0,0,0,0,0,0,0,0,42.75,-84.99,0.3,[0 0 1],[0 0 1],[-0.17570567  0.66702152 -0.72402335],[-0.85283551 -0.17257377  0.49283859],-6.421268564557994,-68.47479724422087,175.62752403483643,[ 8.26017140e-01  2.48387488e-02 -5.63097434e-01 -3.99003633e-13],[ 8.26017140e-01  2.48387488e-02 -5.63097434e-01 -3.99003633e-13],[0.31347656 0.18164063 0.16699219 0.164063  ]
17:50:39.40,0,0,0,0,0,0,0,0,0,0,0,0,42.75,-84.99,0.3,[0 0 1],[0 0 1],[-0.17570567  0.66702152 -0.72402335],[-0.85283551 -0.17257377  0.49283859],-6.421268564557994,-68.47479724422087,175.62752403483643,[ 8.26017140e-01  2.48387488e-02 -5.63097434e-01 -3.99003633e-13],[ 8.26017140e-01  2.48387488e-02 -5.63097434e-01 -3.99003633e-13],[0.31347656 0.18164063 0.16699219 0.164063  ]
17:50:39.42,0,0,0,0,0,0,0,0,0,0,0,0,42.75,-84.99,0.3,[0 0 1],[0 0 1],[-0.17570567  0.66702152 -0.72402335],[-0.85283551 -0.17257377  0.49283859],-6.421268564557994,-68.47479724422087,175.62752403483643,[ 8.26017140e-01  2.48387488e-02 -5.63097434e-01 -3.99003633e-13],[ 8.26017140e-01  2.48387488e-02 -5.63097434e-01 -3.99003633e-13],[0.31347656 0.18164063 0.16699219 0.164063  ]
17:50:39.45,0,0,0,0,0,0,0,0,0,0,0,0,42.75,-84.99,0.3,[0 0 1],[0 0 1],[-0.17570567  0.66702152 -0.72402335],[-0.85283551 -0.17257377  0.49283859],-6.421268564557994,-68.47479724422087,175.62752403483643,[ 8.26017140e-01  2.48387488e-02 -5.63097434e-01 -3.99003633e-13],[ 8.26017140e-01  2.48387488e-02 -5.63097434e-01 -3.99003633e-13],[0.31347656 0.18164063 0.16699219 0.164063  ]
17:50:39.48,0,0,0,0,0,0,0,0,0,0,0,0,42.75,-84.99,0.3,[0 0 1],[0 0 1],[-0.17570567  0.66702152 -0.72402335],[-0.85283551 -0.17257377  0.49283859],-6.421268564557994,-68.47479724422087,175.62752403483643,[ 8.26017140e-01  2.48387488e-02 -5.63097434e-01 -3.99003633e-13],[ 8.26017140e-01  2.48387488e-02 -5.63097434e-01 -3.99003633e-13],[0.31347656 0.18164063 0.16699219 0.164063  ]
17:50:39.51,0,0,0,0,0,0,0,0,0,0,0,0,42.75,-84.99,0.3,[0 0 1],[0 0 1],[-0.17570567  0.66702152 -0.72402335],[-0.85283551 -0.17257377  0.49283859],-6.421268564557994,-68.47479724422087,175.62752403483643,[ 8.26017140e-01  2.48387488e-02 -5.63097434e-01 -3.99003633e-13],[ 8.26017140e-01  2.48387488e-02 -5.63097434e-01 -3.99003633e-13],[0.31347656 0.18164063 0.16699219 0.164063  ]
17:50:39.53,0,0,0,0,0,0,0,0,0,0,0,0,42.75,-84.99,0.3,[0 0 1],[0 0 1],[-0.17570567  0.66702152 -0.72402335],[-0.85283551 -0.17257377  0.49283859],-6.421268564557994,-68.47479724422087,175.62752403483643,[ 8.26017140e-01  2.48387488e-02 -5.63097434e-01 -3.99003633e-13],[ 8.26017140e-01  2.48387488e-02 -5.63097434e-01 -3.99003633e-13],[0.31347656 0.18164063 0.16699219 0.164063  ]
17:50:39.56,0,0,0,0,0,0,0,0,0,0,0,0,42.75,-84.99,0.3,[0 0 1],[0 0 1],[-0.17570567  0.66702152 -0.72402335],[-0.85283551 -0.17257377  0.49283859],-6.421268564557994,-68.47479724422087,175.62752403483643,[ 8.26017140e-01  2.48387488e-02 -5.63097434e-01 -3.99003633e-13],[ 8.26017140e-01  2.48387488e-02 -5.63097434e-01 -3.99003633e-13],[0.31347656 0.18164063 0.16699219 0.164063  ]
17:50:39.59,0,0,0,0,0,0,0,0,0,0,0,0,42.75,-84.99,0.3,[0 0 1],[0 0 1],[-0.17570567  0.66702152 -0.72402335],[-0.85283551 -0.17257377  0.49283859],-6.421268564557994,-68.47479724422087,175.62752403483643,[ 8.26017140e-01  2.48387488e-02 -5.63097434e-01 -3.99003633e-13],[ 8.26017140e-01  2.48387488e-02 -5.63097434e-01 -3.99003633e-13],[0.31347656 0.18164063 0.16699219 0.164063  ]
17:50:39.62,0,0,0,0,0,0,0,0,0,0,0,0,42.75,-84.99,0.3,[0 0 1],[0 0 1],[-0.17570567  0.66702152 -0.72402335],[-0.85283551 -0.17257377  0.49283859],-6.421268564557994,-68.47479724422087,175.62752403483643,[ 8.26017140e-01  2.48387488e-02 -5.63097434e-01 -3.99003633e-13],[ 8.26017140e-01  2.48387488e-02 -5.63097434e-01 -3.99003633e-13],[0.31347656 0.18164063 0.16699219 0.164063  ]
17:50:39.64,0,0,0,0,0,0,0,0,0,0,0,0,42.75,-84.99,0.3,[0 0 1],[0 0 1],[-0.17570567  0.66702152 -0.72402335],[-0.85283551 -0.17257377  0.49283859],-6.421268564557994,-68.47479724422087,175.62752403483643,[ 8.26017140e-01  2.48387488e-02 -5.63097434e-01 -3.99003633e-13],[ 8.26017140e-01  2.48387488e-02 -5.63097434e-01 -3.99003633e-13],[0.31347656 0.18164063 0.16699219 0.164063  ]
17:50:39.67,0,0,0,0,0,0,0,0,0,0,0,0,42.75,-84.99,0.3,[0 0 1],[0 0 1],[-0.17570567  0.66702152 -0.72402335],[-0.85283551 -0.17257377  0.49283859],-6.421268564557994,-68.47479724422087,175.62752403483643,[ 8.26017140e-01  2.48387488e-02 -5.63097434e-01 -3.99003633e-13],[ 8.26017140e-01  2.48387488e-02 -5.63097434e-01 -3.99003633e-13],[0.31347656 0.18164063 0.16699219 0.164063  ]
17:50:39.69,0,0,0,0,0,0,0,0,0,0,0,0,42.75,-84.99,0.3,[0 0 1],[0 0 1],[-0.17570567  0.66702152 -0.72402335],[-0.85283551 -0.17257377  0.49283859],-6.421268564557994,-68.47479724422087,175.62752403483643,[ 8.26017140e-01  2.48387488e-02 -5.63097434e-01 -3.99003633e-13],[ 8.26017140e-01  2.48387488e-02 -5.63097434e-01 -3.99003633e-13],[0.31347656 0.18164063 0.16699219 0.164063  ]
17:50:39.72,0,0,0,0,0,0,0,0,0,0,0,0,42.75,-84.99,0.3,[0 0 1],[0 0 1],[-0.17570567  0.66702152 -0.72402335],[-0.85283551 -0.17257377  0.49283859],-6.421268564557994,-68.47479724422087,175.62752403483643,[ 8.26017140e-01  2.48387488e-02 -5.63097434e-01 -3.99003633e-13],[ 8.26017140e-01  2.48387488e-02 -5.63097434e-01 -3.99003633e-13],[0.31347656 0.18164063 0.16699219 0.164063  ]
17:50:39.75,0,0,0,0,0,0,0,0,0,0,0,0,42.75,-84.99,0.3,[0 0 1],[0 0 1],[-0.17570567  0.66702152 -0.72402335],[-0.85283551 -0.17257377  0.49283859],-6.421268564557994,-68.47479724422087,175.62752403483643,[ 8.26017140e-01  2.48387488e-02 -5.63097434e-01 -3.99003633e-13],[ 8.26017140e-01  2.48387488e-02 -5.63097434e-01 -3.99003633e-13],[0.31347656 0.18164063 0.16699219 0.164063  ]
17:50:39.78,0,0,0,0,0,0,0,0,0,0,0,0,42.75,-84.99,0.3,[0 0 1],[0 0 1],[-0.17570567  0.66702152 -0.72402335],[-0.85283551 -0.17257377  0.49283859],-6.421268564557994,-68.47479724422087,175.62752403483643,[ 8.26017140e-01  2.48387488e-02 -5.63097434e-01 -3.99003633e-13],[ 8.26017140e-01  2.48387488e-02 -5.63097434e-01 -3.99003633e-13],[0.31347656 0.18164063 0.16699219 0.164063  ]
17:50:39.80,0,0,0,0,0,0,0,0,0,0,0,0,42.75,-84.99,0.3,[0 0 1],[0 0 1],[-0.17570567  0.66702152 -0.72402335],[-0.85283551 -0.17257377  0.49283859],-6.421268564557994,-68.47479724422087,175.62752403483643,[ 8.26017140e-01  2.48387488e-02 -5.63097434e-01 -3.99003633e-13],[ 8.26017140e-01  2.48387488e-02 -5.63097434e-01 -3.99003633e-13],[0.31347656 0.18164063 0.16699219 0.164063  ]
17:50:39.83,0,0,0,0,0,0,0,0,0,0,0,0,42.75,-84.99,0.3,[0 0 1],[0 0 1],[-0.17570567  0.66702152 -0.72402335],[-0.85283551 -0.17257377  0.49283859],-6.421268564557994,-68.47479724422087,175.62752403483643,[ 8.26017140e-01  2.48387488e-02 -5.63097434e-01 -3.99003633e-13],[ 8.26017140e-01  2.48387488e-02 -5.63097434e-01 -3.99003633e-13],[0.31347656 0.18164063 0.16699219 0.164063  ]
17:50:39.86,0,0,0,0,0,0,0,0,0,0,0,0,42.75,-84.99,0.3,[0 0 1],[0 0 1],[-0.17570567  0.66702152 -0.72402335],[-0.85283551 -0.17257377  0.49283859],-6.421268564557994,-68.47479724422087,175.62752403483643,[ 8.26017140e-01  2.48387488e-02 -5.63097434e-01 -3.99003633e-13],[ 8.26017140e-01  2.48387488e-02 -5.63097434e-01 -3.99003633e-13],[0.31347656 0.18164063 0.16699219 0.164063  ]
17:50:39.89,0,0,0,0,0,0,0,0,0,0,0,0,42.75,-84.99,0.3,[0 0 1],[0 0 1],[-0.17570567  0.66702152 -0.72402335],[-0.85283551 -0.17257377  0.49283859],-6.421268564557994,-68.47479724422087,175.62752403483643,[ 8.26017140e-01  2.48387488e-02 -5.63097434e-01 -3.99003633e-13],[ 8.26017140e-01  2.48387488e-02 -5.63097434e-01 -3.99003633e-13],[0.31347656 0.18164063 0.16699219 0.164063  ]
17:50:39.91,0,0,0,0,0,0,0,0,0,0,0,0,42.75,-84.99,0.3,[0 0 1],[0 0 1],[-0.17570567  0.66702152 -0.72402335],[-0.85283551 -0.17257377  0.49283859],-6.421268564557994,-68.47479724422087,175.62752403483643,[ 8.26017140e-01  2.48387488e-02 -5.63097434e-01 -3.99003633e-13],[ 8.26017140e-01  2.48387488e-02 -5.63097434e-01 -3.99003633e-13],[0.31347656 0.18164063 0.16699219 0.164063  ]
17:50:39.94,-12.24,-0.6533333333333333,-47.57333333333334,-103.76634146560977,-36.222317072926835,-10.939593498048781,0,0,0,0,0,0,42.75,-84.99,0.3,[0 0 1],[-0.20784903 -0.01410614 -0.9780592 ],[-0.17570567  0.66702152 -0.72402335],[-0.85283551 -0.17257377  0.49283859],-25.00043919858881,-50.3025890095524,-156.42279758993303,[ 0.84629792  0.27656149 -0.36615626 -0.27059779],[ 0.8293295   0.16248266 -0.42093554 -0.32958342],[0.31347656 0.18164063 0.16699219 0.164063  ]
17:50:39.97,-12.24,-0.6533333333333333,-47.57333333333334,-103.76634146560977,-36.222317072926835,-10.939593498048781,2.1055718475073313,2.334310850439883,2.096774193548387,0.15835777126099707,0.1436950146627566,0.14076246334310852,42.75,-84.99,0.3,"[[0.40642133]
 [0.01295599]
 [0.91359392]]",[-0.20784903 -0.01410614 -0.9780592 ],[-0.17570567  0.66702152 -0.72402335],[-0.85283551 -0.17257377  0.49283859],-32.95363700255461,-27.087408097204136,14.376178865127818,[ 0.18255172 -0.18830252 -0.30167281  0.91662999],[ 0.26980753 -0.30525057 -0.34821653  0.8442578 ],[0.31347656 0.18164063 0.16699219 0.164063  ]
17:50:40.00,-13.56,2.706666666666667,-47.29333333333334,-92.54682927048782,-35.91743902414635,-23.622520327317073,2.0850439882697946,2.3313782991202348,2.1173020527859236,0.15835777126099707,0.1466275659824047,0.1436950146627566,42.75,-84.99,0.3,"[[0.39970649]
 [0.0692312 ]
 [0.91402503]]",[-0.23414824  0.04942175 -0.97094392],[-0.17570567  0.66702152 -0.72402335],[-0.85283551 -0.17257377  0.49283859],-44.47124695447805,-31.26978774585147,41.4870382979672,[ 0.4110901  -0.10422294 -0.42914807  0.79748006],[ 0.36716349 -0.10428191 -0.53099072  0.75654815],[0.31347656 0.18164063 0.16699219 0.164063  ]
17:50:40.02,-14.773333333333333,5.733333333333333,-46.89333333333334,-86.02243902658537,11.765487805121952,-109.53715447365855,2.0879765395894427,2.334310850439883,2.1466275659824046,0.16129032258064516,0.1495601173020528,0.1436950146627566,42.75,-84.99,0.3,"[[0.37536562]
 [0.11269307]
 [0.9200005 ]]",[-0.25785405  0.10635927 -0.96031193],[-0.17570567  0.66702152 -0.72402335],[-0.85283551 -0.17257377  0.49283859],-51.219522232367574,-37.14705875546553,62.74923661389497,[ 0.56257779 -0.03191475 -0.49935762  0.65812586],[ 0.61056007 -0.01903797 -0.55771208  0.56197081],[0.31347656 0.18164063 0.16699219 0.164063  ]
17:50:40.05,-15.080000000000002,7.800000000000001,-46.54666666666667,-86.02243902658537,11.765487805121952,-109.53715447365855,2.0879765395894427,2.334310850439883,2.1466275659824046,0.16129032258064516,0.1495601173020528,0.1436950146627566,42.75,-84.99,0.3,"[[0.37536562]
 [0.11269307]
 [0.9200005 ]]",[-0.26483843  0.14535917 -0.953274  ],[-0.17570567  0.66702152 -0.72402335],[-0.85283551 -0.17257377  0.49283859],-53.04654798778368,-38.96092479809426,66.64426217416339,[ 0.58782947 -0.0180574  -0.51570157  0.6230428 ],[ 0.65601822 -0.0161736  -0.56207469  0.50343873],[0.31347656 0.18164063 0.16699219 0.164063  ]
17:50:40.08,-15.080000000000002,7.800000000000001,-46.54666666666667,-80.90048780707318,18.960609756341466,-97.89081301024392,2.099706744868035,2.346041055718475,2.1730205278592374,0.16422287390029325,0.15249266862170088,0.1466275659824047,42.75,-84.99,0.3,"[[0.36149637]
 [0.13386229]
 [0.92271407]]",[-0.26483843  0.14535917 -0.953274  ],[-0.17570567  0.66702152 -0.72402335],[-0.85283551 -0.17257377  0.49283859],-52.862563862415264,-39.51660266345011,70.96382454688762,[ 0.61170287 -0.00334182 -0.516835    0.59890735],[ 0.68115647 -0.01248523 -0.55513422  0.477175  ],[0.31347656 0.18164063 0.16699219 0.164063  ]
17:50:40.10,-15.040000000000001,9.786666666666667,-46.25333333333334,-52.60780488024391,13.350853658780489,8.511626014146342,2.1055718475073313,2.3519061583577714,2.19941348973607,0.16715542521994134,0.15542521994134897,0.1466275659824047,42.75,-84.99,0.3,"[[0.34063886]
 [0.16795729]
 [0.92507055]]",[-0.26523818  0.18279406 -0.94669691],[-0.17570567  0.66702152 -0.72402335],[-0.85283551 -0.17257377  0.49283859],-53.01810537325411,-40.68175532830876,78.22571498185934,[ 0.64970304  0.0226624  -0.52095233  0.55315554],[ 0.65941056 -0.05820181 -0.55227154  0.50674096],[0.31347656 0.18164063 0.16699219 0.164063  ]
17:50:40.13,-14.56,11.093333333333334,-46.160000000000004,6.35560975390244,-4.514999999756098,-1.6713008151219513,2.1055718475073313,2.3519061583577714,2.19941348973607,0.16715542521994134,0.15542521994134897,0.1466275659824047,42.75,-84.99,0.3,"[[0.34063886]
 [0.16795729]
 [0.92507055]]",[-0.25705242  0.20737976 -0.94388436],[-0.17570567  0.66702152 -0.72402335],[-0.85283551 -0.17257377  0.49283859],-52.94693015649843,-40.804280176019084,78.01935733056652,[ 0.64885671  0.02051966 -0.52108374  0.55410797],[ 0.64739824  0.02359491 -0.52493086  0.55205651],[0.16699219 1.2539063  1.0429688  0.16699219]
17:50:40.16,-14.56,11.093333333333334,-46.160000000000004,6.35560975390244,-4.514999999756098,-1.6713008151219513,2.1055718475073313,2.3519061583577714,2.2023460410557183,0.16715542521994134,0.15542521994134897,0.1495601173020528,42.75,-84.99,0.3,"[[0.34063886]
 [0.16795729]
 [0.92507055]]",[-0.25705242  0.20737976 -0.94388436],[-0.17570567  0.66702152 -0.72402335],[-0.85283551 -0.17257377  0.49283859],-52.94693015649826,-40.804280176018736,78.01935733056554,[ 0.64885671  0.02051966 -0.52108374  0.55410797],[ 0.64545342  0.03564668 -0.52036941  0.5579739 ],[0.16699219 1.2539063  1.0429688  0.16699219]
17:50:40.19,-15.106666666666667,10.440000000000001,-46.2,30.319024388048785,-26.954024390000004,-48.683495937073175,2.093841642228739,2.343108504398827,2.1700879765395893,0.16715542521994134,0.15542521994134897,0.1436950146627566,42.75,-84.99,0.3,"[[0.35940094]
 [0.14697933]
 [0.9215357 ]]",[-0.26644171  0.1948038  -0.9439599 ],[-0.17570567  0.66702152 -0.72402335],[-0.85283551 -0.17257377  0.49283859],-53.85067198688301,-40.602066328344115,74.53111635714421,[ 0.63137007  0.01097445 -0.52530233  0.57035853],[ 0.6502514   0.10659952 -0.52162589  0.54195579],[0.16699219 1.2539063  1.0429688  0.16699219]
17:50:40.21,-16.706666666666667,8.933333333333334,-46.0,-0.6565853680487805,-42.31987804853659,-97.58593496146342,2.0791788856304985,2.3313782991202348,2.131964809384164,0.16422287390029325,0.15249266862170088,0.1466275659824047,42.75,-84.99,0.3,"[[0.39039898]
 [0.10402936]
 [0.91474943]]",[-0.29494223  0.16631291 -0.94092991],[-0.17570567  0.66702152 -0.72402335],[-0.85283551 -0.17257377  0.49283859],-55.686591729247745,-40.3565116451073,68.52348851801341,[ 0.60039571 -0.00527912 -0.53402865  0.5952399 ],[ 0.64645209  0.09349632 -0.55782268  0.51204686],[0.16699219 1.2539063  1.0429688  0.16699219]
17:50:40.24,-18.773333333333333,8.293333333333333,-46.0,-0.6565853680487805,-42.31987804853659,-97.58593496146342,2.0791788856304985,2.3313782991202348,2.131964809384164,0.16422287390029325,0.15249266862170088,0.1466275659824047,42.75,-84.99,0.3,"[[0.39039898]
 [0.10402936]
 [0.91474943]]",[-0.32909681  0.15255894 -0.93189112],[-0.17570567  0.66702152 -0.72402335],[-0.85283551 -0.17257377  0.49283859],-57.55366403007851,-42.27387611422431,73.01966039749131,[ 0.62592428  0.01310548 -0.54894118  0.55381461],[ 0.66127657  0.11145393 -0.57358861  0.47041198],[0.16699219 1.2539063  1.0429688  0.16699219]
17:50:40.27,-18.773333333333333,8.293333333333333,-46.0,-28.339512197317074,-31.58817073146342,-99.72008130292684,2.06158357771261,2.3167155425219943,2.099706744868035,0.16715542521994134,0.15542521994134897,0.1466275659824047,42.75,-84.99,0.3,"[[0.40758446]
 [0.08715518]
 [0.90899884]]",[-0.32909681  0.15255894 -0.93189112],[-0.17570567  0.66702152 -0.72402335],[-0.85283551 -0.17257377  0.49283859],-57.80339256096972,-41.01862597175347,68.05187110815386,[ 0.59916297 -0.00090484 -0.54680116  0.58481742],[ 0.6509831   0.07322057 -0.5841516   0.47919377],[0.16699219 1.2539063  1.0429688  0.16699219]
17:50:40.29,-18.773333333333333,8.293333333333333,-45.74666666666667,-6.449268294878049,-12.075975609512197,-85.39081301024392,2.0557184750733137,2.310850439882698,2.0850439882697946,0.16715542521994134,0.15542521994134897,0.1436950146627566,42.75,-84.99,0.3,"[[0.41339337]
 [0.07858738]
 [0.90715486]]",[-0.33056948  0.15324162 -0.93125766],[-0.17570567  0.66702152 -0.72402335],[-0.85283551 -0.17257377  0.49283859],-57.97462978803125,-40.724389672001784,66.34771493882137,[ 0.58986585 -0.00615459 -0.54682577  0.5941397 ],[ 0.64916611  0.07205936 -0.56280844  0.50659399],[0.16699219 1.2539063  1.0429688  0.16699219]
17:50:40.32,-19.8,7.32,-45.26666666666667,30.37999999780488,-4.69792682902439,-57.220081302926836,2.0527859237536656,2.30791788856305,2.06158357771261,0.16422287390029325,0.15249266862170088,0.1436950146627566,42.75,-84.99,0.3,"[[0.43218439]
 [0.04352124]
 [0.90073445]]",[-0.35024782  0.13559169 -0.92679089],[-0.17570567  0.66702152 -0.72402335],[-0.85283551 -0.17257377  0.49283859],-58.708007882916235,-39.7348245755239,60.475896267345036,[ 0.55673699 -0.02373901 -0.54747089  0.62430441],[ 0.61032181  0.07134707 -0.5290457   0.58525852],[0.16699219 1.2539063  1.0429688  0.16699219]
17:50:40.35,-20.226666666666667,6.386666666666667,-45.2,30.37999999780488,-4.69792682902439,-57.220081302926836,2.0527859237536656,2.30791788856305,2.06158357771261,0.16422287390029325,0.15249266862170088,0.1436950146627566,42.75,-84.99,0.3,"[[0.43218439]
 [0.04352124]
 [0.90073445]]",[-0.35765212  0.11811149 -0.92635557],[-0.17570567  0.66702152 -0.72402335],[-0.85283551 -0.17257377  0.49283859],-58.57035029283931,-39.477539582582835,60.24197678439509,[ 0.55487031 -0.02374338 -0.5460668   0.62718916],[ 0.60925546  0.0667623  -0.51810782  0.59658601],[0.16699219 1.2539063  1.0429688  0.16699219]
17:50:40.37,-20.226666666666667,6.386666666666667,-45.2,77.5141463392683,1.4606097563414635,-22.76886179073171,2.0469208211143695,2.2991202346041058,2.0175953079178885,0.16422287390029325,0.15249266862170088,0.14076246334310852,42.75,-84.99,0.3,"[[ 0.45607301]
 [-0.00868068]
 [ 0.88990003]]",[-0.35765212  0.11811149 -0.92635557],[-0.17570567  0.66702152 -0.72402335],[-0.85283551 -0.17257377  0.49283859],-55.80710373731084,-34.4918998217768,44.821405259881146,[ 0.45003745 -0.07182255 -0.51307647  0.72736535],[ 0.48113911  0.02388543 -0.44728281  0.75357331],[0.16699219 1.2539063  1.0429688  0.16699219]
17:50:40.40,-20.453333333333333,3.466666666666667,-45.46666666666667,94.34341463195122,26.03378048804878,-16.610325205365854,1.6656891495601174,2.2903225806451615,1.9736070381231672,0.16129032258064516,0.1495601173020528,0.14076246334310852,42.75,-84.99,0.3,"[[0.64424951]
 [0.3881297 ]
 [0.65901283]]",[-0.35944979  0.06320644 -0.93102137],[-0.17570567  0.66702152 -0.72402335],[-0.85283551 -0.17257377  0.49283859],-56.80797360989844,-12.288413183870674,57.18883264733678,[ 0.46327449  0.14369499 -0.46032569  0.74352455],[ 0.48773094  0.17252593 -0.35061815  0.78065373],[0.16699219 1.2539063  1.0429688  0.16699219]
17:50:40.43,-19.64,0.10666666666666667,-45.54666666666667,83.67268292463415,45.42402439048781,-18.19569105902439,2.064516129032258,1.5747800586510263,0.3519061583577713,0.16129032258064516,0.1495601173020528,0.14076246334310852,42.75,-84.99,0.3,"[[ 0.23855229]
 [-0.94983094]
 [ 0.20227207]]",[-3.44459738e-01  2.75467010e-04 -9.38801051e-01],[-0.17570567  0.66702152 -0.72402335],[-0.85283551 -0.17257377  0.49283859],-23.437270740465863,19.266731429496122,-73.51564680453825,[ 0.60492843 -0.01144455  0.25848446 -0.75307131],[ 0.68385693  0.02308388  0.35235877 -0.63847485],[0.16699219 1.2539063  1.0429688  0.16699219]
17:50:40.46,-19.64,0.10666666666666667,-45.54666666666667,83.67268292463415,45.42402439048781,-18.19569105902439,2.064516129032258,1.5747800586510263,0.3519061583577713,0.15835777126099707,0.1466275659824047,0.1378299120234604,42.75,-84.99,0.3,"[[ 0.23852801]
 [-0.94973424]
 [ 0.20275417]]",[-3.44459738e-01  2.75467010e-04 -9.38801051e-01],[-0.17570567  0.66702152 -0.72402335],[-0.85283551 -0.17257377  0.49283859],-23.43366267996106,19.242776876161273,-73.51889610130924,[ 0.60493638 -0.01129034  0.25834599 -0.75311477],[ 0.56717343  0.09199038  0.23613924 -0.78363916],[0.16699219 1.2539063  1.0429688  0.16699219]
17:50:40.48,-18.093333333333334,-2.9466666666666668,-46.02666666666667,55.86780487585366,49.570365853902445,-31.793252034634147,2.0821114369501466,2.2609970674486806,1.900293255131965,0.15542521994134897,0.1466275659824047,0.1378299120234604,42.75,-84.99,0.3,"[[ 0.45293432]
 [-0.23876247]
 [ 0.85897787]]",[-0.31380734 -0.05721256 -0.9477614 ],[-0.17570567  0.66702152 -0.72402335],[-0.85283551 -0.17257377  0.49283859],-15.777471793991774,-21.124922543456627,-38.51868559573546,[ 0.2974361   0.21591494  0.06748247 -0.92755519],[ 0.25902516  0.28229349  0.06510677 -0.92139973],[0.16699219 1.2539063  1.0429688  0.16699219]
17:50:40.51,-16.573333333333334,-5.186666666666667,-45.94666666666667,28.91658536365854,19.143536585609755,-86.54934959560977,2.090909090909091,2.2580645161290325,1.8885630498533725,0.15542521994134897,0.1466275659824047,0.1378299120234604,42.75,-84.99,0.3,"[[ 0.44792053]
 [-0.26708596]
 [ 0.85324808]]",[-0.28632384 -0.10008542 -0.95289116],[-0.17570567  0.66702152 -0.72402335],[-0.85283551 -0.17257377  0.49283859],-16.00467158352206,-20.90988743100323,-40.56238012561554,[ 0.31385788  0.21600875  0.06612732 -0.92220422],[ 0.1929792   0.24771894  0.06960953 -0.94686264],[0.16699219 1.2539063  1.0429688  0.16699219]
17:50:40.54,-15.48,-6.880000000000001,-46.2,1.4775609734146342,22.80207317097561,-135.26886179073173,2.090909090909091,2.2580645161290325,1.8885630498533725,0.15542521994134897,0.1466275659824047,0.1378299120234604,42.75,-84.99,0.3,"[[ 0.44792053]
 [-0.26708596]
 [ 0.85324808]]",[-0.26425367 -0.13185903 -0.95539688],[-0.17570567  0.66702152 -0.72402335],[-0.85283551 -0.17257377  0.49283859],-16.25094542314596,-21.120073487549384,-40.009745867536935,[ 0.30858972  0.21801326  0.06849811 -0.92333667],[ 0.16908148  0.23422936  0.10620715 -0.95145578],[0.16699219 1.2539063  1.0429688  0.16699219]
17:50:40.57,-15.48,-6.880000000000001,-46.2,1.4775609734146342,22.80207317097561,-135.26886179073173,2.1114369501466275,2.2551319648093844,1.8885630498533725,0.15542521994134897,0.1436950146627566,0.1378299120234604,42.75,-84.99,0.3,"[[ 0.42932073]
 [-0.29575211]
 [ 0.85335479]]",[-0.26425367 -0.13185903 -0.95539688],[-0.17570567  0.66702152 -0.72402335],[-0.85283551 -0.17257377  0.49283859],-16.179837215155114,-21.26904415201101,-43.72129223321633,[ 0.33821041  0.22106877  0.06033334 -0.91274433],[ 0.19510325  0.2331454   0.09983461 -0.94742335],[0.16699219 1.2539063  1.0429688  0.16699219]
17:50:40.59,-14.760000000000002,-7.626666666666667,-46.32,-2.42487805097561,7.55817073195122,-58.500569107804886,2.126099706744868,2.2551319648093844,1.8856304985337244,0.15542521994134897,0.1466275659824047,0.1348973607038123,42.75,-84.99,0.3,"[[ 0.41193433]
 [-0.3166381 ]
 [ 0.85442988]]",[-0.25029196 -0.14590912 -0.95711257],[-0.17570567  0.66702152 -0.72402335],[-0.85283551 -0.17257377  0.49283859],-16.59819693127252,-21.542966318700962,-46.02184995981827,[ 0.35516791  0.22564958  0.05822221 -0.90528901],[ 0.25059802  0.23047387  0.09187472 -0.93575716],[0.16699219 1.2539063  1.0429688  0.16699219]
17:50:40.62,-14.760000000000002,-7.626666666666667,-46.32,37.209268290487806,6.155731707560976,-5.878617888292684,1.6686217008797655,2.2404692082111435,1.8533724340175952,0.15249266862170088,0.1466275659824047,0.1348973607038123,42.75,-84.99,0.3,"[[0.68891307]
 [0.25333242]
 [0.67913288]]",[-0.25029196 -0.14590912 -0.95711257],[-0.17570567  0.66702152 -0.72402335],[-0.85283551 -0.17257377  0.49283859],-34.72431731025369,-6.241640787763793,29.336254521669794,[ 0.25704059  0.0251837  -0.30141439  0.91784818],[ 0.2974907   0.10103057 -0.39616067  0.86275653],[0.16699219 1.2539063  1.0429688  0.16699219]
17:50:40.65,-14.280000000000001,-8.773333333333333,-46.093333333333334,98.12390243682927,-4.271097560731707,-22.159105693170734,1.6686217008797655,2.2404692082111435,1.8533724340175952,0.15249266862170088,0.1466275659824047,0.1348973607038123,42.75,-84.99,0.3,"[[0.68891307]
 [0.25333242]
 [0.67913288]]",[-0.24139403 -0.1680807  -0.95576033],[-0.17570567  0.66702152 -0.72402335],[-0.85283551 -0.17257377  0.49283859],-32.77849380734785,-5.9806512344759755,27.740784671508592,[ 0.24396281  0.01896118 -0.28555846  0.92659537],[ 0.25432157  0.07703678 -0.18656793  0.94582148],[0.16699219 1.2539063  1.0429688  0.16699219]
17:50:40.67,-14.280000000000001,-8.773333333333333,-46.093333333333334,98.12390243682927,-4.271097560731707,-22.159105693170734,2.0791788856304985,2.1700879765395893,1.7888563049853372,0.15249266862170088,0.1436950146627566,0.13196480938416422,42.75,-84.99,0.3,"[[ 0.39416471]
 [-0.39256015]
 [ 0.83098177]]",[-0.24139403 -0.1680807  -0.95576033],[-0.17570567  0.66702152 -0.72402335],[-0.85283551 -0.17257377  0.49283859],-17.64139760161253,-19.587962797230443,-51.02018052145467,[ 0.39583254  0.21678424  0.06398327 -0.89007153],[ 0.46258382  0.28450131  0.18220473 -0.81968082],[0.16699219 1.2539063  1.0429688  0.16699219]
17:50:40.70,-14.226666666666668,-11.64,-45.32,97.63609755878049,54.326463414878056,-106.97617886390245,2.029325513196481,2.0821114369501466,1.7067448680351907,0.1466275659824047,0.14076246334310852,0.13196480938416422,42.75,-84.99,0.3,"[[ 0.36309411]
 [-0.4554085 ]
 [ 0.812875  ]]",[-0.23942491 -0.22312511 -0.94492905],[-0.17570567  0.66702152 -0.72402335],[-0.85283551 -0.17257377  0.49283859],-17.659681022573828,-18.610546890302846,-56.54481540391322,[ 0.44003209  0.21246858  0.05772851 -0.87057239],[ 0.32127338  0.27907496  0.04304071 -0.90390712],[0.16699219 1.2539063  1.0429688  0.16699219]
17:50:40.73,-11.840000000000002,-15.920000000000002,-44.373333333333335,44.46536585146342,70.05817073195122,-130.3908130102439,2.0175953079178885,2.0205278592375366,1.689149560117302,0.1466275659824047,0.1378299120234604,0.12903225806451613,42.75,-84.99,0.3,"[[ 0.29554403]
 [-0.47597465]
 [ 0.82831266]]",[-0.19327588 -0.30621835 -0.93213451],[-0.17570567  0.66702152 -0.72402335],[-0.85283551 -0.17257377  0.49283859],-19.43056946408916,-20.84307222078174,-60.95891134914203,[ 0.46540032  0.23784038  0.05259724 -0.85092187],[ 0.33534894  0.31084484  0.0700554  -0.88657138],[0.16699219 1.2539063  1.0429688  0.16699219]
17:50:40.76,-8.120000000000001,-18.400000000000002,-44.013333333333335,25.197073168536587,34.32646341487805,-103.50056910780489,2.0175953079178885,2.0205278592375366,1.689149560117302,0.1466275659824047,0.1378299120234604,0.12903225806451613,42.75,-84.99,0.3,"[[ 0.29554403]
 [-0.47597465]
 [ 0.82831266]]",[-0.12219561 -0.35477927 -0.92693036],[-0.17570567  0.66702152 -0.72402335],[-0.85283551 -0.17257377  0.49283859],-21.85454346370565,-21.326546621577204,-58.07119718087558,[ 0.43765585  0.24926377  0.07469644 -0.86066566],[ 0.31200911  0.29310037  0.09972095 -0.89821947],[0.16699219 1.2539063  1.0429688  0.16699219]
17:50:40.78,-8.120000000000001,-18.400000000000002,-44.013333333333335,25.197073168536587,34.32646341487805,-103.50056910780489,2.0146627565982405,1.9853372434017595,1.6803519061583578,0.1466275659824047,0.1378299120234604,0.12903225806451613,42.75,-84.99,0.3,"[[ 0.24761179]
 [-0.49275138]
 [ 0.8341969 ]]",[-0.12219561 -0.35477927 -0.92693036],[-0.17570567  0.66702152 -0.72402335],[-0.85283551 -0.17257377  0.49283859],-22.975645400367384,-22.01610907069938,-62.02285981817346,[ 0.46300489  0.26109632  0.07114517 -0.84403409],[ 0.33335634  0.3005608   0.09621371 -0.88841414],[0.16699219 1.2539063  1.0429688  0.16699219]
17:50:40.81,-6.186666666666667,-19.386666666666667,-43.54666666666667,52.331219510000004,-20.124756097317075,-56.54934959560976,1.9765395894428153,1.9296187683284458,1.651026392961877,0.1436950146627566,0.1378299120234604,0.12903225806451613,42.75,-84.99,0.3,"[[ 0.21185511]
 [-0.49866723]
 [ 0.84050485]]",[-0.08563162 -0.37597288 -0.92266549],[-0.17570567  0.66702152 -0.72402335],[-0.85283551 -0.17257377  0.49283859],-25.045568766225852,-23.011785503125754,-63.3322215115117,[ 0.46536924  0.27727355  0.07861469 -0.83688146],[ 0.36378874  0.27316185  0.02967238 -0.89003365],[0.16699219 1.2539063  1.0429688  0.16699219]
17:50:40.84,-6.133333333333334,-21.013333333333335,-42.53333333333334,74.58731707097562,-12.746707316829271,-17.64691057121951,1.9237536656891496,1.8563049853372433,1.595307917888563,0.14076246334310852,0.1378299120234604,0.12609970674486803,42.75,-84.99,0.3,"[[ 0.17633726]
 [-0.51873785]
 [ 0.83655019]]",[-0.08408285 -0.40959813 -0.90838287],[-0.17570567  0.66702152 -0.72402335],[-0.85283551 -0.17257377  0.49283859],-25.90941463800898,-23.140133663512625,-66.42997340533071,[ 0.48537512  0.28383386  0.07667309 -0.82338968],[ 0.42392704  0.30604882 -0.02268452 -0.85211818],[0.16699219 1.2539063  1.0429688  0.16699219]
17:50:40.86,-6.106666666666667,-23.560000000000002,-41.10666666666667,74.58731707097562,-12.746707316829271,-17.64691057121951,1.9237536656891496,1.8563049853372433,1.595307917888563,0.14076246334310852,0.1378299120234604,0.12609970674486803,42.75,-84.99,0.3,"[[ 0.17633726]
 [-0.51873785]
 [ 0.83655019]]",[-0.08225182 -0.46037698 -0.88390479],[-0.17570567  0.66702152 -0.72402335],[-0.85283551 -0.17257377  0.49283859],-25.455784486810167,-23.615191162293375,-66.57464846557096,[ 0.48633713  0.28521132  0.07072895 -0.82287794],[ 0.4280198   0.31948139 -0.02982031 -0.84489138],[0.16699219 1.2539063  1.0429688  0.16699219]
17:50:40.89,-6.106666666666667,-23.560000000000002,-41.10666666666667,54.09951219292683,0.4240243904878048,-19.110325205365854,1.8739002932551319,1.7859237536656891,1.533724340175953,0.14076246334310852,0.1348973607038123,0.12609970674486803,42.75,-84.99,0.3,"[[ 0.15682304]
 [-0.5481896 ]
 [ 0.82151975]]",[-0.08225182 -0.46037698 -0.88390479],[-0.17570567  0.66702152 -0.72402335],[-0.85283551 -0.17257377  0.49283859],-26.519068121931763,-22.458898018092643,-68.37115368247154,[ 0.49947753  0.28320322  0.07959943 -0.81485095],[ 0.44070042  0.32878876  0.00324931 -0.83526674],[0.16699219 1.2539063  1.0429688  0.16699219]
17:50:40.92,-4.866666666666667,-24.48,-40.70666666666667,3.794634144146342,17.497195122195123,-83.3176422785366,1.8621700879765395,1.7595307917888563,1.533724340175953,0.14076246334310852,0.1348973607038123,0.12609970674486803,42.75,-84.99,0.3,"[[ 0.11949518]
 [-0.54014572]
 [ 0.83304472]]",[-0.05797986 -0.47855643 -0.87614045],[-0.17570567  0.66702152 -0.72402335],[-0.85283551 -0.17257377  0.49283859],-28.23915263860783,-23.914733883252644,-69.9437491772792,[ 0.50238135  0.30143417  0.08039569 -0.80640371],[ 0.39877918  0.32525898  0.11583185 -0.84956739],[0.16699219 1.2539063  1.0429688  0.16699219]
17:50:40.95,-4.866666666666667,-24.48,-40.70666666666667,9.8921951197561,65.24109756121952,-119.59813008341465,1.8621700879765395,1.7595307917888563,1.533724340175953,0.14076246334310852,0.1348973607038123,0.12609970674486803,42.75,-84.99,0.3,"[[ 0.11949518]
 [-0.54014572]
 [ 0.83304472]]",[-0.05797986 -0.47855643 -0.87614045],[-0.17570567  0.66702152 -0.72402335],[-0.85283551 -0.17257377  0.49283859],-28.23915263860783,-23.914733883252644,-69.9437491772792,[ 0.50238135  0.30143417  0.08039569 -0.80640371],[ 0.38254827  0.35156644  0.14135294 -0.84266079],[0.16699219 1.2539063  1.0429688  0.16699219]
17:50:40.97,-4.866666666666667,-24.48,-40.70666666666667,9.8921951197561,65.24109756121952,-119.59813008341465,1.8533724340175952,1.7272727272727273,1.5425219941348973,0.14076246334310852,0.1348973607038123,0.12316715542521994,42.75,-84.99,0.3,"[[ 0.05402321]
 [-0.51983859]
 [ 0.85255459]]",[-0.05797986 -0.47855643 -0.87614045],[-0.17570567  0.66702152 -0.72402335],[-0.85283551 -0.17257377  0.49283859],-29.95618728393779,-26.00253653953146,-74.37760992798707,[ 0.52261852  0.32534841  0.06925223 -0.78499836],[ 0.40179326  0.37464136  0.13606312 -0.82443487],[0.16699219 1.2539063  1.0429688  0.16699219]
17:50:41.00,3.4533333333333336,-24.333333333333336,-40.89333333333334,-23.827317075365855,128.96060975634148,-48.500569107804886,1.8328445747800586,1.6744868035190617,1.5454545454545454,0.1378299120234604,0.13196480938416422,0.12609970674486803,42.75,-84.99,0.3,"[[-0.0308589 ]
 [-0.50242229]
 [ 0.86407151]]",[ 0.10120101 -0.4752538  -0.87400926],[-0.17570567  0.66702152 -0.72402335],[-0.85283551 -0.17257377  0.49283859],-38.52031527946325,-29.087166933750424,-74.14250817273222,[ 0.48474308  0.38161768  0.11185331 -0.77902563],[ 0.42760313  0.46860568  0.20212895 -0.74612878],[0.16699219 1.2539063  1.0429688  0.16699219]
17:50:41.03,3.4533333333333336,-24.333333333333336,-39.906666666666666,-38.15658536804879,82.68012195146342,-25.26886179073171,1.8387096774193548,1.6598240469208212,1.563049853372434,0.1378299120234604,0.13196480938416422,0.12609970674486803,42.75,-84.99,0.3,"[[-0.08691438]
 [-0.48387895]
 [ 0.87080827]]",[ 0.10294927 -0.48346387 -0.86928944],[-0.17570567  0.66702152 -0.72402335],[-0.85283551 -0.17257377  0.49283859],-40.37171075697319,-30.377162565606326,-78.26028742993797,[ 0.50150166  0.40091083  0.1031365  -0.75969037],[ 0.47524135  0.46266573  0.21157519 -0.71785933],[0.16699219 1.2539063  1.0429688  0.16699219]
17:50:41.05,7.013333333333334,-23.14666666666667,-40.653333333333336,-38.15658536804879,82.68012195146342,-25.26886179073171,1.8387096774193548,1.6598240469208212,1.563049853372434,0.1378299120234604,0.13196480938416422,0.12609970674486803,42.75,-84.99,0.3,"[[-0.08691438]
 [-0.48387895]
 [ 0.87080827]]",[ 0.16996152 -0.45582466 -0.87369157],[-0.17570567  0.66702152 -0.72402335],[-0.85283551 -0.17257377  0.49283859],-42.834479289723454,-31.018812403135257,-75.48597313447799,[ 0.47188928  0.4122273   0.1258624  -0.76912146],[ 0.45134438  0.46557933  0.23613905 -0.72371437],[0.16699219 1.2539063  1.0429688  0.16699219]
17:50:41.08,7.013333333333334,-23.14666666666667,-40.653333333333336,-36.57121951439025,33.71670731731707,-52.95178862000001,1.8621700879765395,1.689149560117302,1.5923753665689149,0.1378299120234604,0.1348973607038123,0.12609970674486803,42.75,-84.99,0.3,"[[-0.0862415 ]
 [-0.46946319]
 [ 0.87873017]]",[ 0.16996152 -0.45582466 -0.87369157],[-0.17570567  0.66702152 -0.72402335],[-0.85283551 -0.17257377  0.49283859],-42.564838338543474,-31.785788524425854,-75.27142329813115,[ 0.4685339   0.41523592  0.1206349  -0.77039103],[ 0.42610616  0.41627988  0.23188962 -0.76900703],[0.16699219 1.2539063  1.0429688  0.16699219]
17:50:41.11,9.200000000000001,-21.853333333333335,-40.480000000000004,-12.973658538780489,75.7289024392683,-133.6225203273171,1.8651026392961876,1.656891495601173,1.6099706744868034,0.1378299120234604,0.13196480938416422,0.12316715542521994,42.75,-84.99,0.3,"[[-0.17323162]
 [-0.43935301]
 [ 0.8814532 ]]",[ 0.21304525 -0.43392342 -0.8753983 ],[-0.17570567  0.66702152 -0.72402335],[-0.85283551 -0.17257377  0.49283859],-47.1412785374307,-33.61349053496199,-80.49363195976557,[ 0.47863162  0.44960099  0.12095329 -0.74440649],[ 0.3698678   0.4697477   0.22068638 -0.77060524],[0.16699219 1.2539063  1.0429688  0.16699219]
17:50:41.14,12.946666666666667,-19.613333333333333,-39.85333333333334,-29.863902441219516,119.63134146365854,-100.26886179073172,1.8651026392961876,1.656891495601173,1.6099706744868034,0.1378299120234604,0.13196480938416422,0.12316715542521994,42.75,-84.99,0.3,"[[-0.17323162]
 [-0.43935301]
 [ 0.8814532 ]]",[ 0.2886127 -0.395258  -0.8720515],[-0.17570567  0.66702152 -0.72402335],[-0.85283551 -0.17257377  0.49283859],-49.92658891064353,-34.766270645686696,-76.93663485361424,[ 0.43948779  0.46261319  0.14685334 -0.75582644],[ 0.3541801   0.51796526  0.25637001 -0.7352162 ],[0.16699219 1.2539063  1.0429688  0.16699219]
17:50:41.16,12.946666666666667,-19.613333333333333,-39.85333333333334,-29.863902441219516,119.63134146365854,-100.26886179073172,1.844574780058651,1.5806451612903225,1.598240469208211,0.1348973607038123,0.13196480938416422,0.12316715542521994,42.75,-84.99,0.3,"[[-0.30040993]
 [-0.42475531]
 [ 0.85401218]]",[ 0.2886127 -0.395258  -0.8720515],[-0.17570567  0.66702152 -0.72402335],[-0.85283551 -0.17257377  0.49283859],-54.88476419336956,-33.58811773428094,-88.5786499981627,[ 0.49796031  0.49163393  0.1367678  -0.70116059],[ 0.41309651  0.54782391  0.25393523 -0.68173098],[0.16699219 1.2539063  1.0429688  0.16699219]
17:50:41.19,17.720000000000002,-17.6,-38.720000000000006,-39.13219512414635,128.83865853682929,-26.42739837609756,1.8005865102639296,1.4809384164222874,1.5542521994134897,0.13196480938416422,0.12903225806451613,0.12316715542521994,42.75,-84.99,0.3,"[[-0.40787135]
 [-0.42387234]
 [ 0.80868609]]",[ 0.38422513 -0.35740713 -0.85125272],[-0.17570567  0.66702152 -0.72402335],[-0.85283551 -0.17257377  0.49283859],-62.71826857420242,-32.45424588467841,-94.3154066897416,[ 0.50229044  0.52863194  0.16479968 -0.66414882],[ 0.46649842  0.59666014  0.26747664 -0.59567789],[0.13476563 0.14063    0.60351563 0.14941406]
17:50:41.22,21.92,-15.893333333333334,-37.04,-43.705365855853664,95.36304878073172,-28.622520327317073,1.7741935483870968,1.4193548387096775,1.5161290322580645,0.13196480938416422,0.12903225806451613,0.12023460410557185,42.75,-84.99,0.3,"[[-0.46358294]
 [-0.43235727]
 [ 0.77340678]]",[ 0.47041459 -0.32558238 -0.8201867 ],[-0.17570567  0.66702152 -0.72402335],[-0.85283551 -0.17257377  0.49283859],-68.52309069267636,-32.10298441497704,-95.68666358858079,[ 0.48431676  0.55444185  0.19370731 -0.64846664],[ 0.4650362   0.59453377  0.30515517 -0.58064728],[0.13476563 0.14063    0.60351563 0.14941406]
17:50:41.25,24.573333333333334,-13.946666666666667,-36.0,-33.15658536804879,34.32646341487805,-94.17130081512197,1.7741935483870968,1.4193548387096775,1.5161290322580645,0.13196480938416422,0.12903225806451613,0.12023460410557185,42.75,-84.99,0.3,"[[-0.46358294]
 [-0.43235727]
 [ 0.77340678]]",[ 0.52533381 -0.28758855 -0.80082284],[-0.17570567  0.66702152 -0.72402335],[-0.85283551 -0.17257377  0.49283859],-71.15558963477478,-33.85867674839999,-93.23414339222236,[ 0.44912464  0.56719625  0.21018271 -0.6575703 ],[ 0.39547871  0.54008784  0.32851858 -0.66631619],[0.13476563 0.14063    0.60351563 0.14941406]
17:50:41.27,24.573333333333334,-13.946666666666667,-36.0,-33.15658536804879,34.32646341487805,-94.17130081512197,1.7741935483870968,1.3929618768328447,1.4926686217008798,0.13196480938416422,0.12903225806451613,0.12023460410557185,42.75,-84.99,0.3,"[[-0.48094479]
 [-0.46167419]
 [ 0.74535163]]",[ 0.52533381 -0.28758855 -0.80082284],[-0.17570567  0.66702152 -0.72402335],[-0.85283551 -0.17257377  0.49283859],-71.75298349205393,-31.17932891645113,-94.77649908871832,[ 0.46776637  0.56286332  0.22190589 -0.64431149],[ 0.39675114  0.53956391  0.33852526 -0.66095384],[0.13476563 0.14063    0.60351563 0.14941406]
17:50:41.30,26.200000000000003,-11.08,-35.77333333333333,-27.059024392439028,14.875243902682927,-99.96398374195122,1.7859237536656891,1.3782991202346042,0.9090909090909091,0.13196480938416422,0.12903225806451613,0.12316715542521994,42.75,-84.99,0.3,"[[ 0.03577985]
 [-0.91719316]
 [ 0.39683309]]",[ 0.55848284 -0.22978285 -0.79705506],[-0.17570567  0.66702152 -0.72402335],[-0.85283551 -0.17257377  0.49283859],-70.11239075727649,-6.705760114559133,-62.57472645693472,[ 0.39568318  0.33869546  0.46514608 -0.7157928 ],[ 0.31914048  0.3068088   0.53454809 -0.71991393],[0.13476563 0.14063    0.60351563 0.14941406]
17:50:41.33,27.520000000000003,-9.013333333333334,-35.30666666666667,2.33121951,62.49719512219513,-59.17130081512196,1.7360703812316716,1.2727272727272727,1.530791788856305,0.13196480938416422,0.12609970674486803,0.12023460410557185,42.75,-84.99,0.3,"[[-0.66660049]
 [-0.30976695]
 [ 0.67800311]]",[ 0.5858625  -0.18792529 -0.78832051],[-0.17570567  0.66702152 -0.72402335],[-0.85283551 -0.17257377  0.49283859],-76.8084089570589,-26.156076842399926,-113.57688927593881,[ 0.5616445   0.60337841  0.18307141 -0.53570029],[ 0.45207555  0.61820035  0.27907936 -0.57928468],[0.13476563 0.14063    0.60351563 0.14941406]
17:50:41.35,27.520000000000003,-7.680000000000001,-35.30666666666667,2.33121951,62.49719512219513,-59.17130081512196,1.7360703812316716,1.2727272727272727,1.530791788856305,0.13196480938416422,0.12609970674486803,0.12023460410557185,42.75,-84.99,0.3,"[[-0.66660049]
 [-0.30976695]
 [ 0.67800311]]",[ 0.58838824 -0.16133807 -0.79231894],[-0.17570567  0.66702152 -0.72402335],[-0.85283551 -0.17257377  0.49283859],-76.24787498406408,-25.55708640293392,-113.80961388803638,[ 0.56816601  0.59940556  0.1829805  -0.53330901],[ 0.48905073  0.63520488  0.28113888 -0.52754628],[0.13476563 0.14063    0.60351563 0.14941406]
17:50:41.38,27.520000000000003,-7.680000000000001,-35.30666666666667,0.8678048758536585,97.43621951243904,-41.54934959560976,0.4222873900293255,0.4046920821114369,1.4545454545454546,0.12903225806451613,0.12609970674486803,0.12023460410557185,42.75,-84.99,0.3,"[[-0.50401864]
 [ 0.84906848]
 [ 0.15826536]]",[ 0.58838824 -0.16133807 -0.79231894],[-0.17570567  0.66702152 -0.72402335],[-0.85283551 -0.17257377  0.49283859],-12.545945388121782,24.34662258166148,115.85355049645692,[0.81112223 0.20180818 0.12089905 0.53547885],[0.7631901  0.30508378 0.23643078 0.51823281],[0.13476563 0.14063    0.60351563 0.14941406]
17:50:41.41,29.560000000000002,-7.680000000000001,-32.98666666666667,1.8434146319512195,91.21670731731707,-45.45178862000001,1.3695014662756597,1.1407624633431086,1.3753665689149561,0.12903225806451613,0.12316715542521994,0.12023460410557185,42.75,-84.99,0.3,"[[-0.5961949 ]
 [ 0.03288662]
 [ 0.80216589]]",[ 0.63846644 -0.16349639 -0.75208346],[-0.17570567  0.66702152 -0.72402335],[-0.85283551 -0.17257377  0.49283859],-91.33273169607128,-64.10639117723471,-102.76747556707065,[ 0.22587908  0.70514753  0.08857462 -0.66625831],[ 0.30940455  0.66981905  0.23053895 -0.63439976],[0.13476563 0.14063    0.60351563 0.14941406]
17:50:41.44,32.93333333333334,-6.880000000000001,-31.253333333333334,0.07512194902439026,29.326463414878052,-56.73227642487806,1.5425219941348973,1.1085043988269794,1.3519061583577712,0.12903225806451613,0.12316715542521994,0.12023460410557185,42.75,-84.99,0.3,"[[-0.68699965]
 [-0.32076058]
 [ 0.65203077]]",[ 0.69729733 -0.14450577 -0.70206447],[-0.17570567  0.66702152 -0.72402335],[-0.85283551 -0.17257377  0.49283859],-86.04305041548962,-30.909203695233597,-109.24631908027852,[ 0.46929645  0.64897551  0.22187255 -0.55620518],[ 0.38732591  0.66436251  0.2976131  -0.56570976],[0.13476563 0.14063    0.60351563 0.14941406]
17:50:41.46,32.93333333333334,-6.880000000000001,-31.253333333333334,0.07512194902439026,29.326463414878052,-56.73227642487806,1.5425219941348973,1.1085043988269794,1.3519061583577712,0.12903225806451613,0.12316715542521994,0.12023460410557185,42.75,-84.99,0.3,"[[-0.68699965]
 [-0.32076058]
 [ 0.65203077]]",[ 0.69729733 -0.14450577 -0.70206447],[-0.17570567  0.66702152 -0.72402335],[-0.85283551 -0.17257377  0.49283859],-86.04305041548962,-30.909203695233597,-109.24631908027852,[ 0.46929645  0.64897551  0.22187255 -0.55620518],[ 0.39884998  0.65391351  0.30807128 -0.56427644],[0.13476563 0.14063    0.60351563 0.14941406]
17:50:41.49,33.53333333333334,-5.133333333333334,-30.46666666666667,10.197073168536587,-38.53939024365854,-69.53715447365855,1.565982404692082,1.1290322580645162,1.3841642228739004,0.12903225806451613,0.12609970674486803,0.12023460410557185,42.75,-84.99,0.3,"[[-0.69523375]
 [-0.29977481]
 [ 0.65328791]]",[ 0.7148764  -0.1092964  -0.69065623],[-0.17570567  0.66702152 -0.72402335],[-0.85283551 -0.17257377  0.49283859],-87.65083390132358,-32.270269134914614,-109.5625985670673,[ 0.45520013  0.6590535   0.21981697 -0.55688582],[ 0.40162155  0.60369506  0.26316507 -0.6363934 ],[0.13476563 0.14063    0.60351563 0.14941406]
17:50:41.52,33.53333333333334,-3.64,-30.92,45.014146339268294,-66.89304878024392,-70.39081301024392,1.6187683284457477,1.1788856304985338,1.4398826979472141,0.12903225806451613,0.12609970674486803,0.12023460410557185,42.75,-84.99,0.3,"[[-0.68819244]
 [-0.28806287]
 [ 0.66589109]]",[ 0.71203714 -0.07785878 -0.69781167],[-0.17570567  0.66702152 -0.72402335],[-0.85283551 -0.17257377  0.49283859],-87.39411446784584,-33.31454353135666,-109.06281163469382,[ 0.44922089  0.65929284  0.21525769 -0.56320304],[ 0.38129126  0.60502143  0.20464091 -0.66834732],[0.13476563 0.14063    0.60351563 0.14941406]
17:50:41.55,31.880000000000003,-2.8266666666666667,-32.29333333333334,42.453170729512195,-63.78329268268293,-64.65910569317074,1.6656891495601174,1.219941348973607,1.4897360703812317,0.12903225806451613,0.12609970674486803,0.12023460410557185,42.75,-84.99,0.3,"[[-0.68582248]
 [-0.27636377]
 [ 0.67325374]]",[ 0.68023646 -0.06112987 -0.73043925],[-0.17570567  0.66702152 -0.72402335],[-0.85283551 -0.17257377  0.49283859],-83.18329304113973,-30.17049079558181,-111.64096745683952,[ 0.50034256  0.63958792  0.1990478  -0.5486024 ],[ 0.42507494  0.59430191  0.18493375 -0.6572032 ],[0.13476563 0.14063    0.60351563 0.14941406]
17:50:41.57,31.880000000000003,-2.8266666666666667,-32.29333333333334,42.453170729512195,-63.78329268268293,-64.65910569317074,1.6656891495601174,1.219941348973607,1.4897360703812317,0.12903225806451613,0.12903225806451613,0.12023460410557185,42.75,-84.99,0.3,"[[-0.68899788]
 [-0.27539523]
 [ 0.6704024 ]]",[ 0.68023646 -0.06112987 -0.73043925],[-0.17570567  0.66702152 -0.72402335],[-0.85283551 -0.17257377  0.49283859],-83.01851485761722,-29.700636999554874,-112.11350606849477,[ 0.50564464  0.63860585  0.19847526 -0.54508131],[ 0.43275565  0.59562898  0.17829078 -0.65281013],[0.13476563 0.14063    0.60351563 0.14941406]
17:50:41.60,30.46666666666667,-2.3333333333333335,-34.02666666666667,18.61170731487805,-47.99060975585366,-48.43959349804879,1.7126099706744868,1.2609970674486803,1.5395894428152492,0.12903225806451613,0.12903225806451613,0.12023460410557185,42.75,-84.99,0.3,"[[-0.68655823]
 [-0.26425638]
 [ 0.67735247]]",[ 0.64568734 -0.05039864 -0.76193689],[-0.17570567  0.66702152 -0.72402335],[-0.85283551 -0.17257377  0.49283859],-78.33057282053697,-26.27903752768424,-115.40737005199757,[ 0.5615148   0.61404824  0.17962341 -0.52476787],[ 0.50251564  0.57131659  0.17549525 -0.62472138],[0.13476563 0.14063    0.60351563 0.14941406]
17:50:41.63,29.30666666666667,-1.6933333333333334,-35.2,-8.034634148536586,-59.45402439000001,-49.29325203463415,1.7595307917888563,1.310850439882698,1.595307917888563,0.13196480938416422,0.12903225806451613,0.12316715542521994,42.75,-84.99,0.3,"[[-0.67639997]
 [-0.24738101]
 [ 0.69374759]]",[ 0.61930447 -0.03696504 -0.78428028],[-0.17570567  0.66702152 -0.72402335],[-0.85283551 -0.17257377  0.49283859],-74.99605042578358,-25.11216385355956,-117.53777722216114,[ 0.59356094  0.59749637  0.16059382 -0.51467769],[ 0.56517028  0.52717305  0.16796533 -0.61193038],[0.13476563 0.14063    0.60351563 0.14941406]
17:50:41.66,27.733333333333334,-0.25333333333333335,-36.800000000000004,-8.034634148536586,-59.45402439000001,-49.29325203463415,1.7595307917888563,1.310850439882698,1.595307917888563,0.13196480938416422,0.12903225806451613,0.12316715542521994,42.75,-84.99,0.3,"[[-0.67639997]
 [-0.24738101]
 [ 0.69374759]]",[ 0.58243765 -0.00710342 -0.81284434],[-0.17570567  0.66702152 -0.72402335],[-0.85283551 -0.17257377  0.49283859],-68.65297476004834,-20.160874318605668,-122.43341731583918,[ 0.66510533  0.55620497  0.14064145 -0.47800724],[ 0.63756007  0.4874075   0.14093758 -0.57973069],[0.13476563 0.14063    0.60351563 0.14941406]
17:50:41.68,27.733333333333334,-0.25333333333333335,-36.800000000000004,-19.19317073390244,-82.74670731682927,-68.4395934980488,1.8387096774193548,1.3988269794721409,1.683284457478006,0.13196480938416422,0.12903225806451613,0.12609970674486803,42.75,-84.99,0.3,"[[-0.65289201]
 [-0.23349372]
 [ 0.72056416]]",[ 0.58243765 -0.00710342 -0.81284434],[-0.17570567  0.66702152 -0.72402335],[-0.85283551 -0.17257377  0.49283859],-70.21886961300405,-23.956354043092684,-119.69605877111557,[ 0.6320113   0.5717719   0.13579326 -0.50517205],[ 0.61346223  0.4841794   0.12709053 -0.61080471],[0.13476563 0.14063    0.60351563 0.14941406]
17:50:41.71,25.28,1.5333333333333334,-38.480000000000004,-7.729756099756098,-83.29548780463415,-76.06154471756098,1.9090909090909092,1.4780058651026393,1.7653958944281525,0.1348973607038123,0.1348973607038123,0.12316715542521994,42.75,-84.99,0.3,"[[-0.64297044]
 [-0.2012634 ]
 [ 0.73897365]]",[ 0.53064563  0.02958726 -0.84707722],[-0.17570567  0.66702152 -0.72402335],[-0.85283551 -0.17257377  0.49283859],-60.12808502913762,-18.58854713257956,-129.59691847661657,[ 0.73835536  0.50685027  0.08404081 -0.43688821],[ 0.70078556  0.43581859  0.07782282 -0.55937944],[0.13476563 0.14063    0.60351563 0.14941406]
17:50:41.74,22.880000000000003,3.6133333333333337,-38.480000000000004,-38.76634146560976,-75.55158536560977,-72.82983740048782,1.9736070381231672,1.5601173020527859,1.8651026392961876,0.1348973607038123,0.1348973607038123,0.12903225806451613,42.75,-84.99,0.3,"[[-0.62724526]
 [-0.15394625]
 [ 0.76345526]]",[ 0.49203593  0.07396953 -0.86742674],[-0.17570567  0.66702152 -0.72402335],[-0.85283551 -0.17257377  0.49283859],-46.72446890107893,-14.006020288287761,-144.74837524650522,[ 0.85375275  0.40899857  0.01250566 -0.3219783 ],[ 0.83320499  0.32925547  0.01899865 -0.44384607],[0.13476563 0.14063    0.60351563 0.14941406]
17:50:41.76,22.880000000000003,3.6133333333333337,-40.57333333333334,-38.76634146560976,-75.55158536560977,-72.82983740048782,1.9736070381231672,1.5601173020527859,1.8651026392961876,0.1348973607038123,0.1348973607038123,0.12903225806451613,42.75,-84.99,0.3,"[[-0.62724526]
 [-0.15394625]
 [ 0.76345526]]",[ 0.47359185  0.07119677 -0.87786205],[-0.17570567  0.66702152 -0.72402335],[-0.85283551 -0.17257377  0.49283859],-45.54566594731418,-13.707269905762283,-145.90244252680822,[ 0.86168605  0.39968357  0.00747918 -0.3125608 ],[ 0.84629796  0.31845776 -0.017023   -0.42670204],[0.13476563 0.14063    0.60351563 0.14941406]
17:50:41.79,22.880000000000003,3.6133333333333337,-40.57333333333334,-19.98585366073171,-58.11256097536586,-48.744471546829274,2.0205278592375366,1.6275659824046922,1.935483870967742,0.1378299120234604,0.1378299120234604,0.12903225806451613,42.75,-84.99,0.3,"[[-0.60967067]
 [-0.11345246]
 [ 0.7844936 ]]",[ 0.47359185  0.07119677 -0.87786205],[-0.17570567  0.66702152 -0.72402335],[-0.85283551 -0.17257377  0.49283859],-40.93445075827028,-13.968633334044037,-153.08674774654776,[ 0.89449597  0.36405883 -0.03002596 -0.25775293],[ 0.87740909  0.30472744 -0.06502128 -0.36478309],[0.13476563 0.14063    0.60351563 0.14941406]
17:50:41.82,21.373333333333335,5.4,-41.720000000000006,5.197073168536586,-17.685731707073174,-21.854227644390246,2.038123167155425,1.653958944281525,1.9530791788856305,0.1378299120234604,0.1378299120234604,0.13196480938416422,42.75,-84.99,0.3,"[[-0.59386888]
 [-0.11818085]
 [ 0.79583481]]",[ 0.4381004   0.10625722 -0.89262391],[-0.17570567  0.66702152 -0.72402335],[-0.85283551 -0.17257377  0.49283859],-33.60721444766887,-13.534617460368075,-159.72516425421907,[ 0.92979493  0.30245113 -0.06051633 -0.20085437],[ 0.90972849  0.3042369  -0.08173929 -0.27046752],[0.13476563 0.14063    0.60351563 0.14941406]
17:50:41.85,19.62666666666667,5.880000000000001,-42.42666666666667,37.81902438804878,-3.600365853414634,-51.85422764439025,2.0410557184750733,1.656891495601173,1.9618768328445748,0.1378299120234604,0.1378299120234604,0.12609970674486803,42.75,-84.99,0.3,"[[-0.60001497]
 [-0.10001212]
 [ 0.79371255]]",[ 0.4033377   0.11584616 -0.90768847],[-0.17570567  0.66702152 -0.72402335],[-0.85283551 -0.17257377  0.49283859],-29.621723649465203,-13.147341080905084,-165.62770074866853,[ 0.94921394  0.26579859 -0.07804038 -0.14917677],[ 0.9110837   0.33060341 -0.07547338 -0.234375  ],[0.13476563 0.14063    0.60351563 0.14941406]
17:50:41.88,19.400000000000002,5.986666666666667,-42.49333333333334,63.24585365634147,-43.53939024365854,-79.29325203463415,2.0410557184750733,1.656891495601173,1.9618768328445748,0.1378299120234604,0.1378299120234604,0.12609970674486803,42.75,-84.99,0.3,"[[-0.60001497]
 [-0.10001212]
 [ 0.79371255]]",[ 0.39890869  0.11801083 -0.90936533],[-0.17570567  0.66702152 -0.72402335],[-0.85283551 -0.17257377  0.49283859],-29.31891915680007,-13.154570476665036,-165.9299363575509,[ 0.95029371  0.26308723 -0.07918886 -0.146479  ],[ 0.91290316  0.33074313 -0.07148368 -0.22826933],[0.13476563 0.14063    0.60351563 0.14941406]
17:50:41.90,19.400000000000002,5.986666666666667,-42.49333333333334,63.24585365634147,-43.53939024365854,-79.29325203463415,2.0557184750733137,1.6715542521994136,1.6774193548387097,0.1378299120234604,0.1378299120234604,0.12903225806451613,42.75,-84.99,0.3,"[[-0.34377331]
 [-0.55165101]
 [ 0.75993492]]",[ 0.39890869  0.11801083 -0.90936533],[-0.17570567  0.66702152 -0.72402335],[-0.85283551 -0.17257377  0.49283859],-60.931493835357806,-22.940225882919663,-87.26833986513864,[ 0.5099259   0.46693788  0.241359   -0.68094819],[ 0.47425285  0.49568465  0.17359887 -0.70657228],[0.13476563 0.14063    0.60351563 0.14941406]
17:50:41.93,18.013333333333335,4.8933333333333335,-43.040000000000006,-13.644390246097561,-110.55158536560977,-30.512764229756097,2.0850439882697946,1.5131964809384164,1.2727272727272727,0.14076246334310852,0.14076246334310852,0.12903225806451613,42.75,-84.99,0.3,"[[-0.21040863]
 [-0.85035635]
 [ 0.48230933]]",[ 0.37276121  0.09624184 -0.92292285],[-0.17570567  0.66702152 -0.72402335],[-0.85283551 -0.17257377  0.49283859],-61.98922994087561,-3.798614218146761,-79.24028758481937,[ 0.53319498  0.35008985  0.37833082 -0.67082487],[ 0.52716747  0.25693118  0.32576301 -0.7415924 ],[0.13476563 0.14063    0.60351563 0.14941406]
17:50:41.96,14.413333333333334,5.346666666666667,-44.70666666666667,4.526341461219513,-109.7589024387805,-25.085934961463416,2.1847507331378297,1.8973607038123168,2.134897360703812,0.1436950146627566,0.1436950146627566,0.13196480938416422,42.75,-84.99,0.3,"[[-0.46404739]
 [-0.05709725]
 [ 0.88396828]]",[ 0.29833149  0.10422159 -0.94875507],[-0.17570567  0.66702152 -0.72402335],[-0.85283551 -0.17257377  0.49283859],-24.169514900061415,-22.280955622917205,-174.2436355188187,[ 0.95617156  0.21464109 -0.17838065 -0.08857485],[ 0.95200444  0.11902572 -0.20159871 -0.19717603],[0.13476563 0.14063    0.60351563 0.14941406]
17:50:41.98,14.413333333333334,5.346666666666667,-44.70666666666667,4.526341461219513,-109.7589024387805,-25.085934961463416,2.1847507331378297,1.8973607038123168,2.134897360703812,0.1436950146627566,0.1436950146627566,0.13196480938416422,42.75,-84.99,0.3,"[[-0.46404739]
 [-0.05709725]
 [ 0.88396828]]",[ 0.29833149  0.10422159 -0.94875507],[-0.17570567  0.66702152 -0.72402335],[-0.85283551 -0.17257377  0.49283859],-24.169514900061415,-22.280955622917205,-174.2436355188187,[ 0.95617156  0.21464109 -0.17838065 -0.08857485],[ 0.92414835  0.19228993 -0.29910532 -0.13967969],[0.13476563 0.14063    0.60351563 0.14941406]
