Time,MagX,MagY,MagZ,GyroX,GyroY,GyroZ,AccelX,AccelY,AccelZ,Tri11,Tri12,Tri13,Tri21,Tri22,Tri23,Lat,Lon,Alt,SunVect,MagVect,MagRef,SunRef,Roll,Pitch,Yaw,static_q,dynamic_q
1718050252.1666424,50.29333333333334,7.986666666666667,-18.36,-0.6707317073170732,-1.707317073170732,-1.4634146341463417,-1.031494140625,0.08056640625,-0.072998046875,1.498533724340176,1.0146627565982405,1.2932551319648093,0.12609970674486803,0.1436950146627566,0.15249266862170088,42.3,-83.7,0.3,[-0.70846374  0.33037178  0.62364543],[ 0.92908337  0.14754002 -0.33916962],[ 0.19183003  0.19043592 -0.96277484],[0.4040646  0.2734554  0.87289973],-31.464853751209212,59.37492174928985,-147.41506582930896,[ 0.84028949  0.09235746  0.52365383 -0.10568981],[ 0.84422518  0.06854647  0.52184647 -0.101299  ]
1718050252.192425,50.30666666666667,8.373333333333333,-18.133333333333333,0.9146341463414634,-2.9268292682926833,-2.073170731707317,-1.00048828125,0.019287109375,-0.0556640625,1.498533724340176,1.0175953079178885,1.2932551319648093,0.12609970674486803,0.1436950146627566,0.15249266862170088,42.3,-83.7,0.3,[-0.70552047  0.33154966  0.62635109],[ 0.92942557  0.15469898 -0.3350169 ],[ 0.19183003  0.19043592 -0.96277484],[0.4040646  0.2734554  0.87289973],-31.178131169074824,59.55680822425517,-147.48958821657072,[ 0.8399631   0.09002031  0.52454424 -0.10588525],[ 0.84799442  0.07869156  0.51098535 -0.11664935]
1718050252.2181425,50.400000000000006,8.173333333333334,-18.013333333333335,-3.7195121951219514,0.0,-0.853658536585366,-0.974609375,0.014404296875,-0.04248046875,1.4926686217008798,1.0146627565982405,1.2932551319648093,0.12609970674486803,0.1436950146627566,0.15249266862170088,42.3,-83.7,0.3,[-0.70836021  0.32337317  0.6274198 ],[ 0.93087157  0.1509588  -0.3327004 ],[ 0.19183003  0.19043592 -0.96277484],[0.4040646  0.2734554  0.87289973],-30.002805364492342,60.07118738199837,-148.87324597730452,[ 0.84031198  0.08614821  0.52587482 -0.09954861],[ 0.84414093  0.06477774  0.52271505 -0.09999453]
1718050252.2461693,50.46666666666667,8.253333333333334,-18.213333333333335,-4.451219512195122,2.8658536585365857,-0.24390243902439027,-0.96923828125,0.066162109375,-0.05126953125,1.4897360703812317,1.0146627565982405,1.2961876832844574,0.12609970674486803,0.1436950146627566,0.15249266862170088,42.3,-83.7,0.3,[-0.7105166   0.31481766  0.6293298 ],[ 0.92968245  0.15204054 -0.3355208 ],[ 0.19183003  0.19043592 -0.96277484],[0.4040646  0.2734554  0.87289973],-29.25488559989741,60.14126699809222,-149.45655347025982,[ 0.84111899  0.08312477  0.52527022 -0.09849021],[ 0.83577196  0.05757388  0.53904835 -0.08716282]
1718050252.2723248,50.50666666666667,8.373333333333333,-18.36,-2.439024390243903,4.878048780487806,-2.5609756097560976,-0.994873046875,0.06005859375,-0.076171875,1.4926686217008798,1.0117302052785924,1.2903225806451613,0.12609970674486803,0.1436950146627566,0.15249266862170088,42.3,-83.7,0.3,[-0.70905906  0.32718423  0.62464849],[ 0.92862505  0.15395368 -0.33757041],[ 0.19183003  0.19043592 -0.96277484],[0.4040646  0.2734554  0.87289973],-31.299597294811004,59.46947152377274,-147.26434785441003,[ 0.83995773  0.09015662  0.5242513  -0.10725371],[ 0.82458906  0.06233009  0.55288036 -0.10242629]
1718050252.2992556,50.480000000000004,8.360000000000001,-17.906666666666666,-2.804878048780488,6.2804878048780495,-0.853658536585366,-1.001953125,0.053955078125,-0.0634765625,1.4897360703812317,1.0087976539589443,1.2903225806451613,0.12609970674486803,0.1436950146627566,0.15249266862170088,42.3,-83.7,0.3,[-0.71193763  0.32250625  0.62380648],[ 0.93118644  0.15421392 -0.33031785],[ 0.19183003  0.19043592 -0.96277484],[0.4040646  0.2734554  0.87289973],-30.604290574947363,60.10370372714277,-148.06806220654073,[ 0.8390335   0.08675563  0.52723088 -0.10258575],[ 0.81635939  0.06644744  0.56558946 -0.09618032]
1718050252.3262928,50.413333333333334,8.253333333333334,-17.746666666666666,-2.5609756097560976,8.841463414634147,1.2195121951219514,-0.9814453125,0.072265625,-0.042724609375,1.4838709677419355,1.0,1.2873900293255132,0.12609970674486803,0.1436950146627566,0.1495601173020528,42.3,-83.7,0.3,[-0.71831516  0.31695289  0.61932559],[ 0.93221205  0.15261551 -0.32816034],[ 0.19183003  0.19043592 -0.96277484],[0.4040646  0.2734554  0.87289973],-30.729075619987295,60.34306848281778,-147.93772763294615,[ 0.83798298  0.08632136  0.5290396  -0.10222648],[ 0.80587733  0.0759693   0.58109271 -0.08438988]
1718050252.3533323,50.480000000000004,8.266666666666667,-17.533333333333335,-2.5,12.073170731707318,2.5,-0.984130859375,0.053466796875,-0.039794921875,1.4750733137829912,0.9941348973607038,1.2756598240469208,0.12609970674486803,0.1436950146627566,0.1495601173020528,42.3,-83.7,0.3,[-0.71515707  0.32396465  0.6193523 ],[ 0.93353736  0.15287722 -0.32424766],[ 0.19183003  0.19043592 -0.96277484],[0.4040646  0.2734554  0.87289973],-31.00250516701235,60.41197112122141,-147.81268564470446,[ 0.83742252  0.08752656  0.52983688 -0.10166372],[ 0.79233503  0.08556398  0.59965886 -0.07275472]
1718050252.380771,50.42666666666667,8.266666666666667,-17.46666666666667,-2.1341463414634148,13.109756097560977,3.7195121951219514,-1.022216796875,0.068115234375,-0.043212890625,1.469208211143695,0.9853372434017595,1.2697947214076246,0.12609970674486803,0.1436950146627566,0.1495601173020528,42.3,-83.7,0.3,[-0.71932703  0.3233662   0.61481942],[ 0.93378378  0.15307931 -0.32344176],[ 0.19183003  0.19043592 -0.96277484],[0.4040646  0.2734554  0.87289973],-31.728318967601197,60.36079825850043,-146.99534501770353,[ 0.83630604  0.08920728  0.53078024 -0.1044347 ],[ 0.78359026  0.09566927  0.61038595 -0.06528933]
1718050252.4073684,50.413333333333334,8.24,-17.400000000000002,-1.2804878048780488,12.01219512195122,4.024390243902439,-1.0283203125,0.0615234375,-0.03515625,1.4604105571847508,0.9765395894428153,1.2668621700879765,0.12609970674486803,0.1436950146627566,0.1495601173020528,42.3,-83.7,0.3,[-0.72564799  0.3142148   0.61213075],[ 0.93419527  0.15269312 -0.3224345 ],[ 0.19183003  0.19043592 -0.96277484],[0.4040646  0.2734554  0.87289973],-31.404634185007826,60.64516437215646,-147.22417891303402,[ 0.83577359  0.08699697  0.53219298 -0.10336665],[ 0.78298941  0.1020504   0.61034879 -0.06314796]
1718050252.4343243,50.36000000000001,8.200000000000001,-17.253333333333334,-0.3658536585365854,10.670731707317074,4.51219512195122,-1.0205078125,0.056396484375,-0.02734375,1.4516129032258065,0.967741935483871,1.249266862170088,0.12609970674486803,0.1436950146627566,0.1495601173020528,42.3,-83.7,0.3,[-0.72094561  0.3301199   0.60930967],[ 0.93499294  0.15224269 -0.32032853],[ 0.19183003  0.19043592 -0.96277484],[0.4040646  0.2734554  0.87289973],-32.95476941671298,60.24499701893072,-145.84255325167553,[ 0.83466022  0.09318106  0.53206934 -0.10752588],[ 0.78593435  0.11300783  0.60429112 -0.06609593]
1718050252.4615097,50.29333333333334,8.146666666666667,-17.093333333333334,0.6707317073170732,10.426829268292684,4.878048780487806,-1.008544921875,0.0439453125,-0.00390625,1.4428152492668622,0.9618768328445748,1.2463343108504399,0.12609970674486803,0.1436950146627566,0.1495601173020528,42.3,-83.7,0.3,[-0.72449665  0.3221301   0.60937411],[ 0.93586695  0.15159457 -0.31807567],[ 0.19183003  0.19043592 -0.96277484],[0.4040646  0.2734554  0.87289973],-32.145900815858006,60.6713567343992,-146.6666141042015,[ 0.83460669  0.08972279  0.53346623 -0.10390032],[ 0.78739582  0.12023099  0.60097916 -0.06615421]
1718050252.4884222,50.30666666666667,8.066666666666666,-16.96,1.0365853658536586,9.26829268292683,4.146341463414634,-1.02197265625,0.04052734375,-0.017578125,1.436950146627566,0.9530791788856305,1.2375366568914956,0.12609970674486803,0.14076246334310852,0.1495601173020528,42.3,-83.7,0.3,[-0.72640363  0.32654742  0.60473511],[ 0.93684462  0.1502229  -0.31584054],[ 0.19183003  0.19043592 -0.96277484],[0.4040646  0.2734554  0.87289973],-33.08437525786328,60.59596991917011,-145.8046036770575,[ 0.83332835  0.09278341  0.53451791 -0.10604576],[ 0.79021369  0.1236643   0.59591263 -0.07181647]
1718050252.5181518,50.22666666666667,8.040000000000001,-16.826666666666668,1.707317073170732,7.743902439024391,1.8902439024390245,-1.033935546875,0.0458984375,-0.003662109375,1.4281524926686218,0.9442815249266863,1.2287390029325513,0.12609970674486803,0.14076246334310852,0.1466275659824047,42.3,-83.7,0.3,[-0.72833706  0.32741657  0.60193314],[ 0.93746671  0.15006436 -0.31406504],[ 0.19183003  0.19043592 -0.96277484],[0.4040646  0.2734554  0.87289973],-33.521994457585905,60.61844342964294,-145.37116163672715,[ 0.83249266  0.09386565  0.53542444 -0.10707882],[ 0.79403822  0.12106308  0.58937999 -0.08647696]
1718050252.5424874,50.25333333333334,8.040000000000001,-16.78666666666667,1.2195121951219514,5.914634146341464,2.0121951219512195,-1.033935546875,0.034912109375,0.001708984375,1.4252199413489737,0.9413489736070382,1.2228739002932552,0.12316715542521994,0.14076246334310852,0.1466275659824047,42.3,-83.7,0.3,[-0.72672889  0.33276806  0.60094138],[ 0.93774642  0.15002947 -0.31324562],[ 0.19183003  0.19043592 -0.96277484],[0.4040646  0.2734554  0.87289973],-34.035846277215335,60.48322319583497,-144.91260723624086,[ 0.83209035  0.09591226  0.53540883 -0.10846143],[ 0.80105597  0.1194171   0.5792943  -0.0920163 ]
1718050252.5697484,50.18666666666667,7.973333333333334,-16.706666666666667,-0.12195121951219513,2.987804878048781,2.073170731707317,-1.03466796875,0.0244140625,-0.004150390625,1.4252199413489737,0.9413489736070382,1.2258064516129032,0.12609970674486803,0.14076246334310852,0.1466275659824047,42.3,-83.7,0.3,[-0.72898182  0.32770642  0.60099418],[ 0.93820978  0.14905671 -0.31232116],[ 0.19183003  0.19043592 -0.96277484],[0.4040646  0.2734554  0.87289973],-33.53347900986527,60.734478238272025,-145.44061966001482,[ 0.83215524  0.09388418  0.5361333  -0.10613435],[ 0.81315953  0.11083944  0.56424802 -0.09005754]
1718050252.5965624,50.22666666666667,7.986666666666667,-16.706666666666667,-2.1341463414634148,1.2804878048780488,1.3414634146341464,-1.0087890625,0.024169921875,-0.007080078125,1.4252199413489737,0.9413489736070382,1.2287390029325513,0.12316715542521994,0.14076246334310852,0.1495601173020528,42.3,-83.7,0.3,[-0.73120908  0.32264226  0.6010285 ],[ 0.9382644   0.14919575 -0.3120906 ],[ 0.19183003  0.19043592 -0.96277484],[0.4040646  0.2734554  0.87289973],-33.13094589649102,60.907261038305364,-145.79311115145694,[ 0.83221805  0.09203348  0.53660212 -0.10488622],[ 0.82328465  0.09478622  0.55290624 -0.08667553]
1718050252.6237366,50.2,7.973333333333334,-16.666666666666668,-2.804878048780488,1.7682926829268295,0.426829268292683,-1.0048828125,0.039306640625,-0.00439453125,1.4281524926686218,0.9384164222873901,1.2228739002932552,0.12316715542521994,0.14076246334310852,0.1495601173020528,42.3,-83.7,0.3,[-0.72947079  0.33501376  0.59635404],[ 0.93845845  0.14905662 -0.31157319],[ 0.19183003  0.19043592 -0.96277484],[0.4040646  0.2734554  0.87289973],-34.84649886632977,60.41228716708557,-144.12643247773318,[ 0.83088688  0.09836139  0.53639167 -0.11061645],[ 0.8247043   0.08711387  0.55138487 -0.09082247]
1718050252.6655219,50.040000000000006,7.760000000000001,-16.400000000000002,-5.609756097560976,2.1341463414634148,0.7926829268292683,-1.00537109375,0.03515625,-0.008544921875,1.4252199413489737,0.9384164222873901,1.2258064516129032,0.12316715542521994,0.14076246334310852,0.1495601173020528,42.3,-83.7,0.3,[-0.73178755  0.32647553  0.59824803],[ 0.94011348  0.14578898 -0.30811073],[ 0.19183003  0.19043592 -0.96277484],[0.4040646  0.2734554  0.87289973],-33.44643294960699,61.080864979139584,-145.73852910033986,[ 0.83131915  0.09348894  0.53806327 -0.10322891],[ 0.82554671  0.07047125  0.55442384 -0.07823448]
1718050252.6819093,50.040000000000006,7.760000000000001,-16.400000000000002,-5.914634146341464,2.378048780487805,0.853658536585366,-1.0009765625,0.053466796875,-0.00634765625,1.4252199413489737,0.9354838709677419,1.2228739002932552,0.12316715542521994,0.14076246334310852,0.1466275659824047,42.3,-83.7,0.3,[-0.73234605  0.33027841  0.59547077],[ 0.94011348  0.14578898 -0.30811073],[ 0.19183003  0.19043592 -0.96277484],[0.4040646  0.2734554  0.87289973],-34.24195574727136,60.872797378167796,-144.92514395644113,[ 0.83062367  0.09614035  0.53811379 -0.10608909],[ 0.82480694  0.06464148  0.55679381 -0.07413264]
1718050252.704646,50.29333333333334,8.0,-16.573333333333334,-4.695121951219512,3.1707317073170733,1.1585365853658538,-0.98828125,0.065673828125,-0.01171875,1.4222873900293256,0.9325513196480938,1.219941348973607,0.12316715542521994,0.14076246334310852,0.1495601173020528,42.3,-83.7,0.3,[-0.73298361  0.33056594  0.59452602],[ 0.93910396  0.14938027 -0.30946613],[ 0.19183003  0.19043592 -0.96277484],[0.4040646  0.2734554  0.87289973],-34.73187779144663,60.6419267978425,-144.1948935103408,[ 0.83029267  0.09705594  0.53770172 -0.10986853],[ 0.82178296  0.06933755  0.56031925 -0.07685961]
1718050252.7317355,50.2,7.986666666666667,-16.533333333333335,-0.9146341463414634,5.0,1.2195121951219514,-0.995361328125,0.05908203125,-0.0126953125,1.4164222873900294,0.9325513196480938,1.217008797653959,0.12316715542521994,0.14076246334310852,0.1466275659824047,42.3,-83.7,0.3,[-0.73091687  0.3285763   0.5981623 ],[ 0.93915024  0.14941593 -0.30930844],[ 0.19183003  0.19043592 -0.96277484],[0.4040646  0.2734554  0.87289973],-33.923019127530324,60.83428481981832,-145.05801202342906,[ 0.83114213  0.09458226  0.53745778 -0.10675242],[ 0.81428516  0.08661928  0.56751741 -0.08579494]
1718050252.7587306,50.18666666666667,8.0,-16.453333333333333,-0.6707317073170732,5.670731707317073,1.2804878048780488,-1.00146484375,0.03564453125,-0.00537109375,1.4134897360703813,0.9266862170087976,1.2111436950146628,0.12316715542521994,0.14076246334310852,0.1466275659824047,42.3,-83.7,0.3,[-0.73211663  0.33268578  0.59441182],[ 0.9395199   0.14976406 -0.30801476],[ 0.19183003  0.19043592 -0.96277484],[0.4040646  0.2734554  0.87289973],-34.83125747292018,60.671658562593365,-144.13020978949186,[ 0.830048    0.09736928  0.53804313 -0.10976851],[ 0.80869996  0.09675248  0.57305954 -0.09080803]
1718050252.7858868,50.14666666666667,8.0,-16.400000000000002,-0.7926829268292683,6.585365853658537,1.0365853658536586,-1.01025390625,0.033447265625,-0.00146484375,1.4105571847507332,0.9237536656891495,1.2111436950146628,0.12316715542521994,0.14076246334310852,0.1466275659824047,42.3,-83.7,0.3,[-0.73499854  0.32790806  0.59350943],[ 0.93972094  0.1499156  -0.30732698],[ 0.19183003  0.19043592 -0.96277484],[0.4040646  0.2734554  0.87289973],-34.60570451488773,60.840425412229486,-144.2988348699607,[ 0.82983923  0.09594392  0.53877134 -0.10902782],[ 0.80369158  0.09914516  0.57943821 -0.09220323]
1718050252.8127992,50.17333333333334,8.013333333333334,-16.32,-2.25609756097561,6.707317073170732,1.2195121951219514,-1.0126953125,0.01904296875,0.007080078125,1.404692082111437,0.9178885630498533,1.2052785923753666,0.12316715542521994,0.14076246334310852,0.1466275659824047,42.3,-83.7,0.3,[-0.73628361  0.32848137  0.59159651],[ 0.9401759   0.15015831 -0.30581326],[ 0.19183003  0.19043592 -0.96277484],[0.4040646  0.2734554  0.87289973],-34.90430486262882,60.86655461092516,-143.99282817295352,[ 0.8292095   0.09657522  0.53948135 -0.10974835],[ 0.80183263  0.09511459  0.58333909 -0.08793834]
1718050252.8398273,50.093333333333334,8.013333333333334,-16.186666666666667,-2.8658536585365857,8.536585365853659,5.426829268292684,-1.002197265625,0.03759765625,0.015380859375,1.3988269794721409,0.9120234604105572,1.1994134897360704,0.12316715542521994,0.14076246334310852,0.1466275659824047,42.3,-83.7,0.3,[-0.737569    0.32905483  0.58967355],[ 0.94071967  0.1504851  -0.30397489],[ 0.19183003  0.19043592 -0.96277484],[0.4040646  0.2734554  0.87289973],-35.18794796991024,60.91416726392486,-143.7053838645794,[ 0.82853638  0.09710636  0.5403017  -0.11032633],[ 0.79721463  0.10472018  0.59077853 -0.06680744]
1718050252.8668365,50.160000000000004,7.973333333333334,-16.093333333333334,-2.987804878048781,7.8048780487804885,1.707317073170732,-1.01904296875,0.067626953125,0.006591796875,1.3900293255131966,0.906158357771261,1.1964809384164223,0.12316715542521994,0.14076246334310852,0.1466275659824047,42.3,-83.7,0.3,[-0.74119217  0.32094562  0.58959993],[ 0.94146853  0.14965396 -0.30206074],[ 0.19183003  0.19043592 -0.96277484],[0.4040646  0.2734554  0.87289973],-34.40442340583586,61.3372372444045,-144.49800611348718,[ 0.82852848  0.09371405  0.54161233 -0.10683781],[ 0.79631122  0.09366334  0.59330531 -0.07144534]
1718050252.8991315,50.36000000000001,7.986666666666667,-15.973333333333334,0.12195121951219513,5.853658536585367,0.7926829268292683,-1.023681640625,0.04931640625,0.022705078125,1.3900293255131966,0.9002932551319648,1.1935483870967742,0.12316715542521994,0.14076246334310852,0.1466275659824047,42.3,-83.7,0.3,[-0.7444394   0.32355902  0.5840544 ],[ 0.9424923   0.14947124 -0.29894249],[ 0.19183003  0.19043592 -0.96277484],[0.4040646  0.2734554  0.87289973],-35.39339856778377,61.305667922119234,-143.5133038846331,[ 0.82688498  0.09630669  0.54315983 -0.10937844],[ 0.79861463  0.10050787  0.58662836 -0.08933092]
1718050252.9207568,49.93333333333334,8.026666666666667,-15.600000000000001,-1.2804878048780488,5.121951219512195,1.2804878048780488,-1.015869140625,0.001953125,0.01513671875,1.3841642228739004,0.8973607038123167,1.1935483870967742,0.12316715542521994,0.14076246334310852,0.1436950146627566,42.3,-83.7,0.3,[-0.74738901  0.31514428  0.58488781],[ 0.94346176  0.15165927 -0.29475307],[ 0.19183003  0.19043592 -0.96277484],[0.4040646  0.2734554  0.87289973],-34.41316833844311,61.870225210420045,-144.41224822221216,[ 0.82663602  0.09153481  0.54510895 -0.10559593],[ 0.8024061   0.09599765  0.58244481 -0.0876752 ]
1718050252.947912,50.06666666666667,7.986666666666667,-15.840000000000002,-5.0,6.097560975609756,3.2926829268292686,-0.990478515625,0.032958984375,0.02197265625,1.3782991202346042,0.8914956011730205,1.18475073313783,0.12316715542521994,0.14076246334310852,0.1436950146627566,42.3,-83.7,0.3,[-0.7465058   0.32081607  0.58292893],[ 0.94258202  0.15036129 -0.29821237],[ 0.19183003  0.19043592 -0.96277484],[0.4040646  0.2734554  0.87289973],-35.392430690050524,61.38849182708191,-143.43620655701008,[ 0.82653775  0.09564205  0.54375076 -0.10964972],[ 0.80353257  0.0878124   0.58459937 -0.06977081]
1718050252.9749484,50.093333333333334,7.773333333333333,-15.746666666666668,-3.1707317073170733,8.231707317073171,3.536585365853659,-1.001953125,0.070556640625,0.02197265625,1.3812316715542523,0.8914956011730205,1.1818181818181819,0.12316715542521994,0.14076246334310852,0.1436950146627566,42.3,-83.7,0.3,[-0.74415343  0.32949619  0.58109202],[ 0.9436929   0.14643944 -0.29664661],[ 0.19183003  0.19043592 -0.96277484],[0.4040646  0.2734554  0.87289973],-36.04330942103389,61.26128327886158,-143.08264370061542,[ 0.82606558  0.09910878  0.5438659  -0.10955813],[ 0.79636386  0.0954039   0.59351142 -0.06668507]
1718050253.0020804,50.29333333333334,7.546666666666667,-15.64,1.5853658536585367,7.01219512195122,1.1585365853658538,-1.022216796875,0.06982421875,0.015869140625,1.3724340175953078,0.8856304985337243,1.1788856304985338,0.12316715542521994,0.14076246334310852,0.1436950146627566,42.3,-83.7,0.3,[-0.74779788  0.32137135  0.58096367],[ 0.94523965  0.14183607 -0.29394648],[ 0.19183003  0.19043592 -0.96277484],[0.4040646  0.2734554  0.87289973],-34.960745377614785,61.8502164503279,-144.39036752262587,[ 0.82623725  0.09544901  0.54549776 -0.10321669],[ 0.79396096  0.10799668  0.592079   -0.08605326]
1718050253.0315516,50.26666666666667,7.986666666666667,-15.56,2.9268292682926833,5.609756097560976,0.0,-1.019287109375,0.0166015625,0.03271484375,1.3695014662756597,0.8797653958944281,1.1700879765395895,0.12316715542521994,0.1378299120234604,0.1436950146627566,42.3,-83.7,0.3,[-0.74671324  0.33062962  0.57715111],[ 0.94446209  0.15006175 -0.29235736],[ 0.19183003  0.19043592 -0.96277484],[0.4040646  0.2734554  0.87289973],-36.766255863968,61.317525850465884,-142.21100390992325,[ 0.82441128  0.09996886  0.54567758 -0.11219736],[ 0.79476708  0.11758486  0.58551381 -0.10813266]
1718050253.0562322,50.02666666666667,7.973333333333334,-15.653333333333334,0.6707317073170732,5.487804878048781,0.0,-1.006103515625,-0.00537109375,0.03173828125,1.3636363636363635,0.8768328445747801,1.1642228739002933,0.12316715542521994,0.1378299120234604,0.1436950146627566,42.3,-83.7,0.3,[-0.74528564  0.33249748  0.57792278],[ 0.9435185   0.15037955 -0.29522674],[ 0.19183003  0.19043592 -0.96277484],[0.4040646  0.2734554  0.87289973],-36.96423259293884,61.05534746334154,-141.96052030319743,[ 0.82483279  0.10115729  0.54444532 -0.11400601],[ 0.79710404  0.11332524  0.58271656 -0.110562  ]
1718050253.0850773,50.14666666666667,7.826666666666667,-15.666666666666668,-2.25609756097561,5.609756097560976,0.3658536585365854,-1.010009765625,0.01220703125,0.042236328125,1.3607038123167154,0.8709677419354839,1.1671554252199414,0.12316715542521994,0.1378299120234604,0.1436950146627566,42.3,-83.7,0.3,[-0.75304604  0.32121166  0.57423405],[ 0.94408383  0.14734837 -0.29494775],[ 0.19183003  0.19043592 -0.96277484],[0.4040646  0.2734554  0.87289973],-36.608262986887844,61.38958060140385,-142.2977540738431,[ 0.82440024  0.09898382  0.54590073 -0.11206621],[ 0.79913017  0.0995358   0.58436596 -0.1000001 ]
1718050253.110007,49.733333333333334,7.720000000000001,-15.493333333333334,-6.097560975609756,6.2804878048780495,1.9512195121951221,-1.0048828125,0.023681640625,0.039794921875,1.3577712609970674,0.8680351906158358,1.1583577712609971,0.12023460410557185,0.1378299120234604,0.1436950146627566,42.3,-83.7,0.3,[-0.74927302  0.33176304  0.57316946],[ 0.94442835  0.14660161 -0.29421602],[ 0.19183003  0.19043592 -0.96277484],[0.4040646  0.2734554  0.87289973],-37.48369251804137,61.075009912055535,-141.56717372036968,[ 0.82391572  0.10295158  0.54543632 -0.11429384],[ 0.80008185  0.0857357   0.58840534 -0.07935731]
1718050253.137474,49.96,8.200000000000001,-15.293333333333335,-4.634146341463415,7.439024390243903,2.682926829268293,-1.008544921875,0.0673828125,0.035400390625,1.3548387096774193,0.8651026392961877,1.155425219941349,0.12023460410557185,0.1378299120234604,0.1436950146627566,42.3,-83.7,0.3,[-0.74991292  0.33204637  0.57216765],[ 0.9446399   0.15504498 -0.28916519],[ 0.19183003  0.19043592 -0.96277484],[0.4040646  0.2734554  0.87289973],-37.83697347431225,61.20062616660559,-140.8804633801039,[ 0.82251027  0.10174934  0.54718929 -0.11708031],[ 0.79555248  0.08785815  0.59483198 -0.07451244]
1718050253.1642594,50.040000000000006,8.333333333333334,-15.333333333333334,1.5853658536585367,5.3048780487804885,2.0121951219512195,-1.020263671875,0.06787109375,0.028564453125,1.348973607038123,0.8592375366568915,1.155425219941349,0.12023460410557185,0.1378299120234604,0.1436950146627566,42.3,-83.7,0.3,[-0.7556168   0.32230821  0.57022861],[ 0.94422538  0.1572451  -0.28933098],[ 0.19183003  0.19043592 -0.96277484],[0.4040646  0.2734554  0.87289973],-37.62887891435515,61.3753844647617,-140.8313351036871,[ 0.82209161  0.09936852  0.5481048  -0.11778119],[ 0.79658418  0.10979217  0.5867377  -0.09559388]
1718050253.1942618,49.760000000000005,8.213333333333335,-15.226666666666668,3.7195121951219514,5.060975609756098,1.0365853658536586,-1.001708984375,0.032958984375,0.04248046875,1.343108504398827,0.8504398826979472,1.1466275659824048,0.12023460410557185,0.1378299120234604,0.1436950146627566,42.3,-83.7,0.3,[-0.75733113  0.32671491  0.56542632],[ 0.94453944  0.15590469 -0.28903109],[ 0.19183003  0.19043592 -0.96277484],[0.4040646  0.2734554  0.87289973],-38.704530589045454,61.09501551958643,-139.79169735592052,[ 0.82093125  0.10316463  0.54841148 -0.12113539],[ 0.79516331  0.12663598  0.58165188 -0.11558426]
1718050253.2181666,49.62666666666667,8.013333333333334,-15.026666666666667,2.682926829268293,7.195121951219513,1.402439024390244,-0.9833984375,0.007080078125,0.0556640625,1.3343108504398826,0.844574780058651,1.1348973607038124,0.12023460410557185,0.1378299120234604,0.1436950146627566,42.3,-83.7,0.3,[-0.75439107  0.33402921  0.56508283],[ 0.94585851  0.15272997 -0.28640047],[ 0.19183003  0.19043592 -0.96277484],[0.4040646  0.2734554  0.87289973],-38.93184041524206,61.13036242015559,-139.86658229966827,[ 0.82069476  0.10501637  0.5487994  -0.11937705],[ 0.78902586  0.13277726  0.58859399 -0.11560927]
1718050253.2456577,49.58666666666667,7.933333333333334,-14.546666666666667,-1.0975609756097562,10.24390243902439,2.073170731707317,-0.987060546875,-0.00048828125,0.05126953125,1.3284457478005864,0.8387096774193549,1.1319648093841643,0.12023460410557185,0.1378299120234604,0.1436950146627566,42.3,-83.7,0.3,[-0.75790577  0.32941197  0.56308667],[ 0.94845088  0.15174194 -0.27823606],[ 0.19183003  0.19043592 -0.96277484],[0.4040646  0.2734554  0.87289973],-38.408036018450396,61.87289786164473,-140.55248443776682,[ 0.81955401  0.10174295  0.5522146  -0.11418683],[ 0.77942364  0.12148072  0.60704779 -0.09609475]
1718050253.2723124,49.61333333333334,8.146666666666667,-14.333333333333334,-3.1097560975609757,11.158536585365855,4.024390243902439,-1.000732421875,0.031494140625,0.052978515625,1.3255131964809383,0.8328445747800587,1.1260997067448681,0.12023460410557185,0.1378299120234604,0.1436950146627566,42.3,-83.7,0.3,[-0.75893945  0.33353535  0.55925404],[ 0.94897575  0.15582483 -0.27415989],[ 0.19183003  0.19043592 -0.96277484],[0.4040646  0.2734554  0.87289973],-39.37260318617758,61.78988328150509,-139.45144507827808,[ 0.81783453  0.10363833  0.55366898 -0.11771335],[ 0.7735405   0.11613544  0.61824219 -0.07696914]
1718050253.2992802,49.653333333333336,8.186666666666667,-14.506666666666668,0.06097560975609757,10.792682926829269,4.329268292682928,-1.0205078125,0.054931640625,0.05029296875,1.316715542521994,0.8240469208211144,1.1202346041055717,0.12023460410557185,0.1378299120234604,0.1436950146627566,42.3,-83.7,0.3,[-0.76306717  0.32918946  0.55620392],[ 0.94807341  0.156315   -0.27698815],[ 0.19183003  0.19043592 -0.96277484],[0.4040646  0.2734554  0.87289973],-39.80796048206722,61.57259199071429,-138.8231994410224,[ 0.81744952  0.10455333  0.55337241 -0.1209291 ],[ 0.77019306  0.12746721  0.61966174 -0.0810807 ]
1718050253.3263068,49.61333333333334,8.066666666666666,-14.680000000000001,0.7317073170731708,10.121951219512196,4.146341463414634,-1.009765625,0.0302734375,0.0625,1.316715542521994,0.8211143695014663,1.1173020527859236,0.12023460410557185,0.1378299120234604,0.14076246334310852,42.3,-83.7,0.3,[-0.76343267  0.33302476  0.5534122 ],[ 0.94745855  0.15404795 -0.28034181],[ 0.19183003  0.19043592 -0.96277484],[0.4040646  0.2734554  0.87289973],-40.628337676477194,61.11426630160069,-138.03191789513113,[ 0.81721175  0.10838984  0.55221458 -0.12440119],[ 0.77056197  0.13627017  0.61644255 -0.08754015]
1718050253.3535414,49.57333333333334,8.013333333333334,-14.280000000000001,0.9146341463414634,11.158536585365855,5.121951219512195,-0.98193359375,0.024658203125,0.068603515625,1.3049853372434017,0.8093841642228738,1.1085043988269794,0.12023460410557185,0.1348973607038123,0.14076246334310852,42.3,-83.7,0.3,[-0.76816482  0.32894293  0.54928987],[ 0.94954007  0.1534894  -0.2735227 ],[ 0.19183003  0.19043592 -0.96277484],[0.4040646  0.2734554  0.87289973],-40.657242337112706,61.636845955588214,-138.0809179332012,[ 0.81568674  0.10676159  0.55534437 -0.12185948],[ 0.76687643  0.14304625  0.6199906  -0.08396406]
1718050253.3822055,49.46666666666667,7.8533333333333335,-13.933333333333334,1.9512195121951221,13.475609756097562,4.634146341463415,-0.990478515625,0.025634765625,0.077392578125,1.2932551319648093,0.7976539589442815,1.096774193548387,0.11730205278592376,0.1348973607038123,0.14076246334310852,42.3,-83.7,0.3,[-0.77069415  0.33002603  0.54508105],[ 0.95149959  0.15106018 -0.26800999],[ 0.19183003  0.19043592 -0.96277484],[0.4040646  0.2734554  0.87289973],-41.02163544086572,61.92568646486937,-137.91341396978288,[ 0.81430763  0.10739177  0.55761633 -0.12014204],[ 0.75627377  0.14930872  0.63130693 -0.08490259]
1718050253.407295,49.373333333333335,7.8133333333333335,-13.773333333333333,3.048780487804878,13.658536585365855,5.365853658536586,-1.01171875,0.029541015625,0.080078125,1.281524926686217,0.7859237536656891,1.0821114369501466,0.11730205278592376,0.1348973607038123,0.14076246334310852,42.3,-83.7,0.3,[-0.77100398  0.33632751  0.54077413],[ 0.95222401  0.15068951 -0.26563527],[ 0.19183003  0.19043592 -0.96277484],[0.4040646  0.2734554  0.87289973],-42.05212581930759,61.71366671518298,-136.957093156334,[ 0.81293627  0.11090465  0.55835868 -0.12276143],[ 0.75020692  0.16088349  0.63533277 -0.08751198]
1718050253.4345372,49.29333333333334,7.733333333333333,-13.64,3.231707317073171,12.256097560975611,5.731707317073171,-1.0302734375,0.00244140625,0.08935546875,1.2727272727272727,0.7771260997067448,1.0762463343108504,0.11730205278592376,0.1348973607038123,0.14076246334310852,42.3,-83.7,0.3,[-0.77511291  0.33191823  0.53761535],[ 0.95295096  0.14950272 -0.26369187],[ 0.19183003  0.19043592 -0.96277484],[0.4040646  0.2734554  0.87289973],-42.14052961596255,61.913801485553996,-136.87319364907108,[ 0.81218017  0.110309    0.55971664 -0.12211705],[ 0.75200224  0.16655805  0.63168945 -0.08786061]
1718050253.4614975,49.18666666666667,7.666666666666667,-13.600000000000001,1.3414634146341464,10.0,6.036585365853659,-1.011474609375,-0.00634765625,0.102783203125,1.2639296187683284,0.7653958944281525,1.06158357771261,0.11730205278592376,0.1348973607038123,0.1378299120234604,42.3,-83.7,0.3,[-0.77503354  0.34179124  0.53150896],[ 0.95313942  0.1485647  -0.26354085],[ 0.19183003  0.19043592 -0.96277484],[0.4040646  0.2734554  0.87289973],-43.77516641352223,61.3123921068563,-135.30297889963512,[ 0.81055205  0.11669634  0.55953135 -0.12771848],[ 0.76051301  0.16543257  0.62204657 -0.0854991 ]
1718050253.4883883,49.160000000000004,7.586666666666667,-13.520000000000001,-0.426829268292683,8.78048780487805,6.097560975609756,-1.015380859375,0.01953125,0.106201171875,1.2580645161290323,0.7595307917888563,1.0586510263929618,0.11730205278592376,0.1348973607038123,0.1378299120234604,42.3,-83.7,0.3,[-0.77851428  0.33710657  0.52940975],[ 0.95369987  0.1471807  -0.26228686],[ 0.19183003  0.19043592 -0.96277484],[0.4040646  0.2734554  0.87289973],-43.70980885831044,61.517101792360066,-135.3797787534231,[ 0.81013785  0.1157536   0.56057032 -0.1266439 ],[ 0.76871694  0.15673396  0.61507603 -0.07867787]
1718050253.5154438,49.040000000000006,7.493333333333334,-13.453333333333335,3.9024390243902443,6.2804878048780495,4.146341463414634,-1.041748046875,0.06884765625,0.08984375,1.2580645161290323,0.7565982404692082,1.0498533724340176,0.11730205278592376,0.1348973607038123,0.1378299120234604,42.3,-83.7,0.3,[-0.77423398  0.3513354   0.52642681],[ 0.95406686  0.14578183 -0.26173286],[ 0.19183003  0.19043592 -0.96277484],[0.4040646  0.2734554  0.87289973],-44.96864196306667,60.95381408747845,-134.3249670665017,[ 0.80917816  0.12186782  0.55982052 -0.13030702],[ 0.77419433  0.16657865  0.60209141 -0.10178719]
1718050253.5448513,49.0,7.466666666666667,-13.453333333333335,11.646341463414634,3.1097560975609757,-0.24390243902439027,-0.977294921875,0.052001953125,0.098876953125,1.249266862170088,0.750733137829912,1.0469208211143695,0.11730205278592376,0.1348973607038123,0.1378299120234604,42.3,-83.7,0.3,[-0.77814598  0.34316383  0.52604888],[ 0.95406907  0.14538195 -0.26194713],[ 0.19183003  0.19043592 -0.96277484],[0.4040646  0.2734554  0.87289973],-44.54683043306665,61.213623239416414,-134.65786603542003,[ 0.80930387  0.1194134   0.56048839 -0.12892036],[ 0.7765015   0.18435124  0.58282589 -0.15288567]
1718050253.5696921,48.92,7.426666666666667,-13.440000000000001,13.78048780487805,5.182926829268293,0.7317073170731708,-1.0,-0.01123046875,0.099853515625,1.2463343108504399,0.7448680351906158,1.0439882697947214,0.11436950146627566,0.1348973607038123,0.14076246334310852,42.3,-83.7,0.3,[-0.78122005  0.34199555  0.52223967],[ 0.95410208  0.14484461 -0.26212453],[ 0.19183003  0.19043592 -0.96277484],[0.4040646  0.2734554  0.87289973],-45.100674399487325,61.057939679527145,-134.05114717902987,[ 0.80845009  0.12101659  0.56085879 -0.13115206],[ 0.76968187  0.20599318  0.57905254 -0.17278539]
1718050253.5966077,48.800000000000004,7.373333333333334,-13.346666666666668,9.756097560975611,6.219512195121951,1.6463414634146343,-0.99609375,-0.0283203125,0.106201171875,1.2375366568914956,0.7360703812316716,1.032258064516129,0.11436950146627566,0.1348973607038123,0.14076246334310852,42.3,-83.7,0.3,[-0.78081914  0.34804886  0.51882893],[ 0.95449147  0.14421688 -0.26105081],[ 0.19183003  0.19043592 -0.96277484],[0.4040646  0.2734554  0.87289973],-45.932346469681704,60.77232615741293,-133.29466314684166,[ 0.80742968  0.1244061   0.56100049 -0.13363714],[ 0.76817192  0.20480892  0.58376832 -0.1648628 ]
1718050253.623696,48.733333333333334,7.333333333333334,-13.306666666666667,4.451219512195122,6.097560975609756,3.231707317073171,-1.013916015625,-0.0322265625,0.112060546875,1.2316715542521994,0.7302052785923754,1.029325513196481,0.11436950146627566,0.1348973607038123,0.14076246334310852,42.3,-83.7,0.3,[-0.78430375  0.3433455   0.51670253],[ 0.95467819  0.14365882 -0.26067547],[ 0.19183003  0.19043592 -0.96277484],[0.4040646  0.2734554  0.87289973],-45.97654104637605,60.871854924534276,-133.19686972440033,[ 0.80701222  0.12380718  0.56172287 -0.13368052],[ 0.7738909   0.18754619  0.58847319 -0.14006645]
1718050253.6506567,48.64,7.293333333333334,-13.253333333333334,1.2804878048780488,6.036585365853659,3.5975609756097566,-1.00634765625,0.01123046875,0.123046875,1.2316715542521994,0.7243401759530792,1.0205278592375366,0.11436950146627566,0.1348973607038123,0.14076246334310852,42.3,-83.7,0.3,[-0.78234978  0.35607668  0.51101685],[ 0.95488388  0.14318023 -0.26018492],[ 0.19183003  0.19043592 -0.96277484],[0.4040646  0.2734554  0.87289973],-47.531029665662864,60.165542229159556,-131.74368494726946,[ 0.80531255  0.13072064  0.56121282 -0.13936991],[ 0.77741346  0.17293378  0.59200192 -0.12351497]
1718050253.6776707,48.6,7.2266666666666675,-13.200000000000001,3.353658536585366,5.3048780487804885,4.695121951219512,-1.03955078125,0.028564453125,0.1376953125,1.2228739002932552,0.7214076246334311,1.0175953079178885,0.11436950146627566,0.1348973607038123,0.1378299120234604,42.3,-83.7,0.3,[-0.78389052  0.34941792  0.51324728],[ 0.9552532   0.14204314 -0.25945149],[ 0.19183003  0.19043592 -0.96277484],[0.4040646  0.2734554  0.87289973],-46.75021844549664,60.61899729947413,-132.5522633890914,[ 0.80604825  0.12719441  0.56190905 -0.13552126],[ 0.77992847  0.17589513  0.58897642 -0.11781029]
1718050253.7047696,48.52,7.133333333333334,-13.16,2.8658536585365857,3.231707317073171,5.548780487804878,-1.05126953125,-0.041259765625,0.125244140625,1.219941348973607,0.7155425219941349,1.0146627565982405,0.11730205278592376,0.1348973607038123,0.1378299120234604,42.3,-83.7,0.3,[-0.78690999  0.34820353  0.5094379 ],[ 0.95555876  0.14048473 -0.25917464],[ 0.19183003  0.19043592 -0.96277484],[0.4040646  0.2734554  0.87289973],-47.22163498278955,60.517552375665154,-132.0899003541521,[ 0.80522364  0.1286866   0.56241629 -0.13690346],[ 0.78745406  0.17715655  0.57940237 -0.11324551]
1718050253.7317548,48.49333333333334,7.026666666666667,-13.173333333333334,-3.658536585365854,-1.1585365853658538,5.731707317073171,-1.012939453125,-0.08154296875,0.1435546875,1.219941348973607,0.7155425219941349,1.0146627565982405,0.11436950146627566,0.1348973607038123,0.1378299120234604,42.3,-83.7,0.3,[-0.78690999  0.34820353  0.5094379 ],[ 0.95572819  0.13848467 -0.25962592],[ 0.19183003  0.19043592 -0.96277484],[0.4040646  0.2734554  0.87289973],-47.15300580500131,60.53693546779109,-132.2471461587737,[ 0.80544034  0.12889048  0.56226638 -0.13605003],[ 0.80880099  0.1488816   0.56105817 -0.09428128]
1718050253.758693,48.46666666666667,6.906666666666667,-13.200000000000001,-8.109756097560977,-0.48780487804878053,7.439024390243903,-0.961181640625,-0.0107421875,0.14501953125,1.2287390029325513,0.7214076246334311,1.0117302052785924,0.11436950146627566,0.1348973607038123,0.1378299120234604,42.3,-83.7,0.3,[-0.7783251   0.36676213  0.50960335],[ 0.95586268  0.13621372 -0.26033124],[ 0.19183003  0.19043592 -0.96277484],[0.4040646  0.2734554  0.87289973],-48.00173872730354,59.900724346729646,-131.72816387169783,[ 0.80538119  0.13512803  0.5603228  -0.13834706],[ 0.81790397  0.12788609  0.55684573 -0.06783122]
1718050253.7861595,48.46666666666667,6.8533333333333335,-13.186666666666667,-5.365853658536586,1.6463414634146343,0.24390243902439027,-0.967529296875,0.033203125,0.127685546875,1.2258064516129032,0.7214076246334311,1.0175953079178885,0.11436950146627566,0.1348973607038123,0.14076246334310852,42.3,-83.7,0.3,[-0.78342587  0.3529021   0.51157014],[ 0.95606457  0.13519042 -0.26012321],[ 0.19183003  0.19043592 -0.96277484],[0.4040646  0.2734554  0.87289973],-46.936086109315006,60.54314329712188,-132.7077141222779,[ 0.806212    0.12959618  0.56152634 -0.13384772],[ 0.81023109  0.10769434  0.56886048 -0.09124291]
1718050253.8127732,48.480000000000004,6.880000000000001,-13.146666666666668,0.426829268292683,2.5609756097560976,-4.51219512195122,-0.991455078125,-0.011962890625,0.11767578125,1.2228739002932552,0.718475073313783,1.0146627565982405,0.11436950146627566,0.1348973607038123,0.14076246334310852,42.3,-83.7,0.3,[-0.78403406  0.35317606  0.51044809],[ 0.95621494  0.13570047 -0.25930361],[ 0.19183003  0.19043592 -0.96277484],[0.4040646  0.2734554  0.87289973],-47.119439331947625,60.52648850154885,-132.50455126211395,[ 0.80580789  0.12996301  0.56187743 -0.13445082],[ 0.79730733  0.11118318  0.57730646 -0.13658908]
1718050253.8398488,48.52,6.986666666666667,-13.133333333333335,-2.3170731707317076,2.8658536585365857,-4.2682926829268295,-1.013427734375,-0.02392578125,0.115234375,1.2140762463343109,0.7126099706744868,1.0117302052785924,0.11436950146627566,0.1348973607038123,0.1378299120234604,42.3,-83.7,0.3,[-0.7879922   0.3449602   0.50997133],[ 0.95607287  0.13767029 -0.25878862],[ 0.19183003  0.19043592 -0.96277484],[0.4040646  0.2734554  0.87289973],-46.8147864038974,60.780544476859674,-132.6162292594244,[ 0.80564739  0.12725451  0.56282263 -0.13404946],[ 0.79230728  0.10093387  0.58422435 -0.14402579]
1718050253.8668237,48.56,7.093333333333334,-13.106666666666667,-4.329268292682928,2.25609756097561,-2.1341463414634148,-1.01220703125,-0.00390625,0.101806640625,1.2140762463343109,0.7126099706744868,1.0087976539589443,0.11436950146627566,0.1348973607038123,0.1378299120234604,42.3,-83.7,0.3,[-0.78572882  0.35023734  0.50986668],[ 0.95599189  0.13964516 -0.25802856],[ 0.19183003  0.19043592 -0.96277484],[0.4040646  0.2734554  0.87289973],-47.17512232961528,60.59356009103646,-132.23839521757446,[ 0.80526538  0.1287535   0.5626197  -0.13575443],[ 0.79450508  0.09575338  0.58461932 -0.13346617]
1718050253.8940177,48.52,7.146666666666667,-13.08,-4.329268292682928,1.5853658536585367,-1.6463414634146343,-0.970703125,0.004638671875,0.114501953125,1.2111436950146628,0.7126099706744868,1.0087976539589443,0.11436950146627566,0.1348973607038123,0.1378299120234604,42.3,-83.7,0.3,[-0.78620044  0.34671586  0.51154373],[ 0.95591268  0.14079945 -0.25769451],[ 0.19183003  0.19043592 -0.96277484],[0.4040646  0.2734554  0.87289973],-46.74819318817856,60.808077386064824,-132.59967280665882,[ 0.80563265  0.12658436  0.56291775 -0.13437279],[ 0.79796896  0.09326426  0.58173802 -0.12699686]
1718050253.9209647,48.49333333333334,7.213333333333334,-13.040000000000001,-3.1097560975609757,5.975609756097562,-2.682926829268293,-0.935791015625,0.01416015625,0.1328125,1.2082111436950147,0.7096774193548387,1.0087976539589443,0.11436950146627566,0.1348973607038123,0.1378299120234604,42.3,-83.7,0.3,[-0.78907578  0.34167984  0.51050397],[ 0.95588359  0.1421867  -0.25703991],[ 0.19183003  0.19043592 -0.96277484],[0.4040646  0.2734554  0.87289973],-46.67264545896118,60.94642041744901,-132.54470131734402,[ 0.80530299  0.12517681  0.56366689 -0.13452693],[ 0.78452245  0.0961456   0.59853447 -0.13052601]
1718050253.9479215,48.62666666666667,7.32,-12.946666666666667,-1.524390243902439,11.76829268292683,-3.658536585365854,-0.976806640625,-0.003173828125,0.132080078125,1.2052785923753666,0.7008797653958945,1.002932551319648,0.11436950146627566,0.1348973607038123,0.1378299120234604,42.3,-83.7,0.3,[-0.79219563  0.34427815  0.50388356],[ 0.95627131  0.143952   -0.25460363],[ 0.19183003  0.19043592 -0.96277484],[0.4040646  0.2734554  0.87289973],-47.86917512339147,60.63546860207288,-131.24717137192684,[ 0.80319514  0.12856244  0.56479837 -0.1391117 ],[ 0.75834108  0.106815    0.62760388 -0.14008117]
1718050253.974946,48.86666666666667,7.466666666666667,-12.8,-4.024390243902439,12.682926829268293,-2.3170731707317076,-1.011962890625,-0.03857421875,0.121337890625,1.1935483870967742,0.6920821114369502,0.9941348973607038,0.11436950146627566,0.1348973607038123,0.1378299120234604,42.3,-83.7,0.3,[-0.79452005  0.34152605  0.50209345],[ 0.95696717  0.14622145 -0.25066534],[ 0.19183003  0.19043592 -0.96277484],[0.4040646  0.2734554  0.87289973],-47.947475674865025,60.90760530528666,-131.09148418754927,[ 0.80226333  0.12712443  0.56657011 -0.13860464],[ 0.74673158  0.10567027  0.64397817 -0.12852178]
1718050254.002112,48.57333333333334,7.573333333333334,-12.626666666666667,-9.146341463414634,12.378048780487806,0.7926829268292683,-0.997314453125,-0.000732421875,0.138916015625,1.1935483870967742,0.6862170087976539,0.9882697947214076,0.11436950146627566,0.1348973607038123,0.1378299120234604,42.3,-83.7,0.3,[-0.79471204  0.34910766  0.49654468],[ 0.95699961  0.14921103 -0.24877261],[ 0.19183003  0.19043592 -0.96277484],[0.4040646  0.2734554  0.87289973],-49.272457840897026,60.38804668588684,-129.67529340197723,[ 0.80023651  0.13173669  0.5669629  -0.14429149],[ 0.74680183  0.09807195  0.65029587 -0.09891511]
1718050254.0290353,48.49333333333334,7.506666666666667,-12.493333333333334,-9.085365853658537,13.353658536585368,2.073170731707317,-1.000732421875,0.022705078125,0.1416015625,1.18475073313783,0.6803519061583577,0.9853372434017595,0.11436950146627566,0.1348973607038123,0.1378299120234604,42.3,-83.7,0.3,[-0.79866758  0.34082113  0.4959547 ],[ 0.95767888  0.14824669 -0.24672673],[ 0.19183003  0.19043592 -0.96277484],[0.4040646  0.2734554  0.87289973],-48.829344401025025,60.857652996015794,-130.10338302412308,[ 0.80019078  0.12862237  0.56847647 -0.14137011],[ 0.74421702  0.09654005  0.65593003 -0.08109769]
1718050254.0585272,48.480000000000004,7.32,-12.293333333333335,-5.0,13.658536585365855,2.3170731707317076,-0.986083984375,0.0458984375,0.1474609375,1.1759530791788857,0.6686217008797654,0.9794721407624634,0.11436950146627566,0.13196480938416422,0.1348973607038123,42.3,-83.7,0.3,[-0.8049308   0.33480333  0.48989093],[ 0.95910368  0.14481516 -0.24320506],[ 0.19183003  0.19043592 -0.96277484],[0.4040646  0.2734554  0.87289973],-49.19247159188113,61.13164900640708,-129.83084188077035,[ 0.79880923  0.12855232  0.57071444 -0.14022532],[ 0.73923202  0.11139066  0.65857692 -0.08604992]
1718050254.0831985,48.52,7.653333333333334,-12.16,-0.24390243902439027,12.01219512195122,0.9146341463414634,-1.00830078125,0.023681640625,0.150146484375,1.1671554252199414,0.656891495601173,0.9648093841642229,0.11436950146627566,0.1348973607038123,0.1348973607038123,42.3,-83.7,0.3,[-0.80458967  0.34465134  0.48358134],[ 0.95884282  0.15124369 -0.24030356],[ 0.19183003  0.19043592 -0.96277484],[0.4040646  0.2734554  0.87289973],-50.85361678875269,60.44383397014708,-127.95477243390457,[ 0.79608443  0.13394698  0.57127448 -0.14816634],[ 0.73758785  0.1333977   0.6520599  -0.11396094]
1718050254.1101067,48.14666666666667,7.786666666666667,-12.133333333333335,0.24390243902439027,10.426829268292684,2.073170731707317,-1.026611328125,-0.009765625,0.160888671875,1.1583577712609971,0.6510263929618768,0.9589442815249267,0.11436950146627566,0.13196480938416422,0.1348973607038123,42.3,-83.7,0.3,[-0.80634776  0.34162302  0.48280121],[ 0.957974    0.15493127 -0.24141688],[ 0.19183003  0.19043592 -0.96277484],[0.4040646  0.2734554  0.87289973],-51.01401499435209,60.292690107130234,-127.53612121947869,[ 0.79567232  0.13368339  0.57117411 -0.15097827],[ 0.74224038  0.14801311  0.64187231 -0.12317168]
1718050254.1374917,48.17333333333334,7.840000000000001,-12.226666666666667,-2.439024390243903,8.109756097560977,3.658536585365854,-0.987548828125,-0.01171875,0.171142578125,1.155425219941349,0.6451612903225806,0.9560117302052786,0.11436950146627566,0.13196480938416422,0.1348973607038123,42.3,-83.7,0.3,[-0.8091533   0.34036298  0.47898223],[ 0.95742957  0.15581749 -0.24300108],[ 0.19183003  0.19043592 -0.96277484],[0.4040646  0.2734554  0.87289973],-51.62317771731892,59.92377891854126,-126.77245331180688,[ 0.79470102  0.13584784  0.57094676 -0.1549692 ],[ 0.75413805  0.14875238  0.62922083 -0.11502038]
1718050254.1641552,47.78666666666667,7.706666666666667,-11.773333333333333,-1.0365853658536586,9.817073170731708,3.8414634146341466,-0.985107421875,0.022705078125,0.18701171875,1.1436950146627567,0.6363636363636364,0.9472140762463344,0.11143695014662756,0.13196480938416422,0.1348973607038123,42.3,-83.7,0.3,[-0.81151715  0.33754286  0.47697456],[ 0.95927584  0.15470464 -0.23633944],[ 0.19183003  0.19043592 -0.96277484],[0.4040646  0.2734554  0.87289973],-51.540672137180884,60.53199125910975,-127.00983964257661,[ 0.79386307  0.13357715  0.57373746 -0.15087709],[ 0.75157791  0.15380859  0.63164729 -0.1117822 ]
1718050254.1913636,47.84,8.0,-11.64,0.30487804878048785,8.658536585365855,2.3170731707317076,-1.002685546875,-0.011962890625,0.169677734375,1.1378299120234605,0.6304985337243402,0.9442815249266863,0.11143695014662756,0.13196480938416422,0.1348973607038123,42.3,-83.7,0.3,[-0.81486843  0.33268562  0.47466801],[ 0.95907471  0.16038039 -0.23335346],[ 0.19183003  0.19043592 -0.96277484],[0.4040646  0.2734554  0.87289973],-51.79504252152142,60.65482704819596,-126.45653279967678,[ 0.79258076  0.13197966  0.57535472 -0.15285308],[ 0.75156347  0.1542771   0.62952152 -0.12269301]
1718050254.2182457,47.973333333333336,7.693333333333334,-11.680000000000001,-0.3658536585365854,7.682926829268293,1.5853658536585367,-0.99365234375,-0.016845703125,0.181884765625,1.1348973607038124,0.624633431085044,0.9354838709677419,0.11143695014662756,0.13196480938416422,0.1348973607038123,42.3,-83.7,0.3,[-0.81328567  0.34210123  0.4706731 ],[ 0.96003316  0.15395751 -0.23373792],[ 0.19183003  0.19043592 -0.96277484],[0.4040646  0.2734554  0.87289973],-52.594334809838216,60.21562117990928,-126.02698238960821,[ 0.79195265  0.13745204  0.57466016 -0.15389493],[ 0.75434408  0.15269843  0.62533897 -0.12883856]
1718050254.2463386,47.93333333333334,8.16,-11.680000000000001,-0.9146341463414634,6.646341463414635,1.3414634146341464,-0.996826171875,-0.02490234375,0.180419921875,1.1290322580645162,0.6187683284457478,0.9325513196480938,0.11143695014662756,0.13196480938416422,0.1348973607038123,42.3,-83.7,0.3,[-0.8166346   0.33725383  0.46836715],[ 0.95854926  0.16318001 -0.23357139],[ 0.19183003  0.19043592 -0.96277484],[0.4040646  0.2734554  0.87289973],-53.06116499334785,59.97118054031084,-125.02077419680353,[ 0.79049187  0.13680617  0.57525009 -0.15966842],[ 0.75807618  0.14825913  0.62063093 -0.13474783]
1718050254.2723134,47.733333333333334,7.8933333333333335,-11.266666666666667,-1.2195121951219514,-2.25609756097561,1.4634146341463417,-1.001953125,0.053955078125,0.220703125,1.1290322580645162,0.6187683284457478,0.9354838709677419,0.11143695014662756,0.13196480938416422,0.1348973607038123,42.3,-83.7,0.3,[-0.81877746  0.33191076  0.46844287],[ 0.96089158  0.15889604 -0.22680262],[ 0.19183003  0.19043592 -0.96277484],[0.4040646  0.2734554  0.87289973],-52.44557419700852,60.918129234802244,-125.94162711945638,[ 0.79060764  0.13262087  0.57817097 -0.15188677],[ 0.78730648  0.13692938  0.58524483 -0.13743123]
1718050254.2993271,47.62666666666667,7.826666666666667,-11.600000000000001,-2.439024390243903,0.6707317073170732,-0.3658536585365854,-0.98046875,-0.00341796875,0.207275390625,1.1260997067448681,0.6187683284457478,0.9325513196480938,0.11143695014662756,0.13196480938416422,0.1348973607038123,42.3,-83.7,0.3,[-0.81724515  0.33365596  0.46987665],[ 0.95944394  0.15766898 -0.23368315],[ 0.19183003  0.19043592 -0.96277484],[0.4040646  0.2734554  0.87289973],-52.47636053029668,60.359538564265705,-125.84482178256786,[ 0.79156203  0.1350315   0.57545836 -0.1550604 ],[ 0.78941534  0.12522516  0.58393733 -0.14198339]
1718050254.3262901,47.64,7.760000000000001,-11.213333333333335,-1.707317073170732,-0.6707317073170732,-2.25609756097561,-0.993896484375,-0.005615234375,0.178955078125,1.1260997067448681,0.6187683284457478,0.9384164222873901,0.11143695014662756,0.13196480938416422,0.1348973607038123,42.3,-83.7,0.3,[-0.82148274  0.32291628  0.46999063],[ 0.96138973  0.15659917 -0.22628849],[ 0.19183003  0.19043592 -0.96277484],[0.4040646  0.2734554  0.87289973],-51.64048628456748,61.477831002896025,-126.77819350718286,[ 0.7914565   0.12860929  0.57904512 -0.14752289],[ 0.79207567  0.11306516  0.58083612 -0.14987261]
1718050254.3534513,47.77333333333333,8.026666666666667,-11.386666666666667,-2.987804878048781,-0.1829268292682927,-1.1585365853658538,-0.97412109375,-0.003173828125,0.1875,1.1290322580645162,0.6187683284457478,0.9354838709677419,0.11143695014662756,0.13196480938416422,0.1348973607038123,42.3,-83.7,0.3,[-0.81877746  0.33191076  0.46844287],[ 0.96001351  0.16129727 -0.22881706],[ 0.19183003  0.19043592 -0.96277484],[0.4040646  0.2734554  0.87289973],-52.60427281017079,60.65960030002304,-125.6173158920995,[ 0.79050862  0.13332531  0.57743626 -0.15455693],[ 0.79260635  0.10978433  0.58104899 -0.14867633]
1718050254.3803203,47.81333333333334,8.253333333333334,-11.613333333333333,-2.7439024390243905,0.1829268292682927,0.24390243902439027,-0.990234375,-0.00244140625,0.182373046875,1.1319648093841643,0.6187683284457478,0.9384164222873901,0.11143695014662756,0.13196480938416422,0.1348973607038123,42.3,-83.7,0.3,[-0.8202878   0.3301813   0.46702058],[ 0.95835781  0.16542763 -0.23277458],[ 0.19183003  0.19043592 -0.96277484],[0.4040646  0.2734554  0.87289973],-53.018313406357834,60.137926872582646,-124.8629789111195,[ 0.79000468  0.1349085   0.57622674 -0.16017193],[ 0.79237258  0.11499291  0.5809158  -0.14648945]
1718050254.4073157,47.84,8.200000000000001,-11.64,-3.048780487804878,0.30487804878048785,-0.3658536585365854,-0.99169921875,0.01123046875,0.17822265625,1.1290322580645162,0.6187683284457478,0.9413489736070382,0.11143695014662756,0.13196480938416422,0.1348973607038123,42.3,-83.7,0.3,[-0.82296977  0.32122264  0.46854752],[ 0.95845088  0.16428297 -0.23320168],[ 0.19183003  0.19043592 -0.96277484],[0.4040646  0.2734554  0.87289973],-52.351763153188614,60.56377131704186,-125.48086528289255,[ 0.79080516  0.13135803  0.57675984 -0.15722708],[ 0.79211541  0.11179483  0.58218243 -0.14532277]
1718050254.4344392,47.84,8.106666666666667,-11.306666666666667,-1.6463414634146343,0.1829268292682927,0.24390243902439027,-0.9873046875,0.00146484375,0.177490234375,1.1319648093841643,0.6217008797653959,0.9354838709677419,0.11143695014662756,0.13196480938416422,0.1348973607038123,42.3,-83.7,0.3,[-0.81604627  0.33701086  0.46956592],[ 0.96021979  0.16271283 -0.22694158],[ 0.19183003  0.19043592 -0.96277484],[0.4040646  0.2734554  0.87289973],-52.664475827878924,60.67364071056653,-125.61545984297936,[ 0.79040808  0.13366352  0.57759131 -0.15419927],[ 0.79176167  0.11946935  0.58127342 -0.14478175]
1718050254.4613333,47.800000000000004,8.026666666666667,-11.280000000000001,-1.829268292682927,-0.12195121951219513,-1.1585365853658538,-0.982421875,0.0009765625,0.177734375,1.1290322580645162,0.6187683284457478,0.9384164222873901,0.11143695014662756,0.13196480938416422,0.1348973607038123,42.3,-83.7,0.3,[-0.82088919  0.32656684  0.46850297],[ 0.96052401  0.16129301 -0.22666759],[ 0.19183003  0.19043592 -0.96277484],[0.4040646  0.2734554  0.87289973],-52.273761256566026,61.05685990686877,-125.93225397961332,[ 0.79051071  0.13072132  0.57866454 -0.15215816],[ 0.79165015  0.11538935  0.58126823 -0.14866938]
1718050254.4884174,47.84,8.040000000000001,-11.24,-1.5853658536585367,0.30487804878048785,-0.3658536585365854,-0.998046875,-0.007568359375,0.178955078125,1.1319648093841643,0.6217008797653959,0.9384164222873901,0.11143695014662756,0.13196480938416422,0.1348973607038123,42.3,-83.7,0.3,[-0.81818804  0.33167183  0.46964042],[ 0.96071912  0.16145865 -0.2257208 ],[ 0.19183003  0.19043592 -0.96277484],[0.4040646  0.2734554  0.87289973],-52.31901489619722,61.02251860963763,-125.98268415048418,[ 0.79059583  0.13145318  0.57849088 -0.15174518],[ 0.79081055  0.11798692  0.58227804 -0.14713957]
1718050254.5154393,47.85333333333334,8.053333333333335,-11.346666666666668,-2.378048780487805,0.7926829268292683,-0.24390243902439027,-0.99658203125,0.0009765625,0.18408203125,1.1319648093841643,0.6217008797653959,0.9413489736070382,0.11143695014662756,0.13196480938416422,0.1348973607038123,42.3,-83.7,0.3,[-0.82029875  0.32633195  0.46969928],[ 0.9602321   0.16159938 -0.2276839 ],[ 0.19183003  0.19043592 -0.96277484],[0.4040646  0.2734554  0.87289973],-52.122665363157644,61.04172560055673,-126.05723815356778,[ 0.79087975  0.13038234  0.5782439  -0.15213042],[ 0.78977171  0.11582036  0.58500042 -0.14359944]
1718050254.5424662,47.82666666666667,8.093333333333334,-11.466666666666667,-2.073170731707317,0.7926829268292683,-0.12195121951219513,-0.994384765625,0.000732421875,0.178466796875,1.1319648093841643,0.6217008797653959,0.9384164222873901,0.11143695014662756,0.13196480938416422,0.1348973607038123,42.3,-83.7,0.3,[-0.81818804  0.33167183  0.46964042],[ 0.95953629  0.16237483 -0.23005331],[ 0.19183003  0.19043592 -0.96277484],[0.4040646  0.2734554  0.87289973],-52.491335868043095,60.60120929869326,-125.66097266758824,[ 0.79081509  0.13304742  0.57693405 -0.15510312],[ 0.7892905   0.11825697  0.58494142 -0.14449679]
1718050254.5719142,47.86666666666667,8.066666666666666,-11.453333333333335,-2.1951219512195124,0.7317073170731708,1.2195121951219514,-0.9892578125,0.00927734375,0.1865234375,1.1260997067448681,0.6187683284457478,0.9384164222873901,0.11143695014662756,0.13196480938416422,0.1348973607038123,42.3,-83.7,0.3,[-0.82148274  0.32291628  0.46999063],[ 0.9597419   0.16173923 -0.22964298],[ 0.19183003  0.19043592 -0.96277484],[0.4040646  0.2734554  0.87289973],-51.98271479289398,61.00500904527403,-126.10351004579249,[ 0.79117557  0.12982575  0.57781649 -0.15269119],[ 0.79053618  0.12070122  0.58443897 -0.13753129]
1718050254.59668,47.85333333333334,8.026666666666667,-11.466666666666667,-1.7682926829268295,0.6097560975609757,1.829268292682927,-0.98828125,0.00390625,0.1708984375,1.1319648093841643,0.6217008797653959,0.9354838709677419,0.11436950146627566,0.13196480938416422,0.1348973607038123,42.3,-83.7,0.3,[-0.81604627  0.33701086  0.46956592],[ 0.95978607  0.16098947 -0.22998496],[ 0.19183003  0.19043592 -0.96277484],[0.4040646  0.2734554  0.87289973],-52.68826388262119,60.451717194114295,-125.60155073102759,[ 0.79080074  0.13482797  0.57650463 -0.1552354 ],[ 0.7913749   0.12818883  0.58222113 -0.13532166]
1718050254.623904,47.86666666666667,8.026666666666667,-11.453333333333335,0.5487804878048781,0.48780487804878053,0.24390243902439027,-0.98095703125,0.01611328125,0.181884765625,1.1319648093841643,0.6187683284457478,0.9354838709677419,0.11143695014662756,0.13196480938416422,0.1348973607038123,42.3,-83.7,0.3,[-0.81816767  0.33549906  0.46694972],[ 0.95986611  0.16095805 -0.2296727 ],[ 0.19183003  0.19043592 -0.96277484],[0.4040646  0.2734554  0.87289973],-53.003751150863906,60.362746350763075,-125.2397813026153,[ 0.79011022  0.13561351  0.57690641 -0.15656888],[ 0.78896557  0.13609826  0.58040702 -0.14878942]
1718050254.650629,47.84,8.013333333333334,-11.466666666666667,0.853658536585366,0.3658536585365854,-0.6707317073170732,-0.985107421875,-0.0068359375,0.187744140625,1.1319648093841643,0.6187683284457478,0.9354838709677419,0.11143695014662756,0.13196480938416422,0.1348973607038123,42.3,-83.7,0.3,[-0.81816767  0.33549906  0.46694972],[ 0.9598063   0.16077023 -0.23005391],[ 0.19183003  0.19043592 -0.96277484],[0.4040646  0.2734554  0.87289973],-53.00780277566621,60.33377306510262,-125.23549485753173,[ 0.79015569  0.13576019  0.57676941 -0.15671696],[ 0.78746834  0.13763331  0.57944788 -0.15871625]
1718050254.6775548,47.85333333333334,8.053333333333335,-11.453333333333335,-0.9756097560975611,0.6097560975609757,-0.1829268292682927,-0.99560546875,-0.020263671875,0.181884765625,1.1260997067448681,0.6187683284457478,0.9384164222873901,0.11143695014662756,0.13196480938416422,0.1348973607038123,42.3,-83.7,0.3,[-0.82148274  0.32291628  0.46999063],[ 0.95976229  0.16152032 -0.22971184],[ 0.19183003  0.19043592 -0.96277484],[0.4040646  0.2734554  0.87289973],-51.97589027943356,61.00571460288024,-126.11935981944369,[ 0.79120296  0.12985516  0.57779307 -0.15261282],[ 0.78847467  0.1288096   0.58181667 -0.15233236]
1718050254.704561,47.84,8.026666666666667,-11.466666666666667,-1.7682926829268295,0.48780487804878053,0.5487804878048781,-0.989501953125,-0.00048828125,0.185546875,1.1290322580645162,0.6187683284457478,0.9354838709677419,0.11436950146627566,0.13196480938416422,0.1348973607038123,42.3,-83.7,0.3,[-0.81877746  0.33191076  0.46844287],[ 0.95976499  0.1610308  -0.23004401],[ 0.19183003  0.19043592 -0.96277484],[0.4040646  0.2734554  0.87289973],-52.63175693261464,60.55611271019658,-125.57284294130645,[ 0.79062181  0.13379004  0.57699594 -0.15521939],[ 0.78994177  0.12672369  0.58184543 -0.1462498 ]
1718050254.7315493,47.81333333333334,8.040000000000001,-11.453333333333335,-2.5,-0.12195121951219513,0.426829268292683,-1.006591796875,0.00390625,0.1728515625,1.1290322580645162,0.6187683284457478,0.9413489736070382,0.11143695014662756,0.13196480938416422,0.1348973607038123,42.3,-83.7,0.3,[-0.82296977  0.32122264  0.46854752],[ 0.95974044  0.16138413 -0.22989878],[ 0.19183003  0.19043592 -0.96277484],[0.4040646  0.2734554  0.87289973],-52.11965122359583,60.9609388537299,-125.9362347941451,[ 0.79088712  0.1301389   0.5779626  -0.15336448],[ 0.7928364   0.11983247  0.5805463  -0.14148009]
1718050254.7585633,47.85333333333334,8.040000000000001,-11.48,-1.3414634146341464,-1.5853658536585367,-0.24390243902439027,-1.004638671875,0.012451171875,0.183349609375,1.1290322580645162,0.6187683284457478,0.9384164222873901,0.11143695014662756,0.13196480938416422,0.1348973607038123,42.3,-83.7,0.3,[-0.82088919  0.32656684  0.46850297],[ 0.95968567  0.16124003 -0.2302283 ],[ 0.19183003  0.19043592 -0.96277484],[0.4040646  0.2734554  0.87289973],-52.38891597027709,60.73311038951553,-125.73308846027345,[ 0.79076725  0.13206859  0.57738811 -0.15449275],[ 0.7969981   0.12002533  0.57326657 -0.14749034]
1718050254.7864256,47.82666666666667,8.040000000000001,-11.493333333333334,-0.30487804878048785,-2.987804878048781,-1.2195121951219514,-1.0048828125,-0.00146484375,0.18896484375,1.1348973607038124,0.6217008797653959,0.9354838709677419,0.11436950146627566,0.1348973607038123,0.1348973607038123,42.3,-83.7,0.3,[-0.81543325  0.34057193  0.46805917],[ 0.95958422  0.16131288 -0.23059983],[ 0.19183003  0.19043592 -0.96277484],[0.4040646  0.2734554  0.87289973],-53.097337885026484,60.15929324624547,-125.18816334657475,[ 0.79032067  0.13698472  0.57605927 -0.15742978],[ 0.80096884  0.12337783  0.56369781 -0.15959828]
