Time,MagX,MagY,MagZ,GyroX,GyroY,GyroZ,AccelX,AccelY,AccelZ,Tri11,Tri12,Tri13,Tri21,Tri22,Tri23,Lat,Lon,Alt,SunVect,MagVect,MagRef,SunRef,Roll,Pitch,Yaw,static_q,dynamic_q
1718050225.1405516,5.586666666666667,-8.280000000000001,-36.25333333333334,-51.21951219512196,-0.853658536585366,-0.48780487804878053,-0.065673828125,-0.60693359375,-0.78662109375,1.8533724340175952,1.5073313782991202,1.653958944281525,0.05278592375366569,0.05571847507331378,0.07331378299120235,42.3,-83.7,0.3,[-0.46064618  0.32294438  0.82674786],[ 0.14856509 -0.22018836 -0.96407754],[ 0.19183003  0.19043592 -0.96277484],[0.4040646  0.2734554  0.87289973],-6.974144475861587,-20.142082963200828,-58.90135740450213,[ 0.47394029  0.18143494 -0.03367183 -0.86100416],[ 0.51246743  0.00215114  0.27462638 -0.81360486]
1718050225.1641934,5.933333333333334,-7.826666666666667,-37.013333333333335,-53.29268292682927,-2.9268292682926833,0.853658536585366,-0.039306640625,-0.626708984375,-0.80322265625,1.8709677419354838,1.5219941348973607,1.6744868035190617,0.05278592375366569,0.05865102639296188,0.07624633431085044,42.3,-83.7,0.3,[-0.46446503  0.31520445  0.82759797],[ 0.15494066 -0.2043824  -0.9665512 ],[ 0.19183003  0.19043592 -0.96277484],[0.4040646  0.2734554  0.87289973],-8.111964727276636,-19.51367238523372,-60.24993697555614,[ 0.48302188  0.18119615 -0.02454763 -0.85630323],[ 0.52163687 -0.01198822  0.27555916 -0.80735271]
1718050225.191233,6.253333333333334,-7.293333333333334,-37.88,-54.69512195121952,-2.804878048780488,1.707317073170732,-0.031005859375,-0.58837890625,-0.812744140625,1.8826979472140764,1.533724340175953,1.6950146627565983,0.05571847507331378,0.05865102639296188,0.07917888563049853,42.3,-83.7,0.3,[-0.47006327  0.2994661   0.83027741],[ 0.16001653 -0.18662909 -0.96931125],[ 0.19183003  0.19043592 -0.96277484],[0.4040646  0.2734554  0.87289973],-8.913948107172217,-18.772204202031496,-60.36706627890952,[ 0.48358501  0.17909645 -0.01547231 -0.85663913],[ 0.52479953 -0.02119656  0.28453457 -0.80198269]
1718050225.218261,6.573333333333334,-6.653333333333333,-38.760000000000005,-52.37804878048781,-3.2926829268292686,1.8902439024390245,-0.04248046875,-0.52587890625,-0.859375,1.8914956011730206,1.5425219941348973,1.7096774193548387,0.05571847507331378,0.06158357771260997,0.08211143695014662,42.3,-83.7,0.3,[-0.47350065  0.28890844  0.83206312],[ 0.16485898 -0.16686538 -0.97209951],[ 0.19183003  0.19043592 -0.96277484],[0.4040646  0.2734554  0.87289973],-10.049537328288316,-17.865123610746927,-61.709120909439676,[ 0.49301849  0.17715905 -0.00504824 -0.85177577],[ 0.53213564 -0.02433959  0.28663676 -0.79629053]
1718050225.2451646,6.773333333333333,-6.106666666666667,-39.480000000000004,-45.426829268292686,-2.439024390243903,1.2195121951219514,-0.033203125,-0.5380859375,-0.859619140625,1.900293255131965,1.5483870967741935,1.7272727272727273,0.05571847507331378,0.06451612903225806,0.08504398826979472,42.3,-83.7,0.3,[-0.48363906  0.27305833  0.83158428],[ 0.16716181 -0.15070887 -0.97434274],[ 0.19183003  0.19043592 -0.96277484],[0.4040646  0.2734554  0.87289973],-10.573567482184265,-17.265846358963287,-61.112952694344486,[ 0.48857937  0.17502106  0.00246011 -0.85478171],[ 0.52790816 -0.01441147  0.27441275 -0.80361865]
1718050225.2722526,7.066666666666667,-5.506666666666667,-40.25333333333334,-46.768292682926834,-0.7317073170731708,1.6463414634146343,-0.0693359375,-0.5009765625,-0.881103515625,1.906158357771261,1.5542521994134897,1.7390029325513197,0.05865102639296188,0.06451612903225806,0.08504398826979472,42.3,-83.7,0.3,[-0.48739885  0.26294741  0.832647  ],[ 0.17136201 -0.13353304 -0.97611679],[ 0.19183003  0.19043592 -0.96277484],[0.4040646  0.2734554  0.87289973],-11.473179874090292,-16.476651223926222,-62.017609393666106,[ 0.49502438  0.17316044  0.01133685 -0.85137407],[ 0.52892203 -0.00653619  0.28421853 -0.79963653]
1718050225.3028724,7.293333333333334,-4.96,-40.89333333333334,-45.426829268292686,-1.8902439024390245,0.426829268292683,-0.00439453125,-0.521728515625,-0.834228515625,1.9120234604105573,1.5571847507331378,1.7536656891495601,0.06158357771260997,0.06451612903225806,0.08797653958944282,42.3,-83.7,0.3,[-0.49765397  0.24758482  0.83128953],[ 0.17434107 -0.11856468 -0.97752115],[ 0.19183003  0.19043592 -0.96277484],[0.4040646  0.2734554  0.87289973],-11.990862218376341,-15.968958877326253,-61.35560286059114,[ 0.49002192  0.17158603  0.01847769 -0.85445616],[ 0.52450153 -0.00863712  0.28478147 -0.80232354]
1718050225.3261898,7.533333333333334,-4.32,-41.42666666666667,-42.804878048780495,-1.2804878048780488,1.402439024390244,-0.0556640625,-0.4296875,-0.890625,1.9178885630498534,1.563049853372434,1.7595307917888563,0.06158357771260997,0.06744868035190615,0.08797653958944282,42.3,-83.7,0.3,[-0.4964975   0.24700947  0.83215176],[ 0.17797902 -0.10206231 -0.97872711],[ 0.19183003  0.19043592 -0.96277484],[0.4040646  0.2734554  0.87289973],-13.074828646590948,-15.00790441032686,-63.765125764567266,[ 0.50762628  0.16979039  0.02731856 -0.84423959],[ 0.53621247 -0.00110306  0.28491728 -0.79454208]
1718050225.3534417,7.746666666666667,-3.8000000000000003,-41.88,-38.23170731707317,0.1829268292682927,-0.30487804878048785,-0.004150390625,-0.490478515625,-0.882080078125,1.9178885630498534,1.563049853372434,1.7712609970674487,0.06158357771260997,0.06744868035190615,0.09090909090909091,42.3,-83.7,0.3,[-0.5057982   0.22814275  0.83193694],[ 0.1811678  -0.08886889 -0.97942868],[ 0.19183003  0.19043592 -0.96277484],[0.4040646  0.2734554  0.87289973],-13.396006850926556,-14.627372936942844,-62.39832428400997,[ 0.49759261  0.16807459  0.0334616  -0.85031338],[ 0.52594386  0.01051945  0.27713693 -0.80403204]
1718050225.3802423,7.933333333333334,-3.2533333333333334,-42.413333333333334,-41.524390243902445,0.1829268292682927,-0.1829268292682927,-0.0517578125,-0.45751953125,-0.889892578125,1.9237536656891496,1.5689149560117301,1.7888563049853372,0.06451612903225806,0.07038123167155426,0.093841642228739,42.3,-83.7,0.3,[-0.51363936  0.20879528  0.8322134 ],[ 0.18333902 -0.0751844  -0.98017045],[ 0.19183003  0.19043592 -0.96277484],[0.4040646  0.2734554  0.87289973],-13.705285032770496,-14.201739283152634,-61.07046200694568,[ 0.48786562  0.16586822  0.03962391 -0.8560986 ],[ 0.51648577  0.00880112  0.28920308 -0.80593211]
1718050225.4074483,8.120000000000001,-2.72,-42.88,-39.63414634146342,-1.5853658536585367,1.2804878048780488,-0.029541015625,-0.457763671875,-0.901611328125,1.9266862170087977,1.5747800586510263,1.7976539589442815,0.06451612903225806,0.07038123167155426,0.093841642228739,42.3,-83.7,0.3,[-0.51340483  0.19962604  0.83460465],[ 0.18569876 -0.06220451 -0.9806358 ],[ 0.19183003  0.19043592 -0.96277484],[0.4040646  0.2734554  0.87289973],-14.244742138362858,-13.528030690463876,-61.58310432054678,[ 0.49188557  0.16342688  0.04594112 -0.85394944],[ 0.52388749  0.00724263  0.28796969 -0.80160022]
1718050225.4350464,8.280000000000001,-2.146666666666667,-43.26666666666667,-38.71951219512196,-2.0121951219512195,0.6707317073170732,-0.04638671875,-0.426025390625,-0.927001953125,1.9266862170087977,1.5718475073313782,1.8035190615835777,0.06744868035190615,0.07331378299120235,0.0967741935483871,42.3,-83.7,0.3,[-0.5217738   0.18978513  0.8317053 ],[ 0.18773768 -0.04867273 -0.9810125 ],[ 0.19183003  0.19043592 -0.96277484],[0.4040646  0.2734554  0.87289973],-14.814928265732865,-13.030165400993502,-61.556984717135514,[ 0.49160463  0.16221731  0.052473   -0.85396547],[ 0.52379428  0.00373208  0.28681377 -0.80209942]
1718050225.461476,8.453333333333333,-1.6266666666666667,-43.78666666666667,-40.426829268292686,-1.4634146341463417,-0.3658536585365854,-0.030517578125,-0.435791015625,-0.87451171875,1.9266862170087977,1.5777126099706744,1.812316715542522,0.06744868035190615,0.07331378299120235,0.0967741935483871,42.3,-83.7,0.3,[-0.52016621  0.17656893  0.83561386],[ 0.18943108 -0.03645204 -0.98121716],[ 0.19183003  0.19043592 -0.96277484],[0.4040646  0.2734554  0.87289973],-15.169147107384033,-12.412824405503802,-61.42775316474809,[ 0.49104739  0.15915129  0.05807553 -0.85450018],[ 0.51730029 -0.00224534  0.29663802 -0.80274607]
1718050225.4884374,8.586666666666668,-0.9733333333333334,-44.13333333333333,-39.81707317073171,-3.048780487804878,0.5487804878048781,-0.051513671875,-0.37255859375,-0.94775390625,1.9296187683284458,1.5806451612903225,1.8211143695014662,0.06744868035190615,0.07331378299120235,0.09970674486803519,42.3,-83.7,0.3,[-0.52377099  0.16699664  0.83532992],[ 0.19093605 -0.02164337 -0.98136384],[ 0.19183003  0.19043592 -0.96277484],[0.4040646  0.2734554  0.87289973],-15.749023007081764,-11.708726645876547,-61.82233956401263,[ 0.4942209   0.15670038  0.06502716 -0.85262076],[ 0.52216093 -0.00844823  0.29920538 -0.79859422]
1718050225.5154307,8.68,-0.3866666666666667,-44.54666666666667,-36.58536585365854,-1.7682926829268295,0.30487804878048785,-0.022216796875,-0.346435546875,-0.960205078125,1.932551319648094,1.5835777126099706,1.8299120234604105,0.07038123167155426,0.07624633431085044,0.09970674486803519,42.3,-83.7,0.3,[-0.52729887  0.15746697  0.83496111],[ 0.19124801 -0.0085195  -0.98150477],[ 0.19183003  0.19043592 -0.96277484],[0.4040646  0.2734554  0.87289973],-16.188786071120962,-11.101404914878158,-61.933213658187874,[ 0.49534536  0.15422311  0.0708953  -0.85195191],[ 0.52089291 -0.00220326  0.29640637 -0.80050546]
1718050225.5429497,8.786666666666667,0.22666666666666668,-44.88,-42.37804878048781,-1.707317073170732,0.3658536585365854,-0.027587890625,-0.36962890625,-0.939208984375,1.9296187683284458,1.5865102639296187,1.844574780058651,0.07038123167155426,0.07624633431085044,0.09970674486803519,42.3,-83.7,0.3,[-0.53207843  0.13037083  0.83659787],[ 0.19213133  0.00495635 -0.98135671],[ 0.19183003  0.19043592 -0.96277484],[0.4040646  0.2734554  0.87289973],-16.368853440051083,-10.80093100968865,-59.64278518935109,[ 0.47842382  0.15130289  0.07663316 -0.86159471],[ 0.50923741 -0.01264808  0.31704862 -0.79999841]
1718050225.5694573,8.906666666666668,0.8266666666666668,-45.24,-38.53658536585366,-2.1951219512195124,0.48780487804878053,-0.0224609375,-0.32177734375,-0.947509765625,1.935483870967742,1.5923753665689149,1.8563049853372433,0.07331378299120235,0.07624633431085044,0.10263929618768329,42.3,-83.7,0.3,[-0.53475481  0.12081163  0.8363264 ],[ 0.19313687  0.01792588 -0.98100806],[ 0.19183003  0.19043592 -0.96277484],[0.4040646  0.2734554  0.87289973],-16.84955447404131,-10.197566939603213,-59.83144866498454,[ 0.48010576  0.14898     0.08264217 -0.86050781],[ 0.50730251 -0.01004796  0.31652452 -0.80147079]
1718050225.5965402,9.026666666666667,1.4400000000000002,-45.58666666666667,-37.743902439024396,-0.1829268292682927,0.7317073170731708,-0.016357421875,-0.3193359375,-0.936767578125,1.9413489736070382,1.595307917888563,1.8651026392961876,0.07331378299120235,0.07917888563049853,0.10557184750733138,42.3,-83.7,0.3,[-0.53931438  0.11565294  0.83412493],[ 0.19414663  0.03097169 -0.98048347],[ 0.19183003  0.19043592 -0.96277484],[0.4040646  0.2734554  0.87289973],-17.410788239086745,-9.556398868102754,-60.508670552530475,[ 0.48541368  0.14711727  0.08879907 -0.85723089],[ 5.07539731e-01 -1.54181578e-04  3.22709283e-01 -7.98913084e-01]
1718050225.623779,9.133333333333335,2.066666666666667,-45.85333333333334,-37.5,0.7926829268292683,1.402439024390244,-0.00537109375,-0.327880859375,-0.94580078125,1.935483870967742,1.598240469208211,1.8739002932551319,0.07331378299120235,0.07917888563049853,0.10557184750733138,42.3,-83.7,0.3,[-0.53833709  0.09368886  0.83750557],[ 0.19515772  0.04415978 -0.97977721],[ 0.19183003  0.19043592 -0.96277484],[0.4040646  0.2734554  0.87289973],-17.68847488984016,-9.076569620878399,-59.23288099998254,[ 0.47620833  0.14371296  0.09460487 -0.86233528],[ 0.50406914  0.00658013  0.3296916  -0.79823208]
1718050225.6506724,9.280000000000001,2.68,-46.18666666666667,-33.59756097560976,0.7317073170731708,0.06097560975609757,-0.0673828125,-0.3232421875,-1.005126953125,1.935483870967742,1.598240469208211,1.8797653958944283,0.07624633431085044,0.08211143695014662,0.10850439882697947,42.3,-83.7,0.3,[-0.54199935  0.08453383  0.83611646],[ 0.19666893  0.05679663 -0.97882352],[ 0.19183003  0.19043592 -0.96277484],[0.4040646  0.2734554  0.87289973],-18.191804528175528,-8.517419586797953,-59.39688457164182,[ 0.47765674  0.14180031  0.1006143  -0.86116983],[ 0.49931871  0.0139747   0.32317343 -0.80376892]
1718050225.6777196,9.426666666666668,3.266666666666667,-46.42666666666667,-40.60975609756098,-1.2804878048780488,0.853658536585366,-0.019775390625,-0.27783203125,-0.966796875,1.9237536656891496,1.595307917888563,1.8797653958944283,0.07624633431085044,0.08211143695014662,0.10850439882697947,42.3,-83.7,0.3,[-0.54011691  0.06714186  0.83890744],[ 0.19851252  0.06879147 -0.97768119],[ 0.19183003  0.19043592 -0.96277484],[0.4040646  0.2734554  0.87289973],-18.533494006973346,-8.029581468785791,-58.682790210510234,[ 0.47260251  0.13894934  0.1061688  -0.86375236],[ 0.50060023 -0.00492796  0.3416111  -0.79540994]
1718050225.7046561,9.506666666666668,3.9200000000000004,-46.720000000000006,-34.87804878048781,-2.1341463414634148,0.0,0.00244140625,-0.282958984375,-0.952880859375,1.9208211143695015,1.5894428152492668,1.8768328445747802,0.07917888563049853,0.08211143695014662,0.11143695014662756,42.3,-83.7,0.3,[-0.54459019  0.06705625  0.83601734],[ 0.19872507  0.08194274 -0.97662364],[ 0.19183003  0.19043592 -0.96277484],[0.4040646  0.2734554  0.87289973],-19.097640034046226,-7.241824453208311,-60.005553895118496,[ 0.48305655  0.13671967  0.11222987 -0.85753633],[ 0.50445046 -0.00704672  0.33185162 -0.79709132]
1718050225.7317305,9.600000000000001,4.546666666666667,-46.94666666666667,-33.170731707317074,-0.9756097560975611,-0.1829268292682927,-0.039306640625,-0.220947265625,-0.973388671875,1.9178885630498534,1.5923753665689149,1.8826979472140764,0.07917888563049853,0.08504398826979472,0.11143695014662756,42.3,-83.7,0.3,[-0.54279697  0.05372297  0.83814396],[ 0.19944582  0.09445975 -0.97534544],[ 0.19183003  0.19043592 -0.96277484],[0.4040646  0.2734554  0.87289973],-19.45618181038406,-6.616021334101608,-59.848867263349995,[ 0.48241446  0.13344447  0.11782992 -0.8576625 ],[ 0.50124579 -0.00289941  0.32875168 -0.8004165 ]
1718050225.758804,9.626666666666667,5.106666666666667,-47.13333333333333,-31.52439024390244,-0.24390243902439027,0.7926829268292683,-0.008056640625,-0.252197265625,-0.9677734375,1.9178885630498534,1.5923753665689149,1.8944281524926687,0.07917888563049853,0.08504398826979472,0.11436950146627566,42.3,-83.7,0.3,[-0.54963313  0.0355885   0.83464776],[ 0.19899401  0.10556053 -0.97429891],[ 0.19183003  0.19043592 -0.96277484],[0.4040646  0.2734554  0.87289973],-19.80018723146455,-6.468438002135627,-58.32921676287557,[ 0.47082885  0.13218361  0.12281063 -0.863577  ],[ 0.49522424  0.00627064  0.32728592 -0.80473447]
1718050225.785745,9.906666666666668,5.680000000000001,-47.34666666666667,-35.36585365853659,-0.3658536585365854,0.426829268292683,-0.0546875,-0.203369140625,-1.00390625,1.9149560117302054,1.595307917888563,1.900293255131965,0.08211143695014662,0.08504398826979472,0.11436950146627566,42.3,-83.7,0.3,[-0.54763342  0.02226594  0.83642206],[ 0.20340425  0.11662209 -0.97212448],[ 0.19183003  0.19043592 -0.96277484],[0.4040646  0.2734554  0.87289973],-20.270600508923753,-5.976747623189319,-58.19550685215628,[ 0.47004516  0.13030239  0.12859793 -0.8634474 ],[ 4.91599152e-01  4.31769778e-04  3.42955710e-01 -8.00444545e-01]
1718050225.8153443,10.24,6.24,-47.52,-33.963414634146346,-2.073170731707317,0.5487804878048781,-0.022705078125,-0.216064453125,-0.998046875,1.9120234604105573,1.598240469208211,1.903225806451613,0.08211143695014662,0.08797653958944282,0.11436950146627566,42.3,-83.7,0.3,[-0.54389755  0.01339419  0.83904473],[ 0.20893845  0.12732187 -0.969605  ],[ 0.19183003  0.19043592 -0.96277484],[0.4040646  0.2734554  0.87289973],-20.77296428587675,-5.333494182994879,-58.794701796890365,[ 0.47498925  0.12827206  0.13443855 -0.86014985],[ 0.496729   -0.00610531  0.34356119 -0.79698729]
1718050225.8403614,10.053333333333335,6.880000000000001,-47.720000000000006,-29.39024390243903,-1.4634146341463417,-0.1829268292682927,-0.0048828125,-0.196044921875,-0.977783203125,1.900293255131965,1.5865102639296187,1.900293255131965,0.08211143695014662,0.08797653958944282,0.11730205278592376,42.3,-83.7,0.3,[-5.51232657e-01 -1.32345298e-16  8.34351580e-01],[ 0.20412692  0.13969429 -0.96892606],[ 0.19183003  0.19043592 -0.96277484],[0.4040646  0.2734554  0.87289973],-21.061892443744284,-5.003836926276308,-57.777223607682586,[ 0.46753282  0.12578882  0.13913682 -0.86384673],[ 4.89003388e-01 -3.59780675e-04  3.32349705e-01 -8.06485729e-01]
1718050225.8668268,9.96,7.213333333333334,-47.81333333333334,-33.29268292682927,-0.30487804878048785,0.7926829268292683,-0.031982421875,-0.208251953125,-0.989013671875,1.8973607038123168,1.5865102639296187,1.8944281524926687,0.08211143695014662,0.08797653958944282,0.11730205278592376,42.3,-83.7,0.3,[-0.5464396  0.0044856  0.8374865],[ 0.20174395  0.14610907 -0.96847897],[ 0.19183003  0.19043592 -0.96277484],[0.4040646  0.2734554  0.87289973],-21.12359927275528,-4.233954924135165,-59.28125364768339,[ 0.47996263  0.12215076  0.14124257 -0.8571847 ],[ 0.49527299 -0.00124253  0.34612723 -0.79680553]
1718050225.8960736,10.013333333333334,7.5600000000000005,-47.973333333333336,-30.121951219512198,-1.4634146341463417,0.7317073170731708,-0.026123046875,-0.1640625,-1.002685546875,1.8944281524926687,1.5865102639296187,1.903225806451613,0.08504398826979472,0.08797653958944282,0.12023460410557185,42.3,-83.7,0.3,[-0.54959513 -0.01340742  0.83532355],[ 0.20193503  0.15245961 -0.96745972],[ 0.19183003  0.19043592 -0.96277484],[0.4040646  0.2734554  0.87289973],-21.356200326638493,-4.374800713923708,-57.46397940057042,[ 0.46584331  0.12189611  0.14432904 -0.86446543],[ 0.49128831 -0.00081277  0.33887187 -0.8023721 ]
1718050225.925178,10.08,9.266666666666667,-48.77333333333333,-28.292682926829272,0.48780487804878053,1.6463414634146343,-0.005615234375,-0.090087890625,-1.00439453125,1.8856304985337244,1.5835777126099706,1.900293255131965,0.08504398826979472,0.09090909090909091,0.12023460410557185,42.3,-83.7,0.3,[-0.54693476 -0.02244831  0.83687421],[ 0.1989782   0.18292308 -0.96278077],[ 0.19183003  0.19043592 -0.96277484],[0.4040646  0.2734554  0.87289973],-22.131942024972385,-2.2201878378072144,-59.811733712381404,[ 0.48599114  0.11216003  0.15687076 -0.85242261],[ 0.50116872  0.00688062  0.34214022 -0.79480982]
1718050225.9515805,10.586666666666668,9.653333333333334,-48.6,-23.963414634146343,1.7682926829268295,-1.1585365853658538,-0.021240234375,-0.186279296875,-0.994384765625,1.8797653958944283,1.5806451612903225,1.900293255131965,0.08504398826979472,0.09090909090909091,0.12023460410557185,42.3,-83.7,0.3,[-0.54743023 -0.03145611  0.83625992],[ 0.20894276  0.19052211 -0.95918937],[ 0.19183003  0.19043592 -0.96277484],[0.4040646  0.2734554  0.87289973],-22.74259259771577,-1.9143769874834615,-60.050001019550294,[ 0.48763527  0.1128235   0.16248922 -0.85034108],[ 0.49301137  0.01884981  0.33359833 -0.80330357]
1718050225.9759803,10.586666666666668,9.653333333333334,-48.693333333333335,-21.03658536585366,2.804878048780488,0.426829268292683,-0.029052734375,-0.113037109375,-0.991455078125,1.8739002932551319,1.5777126099706744,1.8973607038123168,0.08797653958944282,0.09090909090909091,0.12023460410557185,42.3,-83.7,0.3,[-0.54636449 -0.03605071  0.83677129],[ 0.2085742   0.19018605 -0.95933626],[ 0.19183003  0.19043592 -0.96277484],[0.4040646  0.2734554  0.87289973],-22.718042110085285,-2.05226834537409,-59.44644430982379,[ 0.48295782  0.11288494  0.16231007 -0.85303234],[ 0.49187644  0.03815088  0.32220966 -0.80794988]
1718050226.0019963,10.4,9.573333333333334,-48.800000000000004,-22.378048780487806,1.8902439024390245,-0.5487804878048781,-0.00341796875,-0.15625,-0.97265625,1.8651026392961876,1.5689149560117301,1.8973607038123168,0.08797653958944282,0.093841642228739,0.12023460410557185,42.3,-83.7,0.3,[-0.55274861 -0.04944261  0.83188004],[ 0.20470027  0.18842922 -0.96051665],[ 0.19183003  0.19043592 -0.96277484],[0.4040646  0.2734554  0.87289973],-22.67042940614768,-2.848750167817624,-56.83776463698815,[ 0.46218979  0.11494695  0.16121038 -0.86439517],[ 0.47753809  0.03833983  0.32017416 -0.81729795]
1718050226.0290005,10.200000000000001,9.933333333333334,-48.74666666666667,-24.573170731707318,0.48780487804878053,-1.0365853658536586,-0.0302734375,-0.130615234375,-1.010498046875,1.8563049853372433,1.565982404692082,1.8914956011730206,0.08797653958944282,0.093841642228739,0.12316715542521994,42.3,-83.7,0.3,[-0.548441   -0.05428158  0.83442554],[ 0.20085323  0.19560217 -0.95989467],[ 0.19183003  0.19043592 -0.96277484],[0.4040646  0.2734554  0.87289973],-22.691359077188416,-2.2858752771069817,-57.082182978652185,[ 0.46491162  0.11115595  0.16344201 -0.86301115],[ 0.47402499  0.02621305  0.32634431 -0.81738154]
1718050226.0561502,10.413333333333334,10.760000000000002,-48.413333333333334,-22.865853658536587,-0.7317073170731708,0.12195121951219513,-0.033935546875,-0.09912109375,-1.01611328125,1.847507331378299,1.5601173020527859,1.8914956011730206,0.09090909090909091,0.093841642228739,0.12316715542521994,42.3,-83.7,0.3,[-0.55086216 -0.06782853  0.83183542],[ 0.2054881   0.21232894 -0.95534866],[ 0.19183003  0.19043592 -0.96277484],[0.4040646  0.2734554  0.87289973],-23.43482034008897,-1.5046450410724403,-57.338479532159376,[ 0.46737491  0.10870242  0.17200411 -0.86032498],[ 0.47943431  0.02111428  0.3246214  -0.81505697]
1718050226.0857542,10.373333333333335,11.226666666666667,-48.22666666666667,-21.890243902439025,-0.1829268292682927,1.2804878048780488,0.000732421875,-0.061767578125,-0.983642578125,1.847507331378299,1.563049853372434,1.8944281524926687,0.09090909090909091,0.093841642228739,0.12316715542521994,42.3,-83.7,0.3,[-0.54844426 -0.07237587  0.83304899],[ 0.20504281  0.22191008 -0.95326458],[ 0.19183003  0.19043592 -0.96277484],[0.4040646  0.2734554  0.87289973],-23.66014874818183,-0.796960515415556,-57.98151635037626,[ 0.47311553  0.10531349  0.17601818 -0.85678957],[ 0.48805561  0.02277515  0.32357319 -0.81029835]
1718050226.1102912,10.666666666666668,12.026666666666667,-48.22666666666667,-20.853658536585368,0.3658536585365854,0.5487804878048781,-0.048095703125,-0.079345703125,-1.032470703125,1.8416422287390029,1.5601173020527859,1.8914956011730206,0.09090909090909091,0.093841642228739,0.12316715542521994,42.3,-83.7,0.3,[-0.5472706  -0.07710195  0.83339677],[ 0.20982786  0.23658091 -0.94868422],[ 0.19183003  0.19043592 -0.96277484],[0.4040646  0.2734554  0.87289973],-24.198802602107644,0.30018417503740874,-59.42289363732391,[ 0.48509718  0.10166363  0.18332055 -0.84896337],[ 0.4944715   0.02353205  0.3244143  -0.80603942]
1718050226.1376863,10.626666666666667,12.493333333333334,-48.89333333333334,-26.158536585365855,-3.414634146341464,0.9146341463414634,-0.05419921875,-0.12109375,-1.01513671875,1.8387096774193548,1.5601173020527859,1.8885630498533725,0.093841642228739,0.093841642228739,0.12023460410557185,42.3,-83.7,0.3,[-0.54400728 -0.07738271  0.83550464],[ 0.20605898  0.24225504 -0.94807816],[ 0.19183003  0.19043592 -0.96277484],[0.4040646  0.2734554  0.87289973],-24.131003530543744,0.8782007045411716,-60.04609297647603,[ 0.49066787  0.09809582  0.18472754 -0.84587114],[ 0.50825007 -0.00590573  0.33505881 -0.79333636]
1718050226.164182,10.293333333333335,12.546666666666667,-48.50666666666667,-23.59756097560976,-4.024390243902439,0.3658536585365854,0.00390625,-0.027099609375,-1.006103515625,1.8387096774193548,1.563049853372434,1.8973607038123168,0.093841642228739,0.0967741935483871,0.12023460410557185,42.3,-83.7,0.3,[-0.54438973 -0.09066449  0.83391832],[ 0.20124027  0.24529417 -0.94833176],[ 0.19183003  0.19043592 -0.96277484],[0.4040646  0.2734554  0.87289973],-24.176346876644914,0.6271689134061172,-58.32490710652596,[ 0.47747637  0.09737131  0.18547648 -0.85330746],[ 0.50225854 -0.01643979  0.32816239 -0.7998597 ]
1718050226.1912308,10.4,12.706666666666667,-48.93333333333334,-17.98780487804878,-1.524390243902439,0.853658536585366,-0.003173828125,-0.009521484375,-1.004150390625,1.8387096774193548,1.563049853372434,1.8973607038123168,0.093841642228739,0.093841642228739,0.12316715542521994,42.3,-83.7,0.3,[-0.54438973 -0.09066449  0.83391832],[ 0.20149249  0.24618249 -0.94804797],[ 0.19183003  0.19043592 -0.96277484],[0.4040646  0.2734554  0.87289973],-24.205042319132946,0.7018026179124084,-58.4435246456084,[ 0.47845233  0.09712687  0.18589933 -0.85269642],[ 0.49735505  0.00400343  0.3118311  -0.80955746]
1718050226.2182481,10.386666666666667,12.866666666666667,-48.440000000000005,-6.707317073170732,1.402439024390244,3.1097560975609757,0.054443359375,0.0263671875,-0.989501953125,1.8357771260997067,1.563049853372434,1.8973607038123168,0.093841642228739,0.0967741935483871,0.12316715542521994,42.3,-83.7,0.3,[-0.54252431 -0.09532982  0.83461344],[ 0.20292545  0.25137749 -0.94637763],[ 0.19183003  0.19043592 -0.96277484],[0.4040646  0.2734554  0.87289973],-24.380234805812478,1.0396029718672246,-58.63420427627041,[ 0.48025302  0.09565501  0.18844635 -0.85129027],[ 0.50043556  0.05473485  0.2684066  -0.82129547]
1718050226.2451634,10.600000000000001,13.013333333333334,-48.53333333333334,1.402439024390244,5.3048780487804885,-1.5853658536585367,-0.02978515625,-0.082763671875,-1.0068359375,1.8328445747800586,1.5571847507331378,1.8914956011730206,0.093841642228739,0.0967741935483871,0.12316715542521994,42.3,-83.7,0.3,[-0.54564905 -0.09087422  0.83307202],[ 0.20641205  0.25340649 -0.94508159],[ 0.19183003  0.19043592 -0.96277484],[0.4040646  0.2734554  0.87289973],-24.55632658543409,1.2664403405376434,-59.461746795339984,[ 0.48659441  0.09607906  0.19000876 -0.8472847 ],[ 0.47752031  0.10420655  0.2281321  -0.84206359]
1718050226.272339,10.72,13.213333333333335,-48.82666666666667,-9.573170731707318,-1.2804878048780488,0.48780487804878053,-0.116455078125,-0.141357421875,-1.03466796875,1.8299120234604105,1.5571847507331378,1.8914956011730206,0.093841642228739,0.0967741935483871,0.12316715542521994,42.3,-83.7,0.3,[-0.5437821  -0.09555084  0.83376919],[ 0.20732435  0.25554531 -0.94430568],[ 0.19183003  0.19043592 -0.96277484],[0.4040646  0.2734554  0.87289973],-24.645362243978187,1.3499331004094317,-59.269842385186,[ 0.48523137  0.09551812  0.1911787  -0.84786644],[ 0.4908687   0.07035805  0.24312996 -0.8336579 ]
1718050226.299305,10.72,13.306666666666667,-48.78666666666667,-7.134146341463415,-0.7317073170731708,-0.30487804878048785,0.03466796875,0.016845703125,-0.994873046875,1.8299120234604105,1.5571847507331378,1.8914956011730206,0.093841642228739,0.0967741935483871,0.12316715542521994,42.3,-83.7,0.3,[-0.5437821  -0.09555084  0.83376919],[ 0.20737979  0.25741919 -0.94378439],[ 0.19183003  0.19043592 -0.96277484],[0.4040646  0.2734554  0.87289973],-24.685868509186005,1.5104867370622974,-59.49385152044327,[ 0.48710551  0.09487365  0.19196679 -0.84668528],[ 0.49123544  0.06405793  0.24057249 -0.83469108]
1718050226.328842,10.746666666666668,13.200000000000001,-48.82666666666667,-3.5975609756097566,2.6219512195121952,-1.6463414634146343,-0.030029296875,-0.061767578125,-1.013427734375,1.8240469208211143,1.5513196480938416,1.8885630498533725,0.093841642228739,0.0967741935483871,0.12316715542521994,42.3,-83.7,0.3,[-0.5464371  -0.10010601  0.83149581],[ 0.20783152  0.25527693 -0.94426678],[ 0.19183003  0.19043592 -0.96277484],[0.4040646  0.2734554  0.87289973],-24.763612562323562,1.051033376404282,-58.47394022201257,[ 0.47875837  0.09690847  0.19147662 -0.8513142 ],[ 0.47474559  0.08457339  0.23305368 -0.84448206]
1718050226.3535903,10.746666666666668,13.146666666666668,-48.54666666666667,-4.573170731707317,1.0975609756097562,0.5487804878048781,-0.01416015625,-0.041259765625,-1.01220703125,1.8269794721407624,1.5542521994134897,1.8856304985337244,0.093841642228739,0.0967741935483871,0.12316715542521994,42.3,-83.7,0.3,[-0.54300044 -0.0913111   0.83475314],[ 0.2089548   0.25561965 -0.9439261 ],[ 0.19183003  0.19043592 -0.96277484],[0.4040646  0.2734554  0.87289973],-24.63563108183139,1.553349719619151,-60.00044933099097,[ 0.49095242  0.0951892   0.19135701 -0.84456334],[ 0.48809553  0.08543033  0.22974271 -0.83766503]
1718050226.3803623,10.760000000000002,13.186666666666667,-48.58666666666667,-6.402439024390245,-0.12195121951219513,-2.439024390243903,-0.042236328125,-0.045654296875,-1.017578125,1.8240469208211143,1.5513196480938416,1.8914956011730206,0.093841642228739,0.0967741935483871,0.12316715542521994,42.3,-83.7,0.3,[-0.54781107 -0.10441743  0.83006026],[ 0.20900771  0.25614451 -0.9437721 ],[ 0.19183003  0.19043592 -0.96277484],[0.4040646  0.2734554  0.87289973],-24.898118003805614,0.9068508755030501,-57.96928167174932,[ 0.47465932  0.0976976   0.19230981 -0.85332916],[ 0.47239351  0.07355287  0.2350325  -0.8462825 ]
1718050226.4075263,10.760000000000002,13.386666666666667,-48.66666666666667,-15.487804878048783,-2.1341463414634148,-1.524390243902439,-0.05859375,-0.093017578125,-1.021484375,1.8181818181818181,1.5483870967741935,1.8856304985337244,0.093841642228739,0.0967741935483871,0.12316715542521994,42.3,-83.7,0.3,[-0.5451775  -0.10491946  0.83172917],[ 0.20849327  0.2593894  -0.94299931],[ 0.19183003  0.19043592 -0.96277484],[0.4040646  0.2734554  0.87289973],-24.903732487806813,1.2683573721086534,-58.43297043734232,[ 0.47868294  0.09580673  0.19345256 -0.85103456],[ 0.47780523  0.03912608  0.27112583 -0.83466286]
1718050226.4344668,10.746666666666668,13.680000000000001,-48.693333333333335,-14.634146341463415,-2.1951219512195124,-1.3414634146341464,0.05712890625,-0.010498046875,-0.99365234375,1.812316715542522,1.5454545454545454,1.8856304985337244,0.0967741935483871,0.0967741935483871,0.12316715542521994,42.3,-83.7,0.3,[-0.54526416 -0.11406102  0.83046799],[ 0.20783542  0.26456469 -0.94170588],[ 0.19183003  0.19043592 -0.96277484],[0.4040646  0.2734554  0.87289973],-25.10437756620598,1.3482087074339775,-57.76091454059259,[ 0.47364595  0.0949034   0.19583282 -0.85340633],[ 0.4767528   0.02708272  0.28220635 -0.83206542]
1718050226.4614363,10.8,13.853333333333333,-48.81333333333334,-7.987804878048781,1.6463414634146343,-4.146341463414634,-0.04345703125,0.025634765625,-1.0166015625,1.812316715542522,1.5483870967741935,1.8856304985337244,0.0967741935483871,0.0967741935483871,0.12609970674486803,42.3,-83.7,0.3,[-0.54133623 -0.11434413  0.8329949 ],[ 0.20818191  0.26703828 -0.94093084],[ 0.19183003  0.19043592 -0.96277484],[0.4040646  0.2734554  0.87289973],-25.088734857977727,1.7087545752368294,-58.30400335946697,[ 0.47827508  0.09307883  0.19675265 -0.85081001],[ 0.460152    0.04960697  0.26884601 -0.84470178]
1718050226.4883533,10.853333333333333,14.000000000000002,-48.85333333333334,-12.378048780487806,2.8658536585365857,-7.073170731707318,-0.047607421875,-0.013916015625,-1.021728515625,1.8064516129032258,1.5454545454545454,1.8856304985337244,0.0967741935483871,0.0967741935483871,0.12609970674486803,42.3,-83.7,0.3,[-0.54137672 -0.1235009   0.83166025],[ 0.20885536  0.26940802 -0.94010571],[ 0.19183003  0.19043592 -0.96277484],[0.4040646  0.2734554  0.87289973],-25.27872147834719,1.539255575568161,-57.35853295921462,[ 0.47081265  0.0935018   0.19824217 -0.85457177],[ 0.43627042  0.0506116   0.28725203 -0.8512302 ]
1718050226.5154471,10.88,14.306666666666668,-48.84,-21.158536585365855,1.4634146341463417,-12.195121951219512,-0.009033203125,-0.039306640625,-0.995361328125,1.7976539589442815,1.5395894428152492,1.8797653958944283,0.0967741935483871,0.09970674486803519,0.12609970674486803,42.3,-83.7,0.3,[-0.54066211 -0.12853293  0.8313626 ],[ 0.20906072  0.27490459 -0.93846741],[ 0.19183003  0.19043592 -0.96277484],[0.4040646  0.2734554  0.87289973],-25.453269861492082,1.843502249317949,-57.3894541353598,[ 0.47139484  0.09199702  0.20075399 -0.85382743],[ 0.41042576  0.01931318  0.32953898 -0.85004809]
1718050226.542576,10.906666666666668,14.680000000000001,-48.89333333333334,-18.53658536585366,-0.426829268292683,-13.04878048780488,-0.03173828125,-0.009033203125,-1.014404296875,1.7947214076246334,1.5395894428152492,1.8826979472140764,0.0967741935483871,0.0967741935483871,0.12903225806451613,42.3,-83.7,0.3,[-0.54000252 -0.13754585  0.83034837],[ 0.20893323  0.28121698 -0.93662368],[ 0.19183003  0.19043592 -0.96277484],[0.4040646  0.2734554  0.87289973],-25.69157641491542,2.045578573388854,-56.93807548958916,[ 0.46816796  0.0906643   0.20370746 -0.85504504],[ 0.39647285  0.00258966  0.33237279 -0.85576334]
1718050226.5695403,10.906666666666668,15.000000000000002,-48.89333333333334,-18.902439024390244,-0.06097560975609757,-9.939024390243903,-0.03125,-0.028076171875,-1.015869140625,1.7917888563049853,1.5395894428152492,1.8797653958944283,0.0967741935483871,0.09970674486803519,0.12903225806451613,42.3,-83.7,0.3,[-0.53665434 -0.13804642  0.83243336],[ 0.20857008  0.28684761 -0.93499571],[ 0.19183003  0.19043592 -0.96277484],[0.4040646  0.2734554  0.87289973],-25.725469651127074,2.6684861696578017,-57.77271840055644,[ 0.47536272  0.08763476  0.20583128 -0.85087244],[ 0.4072255   0.00133549  0.33751655 -0.84867437]
1718050226.5965958,10.933333333333334,15.280000000000001,-48.93333333333334,-15.000000000000002,1.5853658536585367,-7.01219512195122,0.02587890625,0.00390625,-0.9814453125,1.7888563049853372,1.5395894428152492,1.8856304985337244,0.09970674486803519,0.09970674486803519,0.12609970674486803,42.3,-83.7,0.3,[-0.53726245 -0.15127425  0.829738  ],[ 0.2085858   0.29151138 -0.93354865],[ 0.19183003  0.19043592 -0.96277484],[0.4040646  0.2734554  0.87289973],-26.035537067209543,2.476679823775147,-56.43396282846772,[ 0.46484275  0.08792375  0.20839406 -0.85601551],[ 0.41376022  0.01927117  0.32774702 -0.84912484]
1718050226.6238377,11.013333333333334,15.666666666666668,-48.94666666666667,-22.621951219512198,2.804878048780488,-3.353658536585366,-0.07568359375,0.037841796875,-1.0263671875,1.7741935483870968,1.530791788856305,1.8739002932551319,0.09970674486803519,0.09970674486803519,0.12903225806451613,42.3,-83.7,0.3,[-0.53369612 -0.1571461   0.83094738],[ 0.2095398   0.29807417 -0.93125982],[ 0.19183003  0.19043592 -0.96277484],[0.4040646  0.2734554  0.87289973],-26.20847228777632,2.96198036307403,-56.71612793285263,[ 0.46761339  0.08550164  0.21140539 -0.85401109],[ 0.43335762  0.02053014  0.35907298 -0.82634513]
1718050226.6505413,11.053333333333335,15.973333333333334,-48.93333333333334,-14.878048780487806,-0.7926829268292683,-0.6707317073170732,-0.030029296875,0.0126953125,-1.0048828125,1.7653958944281525,1.5219941348973607,1.8709677419354838,0.09970674486803519,0.09970674486803519,0.12903225806451613,42.3,-83.7,0.3,[-0.53815849 -0.16612001  0.82631082],[ 0.20994848  0.30339962 -0.92944624],[ 0.19183003  0.19043592 -0.96277484],[0.4040646  0.2734554  0.87289973],-26.57517432245133,2.8489187560105043,-55.816715060623665,[ 0.46043645  0.08616518  0.21436921 -0.85709957],[ 0.45395196  0.02415227  0.33256268 -0.82628467]
1718050226.6776955,11.093333333333334,16.240000000000002,-48.93333333333334,-8.353658536585366,1.829268292682927,1.2804878048780488,-0.016357421875,0.09765625,-1.010009765625,1.7653958944281525,1.5219941348973607,1.8709677419354838,0.09970674486803519,0.09970674486803519,0.12903225806451613,42.3,-83.7,0.3,[-0.53815849 -0.16612001  0.82631082],[ 0.21034899  0.30793878 -0.92786152],[ 0.19183003  0.19043592 -0.96277484],[0.4040646  0.2734554  0.87289973],-26.674667116262253,3.2763071541293387,-56.41354755127329,[ 0.4655304   0.08447628  0.21635395 -0.85401181],[ 0.46663695  0.05223914  0.3015418  -0.82981538]
1718050226.7047198,11.16,16.240000000000002,-48.89333333333334,-0.06097560975609757,2.8658536585365857,1.1585365853658538,-0.001953125,0.02001953125,-0.9990234375,1.7624633431085044,1.5161290322580645,1.8621700879765395,0.09970674486803519,0.09970674486803519,0.12903225806451613,42.3,-83.7,0.3,[-0.5402237  -0.1574932   0.82665243],[ 0.21170559  0.30807337 -0.92750824],[ 0.19183003  0.19043592 -0.96277484],[0.4040646  0.2734554  0.87289973],-26.614913510419928,3.612138588030158,-57.5949414681004,[ 0.47490477  0.08394702  0.21638418 -0.84887941],[ 0.4727517   0.08585441  0.25600472 -0.83880656]
1718050226.7316828,11.186666666666667,16.240000000000002,-48.94666666666667,-0.7317073170731708,2.8658536585365857,0.0,-0.063720703125,0.009033203125,-1.017578125,1.7653958944281525,1.5190615835777126,1.8680351906158357,0.09970674486803519,0.09970674486803519,0.12903225806451613,42.3,-83.7,0.3,[-0.54087377 -0.16152084  0.82544932],[ 0.21198981  0.30775159 -0.92755015],[ 0.19183003  0.19043592 -0.96277484],[0.4040646  0.2734554  0.87289973],-26.70464658481329,3.3680049072036087,-56.95622103131326,[ 0.46969875  0.08493613  0.21654069 -0.85163318],[ 0.46756834  0.09593803  0.24184886 -0.84479871]
1718050226.7587886,11.200000000000001,16.213333333333335,-48.92,-3.7195121951219514,-0.853658536585366,0.12195121951219513,-0.043212890625,0.01708984375,-1.0166015625,1.7624633431085044,1.5219941348973607,1.8651026392961876,0.09970674486803519,0.10263929618768329,0.12903225806451613,42.3,-83.7,0.3,[-0.53347785 -0.16251445  0.83005448],[ 0.21236364  0.30742165 -0.92757405],[ 0.19183003  0.19043592 -0.96277484],[0.4040646  0.2734554  0.87289973],-26.553153730658448,3.6084936946020236,-57.31455267022738,[ 0.47286522  0.08318973  0.21611614 -0.85015985],[ 0.47429876  0.07552133  0.24003356 -0.84363565]
1718050226.7856,11.186666666666667,16.240000000000002,-48.92,-2.5609756097560976,-1.3414634146341464,0.7926829268292683,-0.017333984375,0.054931640625,-1.0126953125,1.7624633431085044,1.5219941348973607,1.8680351906158357,0.09970674486803519,0.09970674486803519,0.12903225806451613,42.3,-83.7,0.3,[-0.53477452 -0.16672619  0.82838312],[ 0.21208921  0.3078959  -0.92747953],[ 0.19183003  0.19043592 -0.96277484],[0.4040646  0.2734554  0.87289973],-26.659517988302095,3.393458127523451,-56.65530629460379,[ 0.46753599  0.08399222  0.21652827 -0.85291906],[ 0.47631721  0.06964794  0.23310116 -0.8449467 ]
1718050226.8128116,11.173333333333334,16.240000000000002,-48.96,0.12195121951219513,1.7682926829268295,0.3658536585365854,-0.001220703125,0.04248046875,-1.005615234375,1.7624633431085044,1.5190615835777126,1.8651026392961876,0.09970674486803519,0.10263929618768329,0.12903225806451613,42.3,-83.7,0.3,[-0.53750678 -0.16211252  0.82753006],[ 0.21169885  0.30769594 -0.92763506],[ 0.19183003  0.19043592 -0.96277484],[0.4040646  0.2734554  0.87289973],-26.62579578253417,3.47720479781643,-57.08217178962274,[ 0.47087246  0.08403281  0.21629861 -0.85113602],[ 0.4723707   0.08698893  0.22639632 -0.84737451]
1718050226.8433611,11.186666666666667,16.213333333333335,-48.93333333333334,0.48780487804878053,2.804878048780488,0.7317073170731708,-0.03173828125,0.04248046875,-1.017822265625,1.7624633431085044,1.5190615835777126,1.8651026392961876,0.09970674486803519,0.10263929618768329,0.12903225806451613,42.3,-83.7,0.3,[-0.53750678 -0.16211252  0.82753006],[ 0.21207247  0.30736606 -0.92765908],[ 0.19183003  0.19043592 -0.96277484],[0.4040646  0.2734554  0.87289973],-26.631471488026918,3.4478683202721814,-57.06283339656504,[ 0.47067648  0.08423924  0.21623758 -0.85123952],[ 0.47100708  0.09959051  0.22448113 -0.84725574]
1718050226.8666961,11.266666666666667,16.173333333333336,-48.98666666666667,0.426829268292683,1.7682926829268295,0.853658536585366,-0.0361328125,0.020751953125,-1.014892578125,1.7624633431085044,1.5161290322580645,1.8621700879765395,0.09970674486803519,0.10263929618768329,0.12903225806451613,42.3,-83.7,0.3,[-0.5402237  -0.1574932   0.82665243],[ 0.21336976  0.30629292 -0.92771655],[ 0.19183003  0.19043592 -0.96277484],[0.4040646  0.2734554  0.87289973],-26.635363715361386,3.454193174444828,-57.473674373812635,[ 0.47373284  0.0849828   0.2159885  -0.84953169],[ 0.47419497  0.10032717  0.22124273 -0.84624184]
1718050226.8939388,11.293333333333335,16.12,-48.973333333333336,-1.2804878048780488,0.9146341463414634,0.426829268292683,-0.041748046875,0.016357421875,-1.018310546875,1.7683284457478006,1.5219941348973607,1.8709677419354838,0.09970674486803519,0.10263929618768329,0.12903225806451613,42.3,-83.7,0.3,[-0.54024508 -0.16133309  0.82589763],[ 0.21396791  0.30541583 -0.92786794],[ 0.19183003  0.19043592 -0.96277484],[0.4040646  0.2734554  0.87289973],-26.705275387367525,3.1927140711615256,-56.85044785187222,[ 0.46862171  0.08605198  0.21592438 -0.85227074],[ 0.47225804  0.09285694  0.22557724 -0.84703296]
1718050226.9208095,11.32,16.10666666666667,-48.94666666666667,-2.3170731707317076,-0.6707317073170732,0.3658536585365854,-0.038818359375,0.022705078125,-1.01123046875,1.7683284457478006,1.5219941348973607,1.8709677419354838,0.09970674486803519,0.10263929618768329,0.12903225806451613,42.3,-83.7,0.3,[-0.54024508 -0.16133309  0.82589763],[ 0.21456705  0.30529682 -0.92776874],[ 0.19183003  0.19043592 -0.96277484],[0.4040646  0.2734554  0.87289973],-26.721714031207018,3.184044352852763,-56.8707228984908,[ 0.46874575  0.08622236  0.21599679 -0.85216695],[ 0.47356503  0.08060166  0.22796669 -0.84691837]
1718050226.9480882,11.226666666666667,16.14666666666667,-48.92,-2.3170731707317076,-0.12195121951219513,0.06097560975609757,-0.0244140625,0.042236328125,-1.01416015625,1.7653958944281525,1.5219941348973607,1.8709677419354838,0.09970674486803519,0.10263929618768329,0.12903225806451613,42.3,-83.7,0.3,[-0.53815849 -0.16612001  0.82631082],[ 0.21292896  0.30624343 -0.92783415],[ 0.19183003  0.19043592 -0.96277484],[0.4040646  0.2734554  0.87289973],-26.722740750280927,3.1254130772543256,-56.34830130164358,[ 0.46475739  0.0856811   0.2161632  -0.85436104],[ 0.46952929  0.07762395  0.23049031 -0.8487585 ]
1718050226.974915,11.253333333333334,16.16,-48.93333333333334,-1.524390243902439,0.426829268292683,0.48780487804878053,-0.018310546875,0.035888671875,-1.006103515625,1.7683284457478006,1.5219941348973607,1.8680351906158357,0.09970674486803519,0.10263929618768329,0.12903225806451613,42.3,-83.7,0.3,[-0.53896243 -0.1571255   0.82754521],[ 0.21334515  0.30636768 -0.92769752],[ 0.19183003  0.19043592 -0.96277484],[0.4040646  0.2734554  0.87289973],-26.59942233888271,3.5324460846549024,-57.62324037888057,[ 0.47499579  0.08453136  0.21592706 -0.84888689],[ 0.4751779   0.08065451  0.22901961 -0.84572503]
1718050227.0020022,11.360000000000001,16.133333333333333,-48.973333333333336,-1.0365853658536586,0.9756097560975611,0.426829268292683,-0.03564453125,0.024169921875,-1.015625,1.7683284457478006,1.5219941348973607,1.8709677419354838,0.09970674486803519,0.10263929618768329,0.12903225806451613,42.3,-83.7,0.3,[-0.54024508 -0.16133309  0.82589763],[ 0.21515609  0.30556205 -0.92754498],[ 0.19183003  0.19043592 -0.96277484],[0.4040646  0.2734554  0.87289973],-26.744945253310927,3.2116368888869413,-56.938876358716904,[ 0.4692808   0.08623935  0.21622843 -0.85181193],[ 0.47270365  0.08633248  0.22786719 -0.84686156]
1718050227.0290046,11.680000000000001,16.12,-48.92,-1.829268292682927,0.48780487804878053,0.30487804878048785,-0.038330078125,0.021240234375,-1.018798828125,1.7653958944281525,1.5219941348973607,1.8709677419354838,0.09970674486803519,0.10263929618768329,0.12903225806451613,42.3,-83.7,0.3,[-0.53815849 -0.16612001  0.82631082],[ 0.22114854  0.30521528 -0.92624886],[ 0.19183003  0.19043592 -0.96277484],[0.4040646  0.2734554  0.87289973],-26.95913890398751,3.0622788503851854,-56.702117934690044,[ 0.46710788  0.08778514  0.21740543 -0.85254846],[ 0.4708414   0.0852625   0.23046046 -0.84730553]
1718050227.0560637,11.413333333333334,16.12,-48.94666666666667,-2.1951219512195124,0.12195121951219513,0.3658536585365854,-0.033203125,0.0263671875,-1.01171875,1.7624633431085044,1.5190615835777126,1.8651026392961876,0.09970674486803519,0.10263929618768329,0.12903225806451613,42.3,-83.7,0.3,[-0.53750678 -0.16211252  0.82753006],[ 0.21623707  0.3054096  -0.92734379],[ 0.19183003  0.19043592 -0.96277484],[0.4040646  0.2734554  0.87289973],-26.725388516162905,3.282607943491524,-57.06365341887817,[ 0.47034035  0.08586338  0.21627325 -0.85125397],[ 0.47297853  0.08127336  0.2314368  -0.84624048]
1718050227.0830865,11.200000000000001,16.10666666666667,-48.94666666666667,-1.829268292682927,0.24390243902439027,0.48780487804878053,-0.023681640625,0.036865234375,-1.014404296875,1.7595307917888563,1.5161290322580645,1.8651026392961876,0.09970674486803519,0.10263929618768329,0.12903225806451613,42.3,-83.7,0.3,[-0.53941412 -0.1665076   0.82541361],[ 0.21239563  0.30544514 -0.92821946],[ 0.19183003  0.19043592 -0.96277484],[0.4040646  0.2734554  0.87289973],-26.7262350318864,2.976471805719875,-56.07509756327349,[ 0.46246732  0.08629912  0.21580581 -0.85563093],[ 0.46915033  0.08157351  0.23018526 -0.84868043]
1718050227.1100647,11.213333333333335,15.866666666666667,-48.94666666666667,-1.6463414634146343,0.6707317073170732,0.06097560975609757,-0.02197265625,0.0302734375,-1.01416015625,1.7565982404692082,1.5131964809384164,1.8592375366568914,0.09970674486803519,0.09970674486803519,0.12903225806451613,42.3,-83.7,0.3,[-0.53876747 -0.16249275  0.82663518],[ 0.21293103  0.30129361 -0.92945281],[ 0.19183003  0.19043592 -0.96277484],[0.4040646  0.2734554  0.87289973],-26.580016098507187,2.808151008112394,-56.20323038579687,[ 0.46325304  0.08721361  0.21395225 -0.85557866],[ 0.46571747  0.08409254  0.22898467 -0.85064781]
1718050227.1371162,11.373333333333335,15.840000000000002,-48.94666666666667,-1.3414634146341464,0.6097560975609757,0.30487804878048785,-0.0283203125,0.025634765625,-1.010986328125,1.7565982404692082,1.5102639296187683,1.8533724340175952,0.09970674486803519,0.09970674486803519,0.12903225806451613,42.3,-83.7,0.3,[-0.54019371 -0.15361302  0.82740183],[ 0.21586157  0.30063722 -0.92898926],[ 0.19183003  0.19043592 -0.96277484],[0.4040646  0.2734554  0.87289973],-26.544244269971475,3.1195645690190466,-57.47112002603912,[ 0.47323291  0.08710166  0.21396579 -0.85010738],[ 0.47159346  0.08577097  0.22693917 -0.84778627]
1718050227.1642776,11.533333333333333,16.12,-48.92,-1.9512195121951221,0.1829268292682927,0.48780487804878053,-0.031494140625,0.022705078125,-1.012939453125,1.7595307917888563,1.5131964809384164,1.8621700879765395,0.09970674486803519,0.09970674486803519,0.12903225806451613,42.3,-83.7,0.3,[-0.54213452 -0.16189733  0.824548  ],[ 0.21850495  0.30540172 -0.92681464],[ 0.19183003  0.19043592 -0.96277484],[0.4040646  0.2734554  0.87289973],-26.899941251292496,3.103270489383058,-56.90406514638957,[ 0.46872377  0.08761921  0.21697408 -0.8517882 ],[ 0.47261847  0.08353907  0.22955282 -0.84673403]
1718050227.191092,11.200000000000001,16.133333333333333,-49.120000000000005,-2.25609756097561,0.426829268292683,0.30487804878048785,-0.02685546875,0.03125,-1.012939453125,1.7624633431085044,1.5161290322580645,1.8651026392961876,0.09970674486803519,0.09970674486803519,0.12903225806451613,42.3,-83.7,0.3,[-0.54150359 -0.16170892  0.82499945],[ 0.21171687  0.3049731  -0.92852968],[ 0.19183003  0.19043592 -0.96277484],[0.4040646  0.2734554  0.87289973],-26.662412851354127,3.0716295235898996,-56.52429642369241,[ 0.46602478  0.08617111  0.21536832 -0.85382195],[ 0.47038257  0.08189714  0.23157184 -0.84758927]
1718050227.2182398,11.373333333333335,16.0,-49.28,-1.7682926829268295,0.426829268292683,0.3658536585365854,-0.025634765625,0.031982421875,-1.0107421875,1.7624633431085044,1.5161290322580645,1.8651026392961876,0.09970674486803519,0.09970674486803519,0.12903225806451613,42.3,-83.7,0.3,[-0.54150359 -0.16170892  0.82499945],[ 0.21440537  0.30162538 -0.92900617],[ 0.19183003  0.19043592 -0.96277484],[0.4040646  0.2734554  0.87289973],-26.681451657364477,2.7666385417514814,-56.258625876786304,[ 0.46351947  0.08803914  0.21450279 -0.85521189],[ 0.46803728  0.08371587  0.2296667  -0.84922669]
1718050227.2451515,11.053333333333335,15.96,-49.120000000000005,-1.1585365853658538,1.0975609756097562,0.6707317073170732,-0.020751953125,0.042236328125,-1.010986328125,1.7595307917888563,1.5131964809384164,1.8651026392961876,0.09970674486803519,0.09970674486803519,0.12903225806451613,42.3,-83.7,0.3,[-0.54339449 -0.1660918   0.8228827 ],[ 0.20927468  0.30217345 -0.92999748],[ 0.19183003  0.19043592 -0.96277484],[0.4040646  0.2734554  0.87289973],-26.645113726179066,2.5194241826139216,-55.288597242946636,[ 0.45587302  0.08794001  0.2140043  -0.85944663],[ 0.46271503  0.08914472  0.22745277 -0.85218147]
1718050227.272261,11.266666666666667,16.253333333333334,-48.93333333333334,0.1829268292682927,3.048780487804878,0.0,0.048583984375,0.03955078125,-0.98779296875,1.7595307917888563,1.5131964809384164,1.8621700879765395,0.09970674486803519,0.09970674486803519,0.12609970674486803,42.3,-83.7,0.3,[-0.54213452 -0.16189733  0.824548  ],[ 0.21347039  0.30795315 -0.9271436 ],[ 0.19183003  0.19043592 -0.96277484],[0.4040646  0.2734554  0.87289973],-26.79037192806754,3.321648819761074,-56.92723220930341,[ 0.46934278  0.08557966  0.21701423 -0.85164447],[ 0.4631427   0.10077921  0.22746893 -0.85064697]
1718050227.2993195,11.653333333333334,16.080000000000002,-48.98666666666667,9.02439024390244,13.109756097560977,-2.8658536585365857,-0.12158203125,-0.02490234375,-1.124267578125,1.7595307917888563,1.5102639296187683,1.8621700879765395,0.0967741935483871,0.09970674486803519,0.12903225806451613,42.3,-83.7,0.3,[-0.54610035 -0.16149061  0.82200681],[ 0.22046127  0.30420628 -0.9267445 ],[ 0.19183003  0.19043592 -0.96277484],[0.4040646  0.2734554  0.87289973],-27.02291286529724,2.847238276702388,-56.6523824880154,[ 0.46632544  0.08956151  0.21706252 -0.85287935],[ 0.43170792  0.1679922   0.2136816  -0.8600855 ]
1718050227.3262935,11.626666666666667,16.400000000000002,-49.24,-11.097560975609756,-4.695121951219512,-2.7439024390243905,0.036376953125,0.136962890625,-1.00732421875,1.7653958944281525,1.5161290322580645,1.8651026392961876,0.09970674486803519,0.09970674486803519,0.12609970674486803,42.3,-83.7,0.3,[-0.54357365 -0.1569162   0.82456352],[ 0.21860519  0.30835365 -0.92581304],[ 0.19183003  0.19043592 -0.96277484],[0.4040646  0.2734554  0.87289973],-26.90379668394768,3.5589421983931384,-57.88843265694659,[ 0.47677519  0.08609992  0.21808927 -0.84717725],[ 0.46064812  0.0686803   0.25633319 -0.84698266]
1718050227.3574252,11.213333333333335,16.30666666666667,-49.25333333333334,0.9146341463414634,0.12195121951219513,-1.1585365853658538,-0.015869140625,0.07373046875,-1.020263671875,1.7683284457478006,1.5161290322580645,1.8651026392961876,0.09970674486803519,0.09970674486803519,0.12609970674486803,42.3,-83.7,0.3,[-0.54562424 -0.15212982  0.824106  ],[ 0.21125155  0.30720648 -0.92789922],[ 0.19183003  0.19043592 -0.96277484],[0.4040646  0.2734554  0.87289973],-26.620717648775152,3.542477254355962,-57.829732139337686,[ 0.47652527  0.08493404  0.2159726  -0.84797742],[ 0.46499628  0.07991587  0.22813103 -0.85167373]
1718050227.38317,11.453333333333335,16.213333333333335,-49.093333333333334,-2.3170731707317076,-1.9512195121951221,-0.48780487804878053,-0.0654296875,0.005615234375,-1.023193359375,1.7653958944281525,1.5161290322580645,1.8680351906158357,0.09970674486803519,0.09970674486803519,0.12609970674486803,42.3,-83.7,0.3,[-0.54483744 -0.16111714  0.82291763],[ 0.21628525  0.30617331 -0.92708068],[ 0.19183003  0.19043592 -0.96277484],[0.4040646  0.2734554  0.87289973],-26.89449248383044,3.0877845751720194,-56.79466363494224,[ 0.46788856  0.08750575  0.21695537 -0.85226369],[ 0.46789468  0.06990278  0.22692371 -0.85128949]
1718050227.4073195,11.173333333333334,15.986666666666668,-49.053333333333335,-2.073170731707317,-4.573170731707317,-0.5487804878048781,-0.022705078125,0.031005859375,-1.00830078125,1.7624633431085044,1.5161290322580645,1.8680351906158357,0.09970674486803519,0.09970674486803519,0.12609970674486803,42.3,-83.7,0.3,[-0.54276499 -0.16589939  0.82333684],[ 0.21166148  0.30284262 -0.92923935],[ 0.19183003  0.19043592 -0.96277484],[0.4040646  0.2734554  0.87289973],-26.716546900468817,2.6200725565132625,-55.571355031509114,[ 0.45810765  0.08799533  0.2147159  -0.85807417],[ 0.46554189  0.05538831  0.21764383 -0.85605727]
1718050227.4343486,11.08,16.0,-48.760000000000005,-4.2682926829268295,0.426829268292683,-2.682926829268293,0.005615234375,0.02734375,-1.017333984375,1.7595307917888563,1.5161290322580645,1.8621700879765395,0.09970674486803519,0.09970674486803519,0.12609970674486803,42.3,-83.7,0.3,[-0.53813655 -0.16230246  0.82708341],[ 0.21104555  0.30475892 -0.92875281],[ 0.19183003  0.19043592 -0.96277484],[0.4040646  0.2734554  0.87289973],-26.570111188567715,3.1629589109548273,-56.60312149296536,[ 0.46683257  0.08525831  0.21498468 -0.85356896],[ 0.4552521   0.06249855  0.23662748 -0.85606477]
1718050227.4613304,11.16,16.253333333333334,-48.89333333333334,-2.9268292682926833,0.3658536585365854,-8.170731707317074,-0.029296875,0.03271484375,-1.009521484375,1.7595307917888563,1.5131964809384164,1.8621700879765395,0.09970674486803519,0.09970674486803519,0.12609970674486803,42.3,-83.7,0.3,[-0.54213452 -0.16189733  0.824548  ],[ 0.21168909  0.30830227 -0.92743595],[ 0.19183003  0.19043592 -0.96277484],[0.4040646  0.2734554  0.87289973],-26.74154395851558,3.347023081067967,-56.86669278305442,[ 0.46897119  0.08507512  0.21679761 -0.85195484],[ 0.42824845  0.0613048   0.24067204 -0.86886245]
1718050227.4884853,11.146666666666667,16.346666666666668,-49.02666666666667,-3.1097560975609757,1.0365853658536586,-13.963414634146343,-0.022216796875,0.057373046875,-1.009765625,1.7595307917888563,1.5161290322580645,1.8651026392961876,0.09970674486803519,0.09970674486803519,0.12903225806451613,42.3,-83.7,0.3,[-0.53941412 -0.1665076   0.82541361],[ 0.21083768  0.30919497 -0.9273327 ],[ 0.19183003  0.19043592 -0.96277484],[0.4040646  0.2734554  0.87289973],-26.749029623990292,3.324530010881984,-56.45854239254033,[ 0.46589087  0.08450164  0.2170659  -0.85363198],[ 0.3894379   0.056389    0.24638472 -0.8856935 ]
1718050227.5154111,11.146666666666667,16.386666666666667,-49.2,-2.8658536585365857,3.1707317073170733,-19.634146341463417,-0.0361328125,0.089111328125,-1.016357421875,1.7595307917888563,1.5190615835777126,1.8680351906158357,0.09970674486803519,0.09970674486803519,0.12609970674486803,42.3,-83.7,0.3,[-0.53667844 -0.17111199  0.82625477],[ 0.21014953  0.30893992 -0.92757388],[ 0.19183003  0.19043592 -0.96277484],[0.4040646  0.2734554  0.87289973],-26.74097977697925,3.1912451670649746,-55.90784733083539,[ 0.46156664  0.08442782  0.21688587 -0.85603078],[ 0.34412007  0.05814443  0.25285839 -0.90236536]
1718050227.5428228,11.106666666666667,16.293333333333333,-49.0,0.1829268292682927,1.9512195121951221,-28.658536585365855,-0.0478515625,0.064697265625,-1.0087890625,1.7595307917888563,1.5219941348973607,1.8739002932551319,0.09970674486803519,0.09970674486803519,0.12609970674486803,42.3,-83.7,0.3,[-0.53518551 -0.17985956  0.82536477],[ 0.21027847  0.30847574 -0.92769913],[ 0.19183003  0.19043592 -0.96277484],[0.4040646  0.2734554  0.87289973],-26.854050912490166,2.77366894155289,-54.66980629911626,[ 0.45150109  0.08568366  0.21702733 -0.86122251],[ 0.2827368   0.0489542   0.24147448 -0.9270132 ]
1718050227.569647,11.053333333333335,16.10666666666667,-48.89333333333334,3.1097560975609757,1.707317073170732,-39.63414634146342,-0.0244140625,0.061767578125,-1.00244140625,1.7565982404692082,1.5249266862170088,1.8680351906158357,0.09970674486803519,0.09970674486803519,0.12609970674486803,42.3,-83.7,0.3,[-0.52643521 -0.17677998  0.83163382],[ 0.20993469  0.30591207 -0.92862545],[ 0.19183003  0.19043592 -0.96277484],[0.4040646  0.2734554  0.87289973],-26.543940288199508,3.0486949156041914,-55.3501810117827,[ 0.45730044  0.08366018  0.21526282 -0.85880103],[ 0.22019871  0.03793293  0.22446995 -0.94851825]
1718050227.5966244,10.92,16.0,-48.973333333333336,1.1585365853658538,-1.2195121951219514,-45.54878048780488,-0.044921875,0.00537109375,-1.02587890625,1.7595307917888563,1.5366568914956011,1.8797653958944283,0.09970674486803519,0.09970674486803519,0.12609970674486803,42.3,-83.7,0.3,[-0.51739077 -0.19037322  0.834305  ],[ 0.20734715  0.30380535 -0.92989756],[ 0.19183003  0.19043592 -0.96277484],[0.4040646  0.2734554  0.87289973],-26.461692408456354,2.4965959859097717,-53.40524106010548,[ 0.44178248  0.0838776   0.21394667 -0.86719064],[ 0.16807103  0.01648343  0.22312585 -0.96004963]
1718050227.6238096,10.773333333333333,16.013333333333335,-49.053333333333335,1.524390243902439,0.12195121951219513,-47.6219512195122,-0.04541015625,0.031494140625,-1.0087890625,1.7595307917888563,1.5425219941348973,1.8885630498533725,0.09970674486803519,0.09970674486803519,0.12609970674486803,42.3,-83.7,0.3,[-0.51299937 -0.20362397  0.83388784],[ 0.20437493  0.30378006 -0.93056357],[ 0.19183003  0.19043592 -0.96277484],[0.4040646  0.2734554  0.87289973],-26.50271378505071,1.9350317944457316,-51.387796474078264,[ 0.42544668  0.08455786  0.21365513 -0.87532655],[ 0.1291509   0.01426005  0.21932291 -0.9669613 ]
1718050227.6507282,10.64,15.933333333333334,-49.10666666666667,0.1829268292682927,-0.6707317073170732,-40.243902439024396,-0.009521484375,-0.017578125,-0.9990234375,1.7565982404692082,1.5454545454545454,1.8826979472140764,0.09970674486803519,0.09970674486803519,0.12609970674486803,42.3,-83.7,0.3,[-0.50393215 -0.20070562  0.84010097],[ 0.20185192  0.30227198 -0.93160477],[ 0.19183003  0.19043592 -0.96277484],[0.4040646  0.2734554  0.87289973],-26.15984962482235,2.3146789587315384,-52.053567576722756,[ 0.43142723  0.08160378  0.211951   -0.87309114],[ 0.14563151  0.01341839  0.2235794  -0.96365121]
1718050227.677738,10.56,15.96,-49.21333333333334,-0.7317073170731708,0.24390243902439027,-37.19512195121951,-0.046630859375,-0.025634765625,-1.01953125,1.7595307917888563,1.5542521994134897,1.8973607038123168,0.09970674486803519,0.09970674486803519,0.12609970674486803,42.3,-83.7,0.3,[-0.50018313 -0.21774386  0.83809573],[ 0.19998754  0.3022539  -0.93201264],[ 0.19183003  0.19043592 -0.96277484],[0.4040646  0.2734554  0.87289973],-26.31262208332308,1.4616141266479126,-49.31052639816242,[ 0.4088137   0.08365326  0.21202254 -0.88369674],[ 0.14646667  0.01982179  0.22801585 -0.96237383]
1718050227.7050483,10.48,15.96,-49.25333333333334,-2.0121951219512195,-0.06097560975609757,-28.963414634146343,-0.044189453125,0.01611328125,-1.016357421875,1.7536656891495601,1.5571847507331378,1.8914956011730206,0.09970674486803519,0.09970674486803519,0.12609970674486803,42.3,-83.7,0.3,[-0.48859285 -0.21974906  0.8443858 ],[ 0.19839226  0.30213172 -0.93239312],[ 0.19183003  0.19043592 -0.96277484],[0.4040646  0.2734554  0.87289973],-26.076530070486182,1.7691868014544678,-49.49279406528374,[ 0.41092539  0.08076695  0.21115617 -0.88319312],[ 0.18154055  0.0247855   0.23549744 -0.95444731]
1718050227.731592,10.373333333333335,15.973333333333334,-49.28,-3.8414634146341466,-0.48780487804878053,-23.53658536585366,-0.037109375,-0.012939453125,-1.017822265625,1.7565982404692082,1.5601173020527859,1.8914956011730206,0.09970674486803519,0.09970674486803519,0.12609970674486803,42.3,-83.7,0.3,[-0.48663735 -0.21540283  0.84663198],[ 0.19634383  0.30233922 -0.9327594 ],[ 0.19183003  0.19043592 -0.96277484],[0.4040646  0.2734554  0.87289973],-25.908531372669444,2.1442019387128677,-50.29954551097441,[ 0.41789403  0.07874801  0.21063544 -0.880225  ],[ 0.22332023  0.02569998  0.24544782 -0.94298619]
1718050227.7587862,10.266666666666667,16.026666666666667,-49.32,-4.024390243902439,-1.5853658536585367,-25.48780487804878,-0.034423828125,0.0732421875,-1.0126953125,1.750733137829912,1.5601173020527859,1.8885630498533725,0.09970674486803519,0.09970674486803519,0.12609970674486803,42.3,-83.7,0.3,[-0.48050287 -0.22099437  0.84869222],[ 0.19420493  0.30316146 -0.93294029],[ 0.19183003  0.19043592 -0.96277484],[0.4040646  0.2734554  0.87289973],-25.845104261829036,2.126574305683248,-49.681529390633465,[ 0.41315359  0.07751849  0.2105062  -0.88259965],[ 0.22911997  0.01556895  0.24716069 -0.94136775]
