Time,MagX,MagY,MagZ,GyroX,GyroY,GyroZ,AccelX,AccelY,AccelZ,Tri11,Tri12,Tri13,Tri21,Tri22,Tri23,Lat,Lon,Alt,SunVect,MagVect,MagRef,SunRef,Roll,Pitch,Yaw,static_q,dynamic_q
1718050198.1125252,-9.600000000000001,-24.613333333333333,-9.813333333333334,-23.719512195121954,-1.9512195121951221,-16.28048780487805,0.168701171875,-1.1328125,-0.018310546875,1.5835777126099706,1.5747800586510263,1.249266862170088,0.011730205278592375,0.008797653958944282,0.020527859237536656,42.3,-83.7,0.3,[0.31062285 0.56790425 0.76223238],[-0.34063169 -0.87334181 -0.34820128],[ 0.19183003  0.19043592 -0.96277484],[0.4040646  0.2734554  0.87289973],36.714670006440876,50.775102752430634,20.45271655892212,[0.28511316 0.34994198 0.35225158 0.81985969],[0.40464193 0.29181713 0.27540697 0.82174124]
1718050198.1369863,-9.040000000000001,-24.680000000000003,-10.093333333333334,-39.268292682926834,21.34146341463415,-40.36585365853659,-0.363525390625,-1.069580078125,-0.461669921875,1.6070381231671553,1.598240469208211,1.2727272727272727,0.01466275659824047,0.008797653958944282,0.020527859237536656,42.3,-83.7,0.3,[0.30775818 0.56266686 0.76726196],[-0.32108068 -0.87657867 -0.35849273],[ 0.19183003  0.19043592 -0.96277484],[0.4040646  0.2734554  0.87289973],34.507193306842105,51.33787969972877,23.871570944845402,[0.30371845 0.34944668 0.34710585 0.8155732 ],[0.50061878 0.13425469 0.26902198 0.81177811]
1718050198.1642292,-7.946666666666667,-24.62666666666667,-10.146666666666667,-6.707317073170732,25.000000000000004,10.121951219512196,0.20556640625,-0.49560546875,0.02294921875,1.6099706744868034,1.595307917888563,1.2727272727272727,0.01466275659824047,0.008797653958944282,0.02346041055718475,42.3,-83.7,0.3,[0.29915105 0.56749195 0.76711247],[-0.28589996 -0.88600205 -0.36505011],[ 0.19183003  0.19043592 -0.96277484],[0.4040646  0.2734554  0.87289973],32.16032728888129,52.275812515555764,28.61613809539533,[0.33141698 0.34871518 0.34555551 0.80569964],[0.32562252 0.16734437 0.3476504  0.86319467]
1718050198.1912796,-7.6000000000000005,-24.10666666666667,-10.16,-14.02439024390244,17.073170731707318,17.743902439024392,0.1796875,-0.753173828125,-0.303466796875,1.6070381231671553,1.598240469208211,1.2727272727272727,0.01466275659824047,0.008797653958944282,0.02346041055718475,42.3,-83.7,0.3,[0.30775818 0.56266686 0.76726196],[-0.27898279 -0.88491382 -0.37295594],[ 0.19183003  0.19043592 -0.96277484],[0.4040646  0.2734554  0.87289973],29.719629213156722,53.03921352897627,31.59690263862263,[0.34564357 0.35279429 0.33830008 0.80101172],[0.24627284 0.22127017 0.29640497 0.89584223]
1718050198.2199285,-8.373333333333333,-24.6,-9.546666666666667,-4.573170731707317,12.256097560975611,10.853658536585368,-0.01806640625,-0.952392578125,0.156005859375,1.6070381231671553,1.5923753665689149,1.2697947214076246,0.01466275659824047,0.008797653958944282,0.020527859237536656,42.3,-83.7,0.3,[0.29949716 0.56814852 0.76649116],[-0.30245959 -0.88859545 -0.34484246],[ 0.19183003  0.19043592 -0.96277484],[0.4040646  0.2734554  0.87289973],34.83275557971924,51.94274686196726,24.989912884939415,[0.31355912 0.34973086 0.35311584 0.80912188],[0.22755356 0.25855358 0.31689748 0.88371116]
1718050198.2451625,-8.746666666666668,-24.680000000000003,-9.546666666666667,6.2804878048780495,13.78048780487805,-0.426829268292683,0.020751953125,-0.89404296875,-0.11328125,1.6070381231671553,1.5865102639296187,1.2668621700879765,0.011730205278592375,0.008797653958944282,0.02346041055718475,42.3,-83.7,0.3,[0.29119136 0.57358386 0.76564296],[-0.31383634 -0.88553515 -0.34254088],[ 0.19183003  0.19043592 -0.96277484],[0.4040646  0.2734554  0.87289973],37.06396797679636,50.73210083056421,21.872104811780076,[0.29622128 0.34432518 0.35903468 0.81534485],[0.24232803 0.25715894 0.38895608 0.85079938]
1718050198.272252,-9.066666666666666,-24.986666666666668,-9.186666666666667,-0.48780487804878053,17.865853658536587,-2.378048780487805,0.087646484375,-1.10107421875,-0.03466796875,1.6099706744868034,1.5865102639296187,1.2697947214076246,0.011730205278592375,0.008797653958944282,0.020527859237536656,42.3,-83.7,0.3,[0.28573184 0.57408639 0.7673214 ],[-0.32238725 -0.88846133 -0.32665414],[ 0.19183003  0.19043592 -0.96277484],[0.4040646  0.2734554  0.87289973],39.1470947449323,50.168946414016915,19.327344384403933,[0.28326265 0.34285317 0.3661678  0.81739533],[0.24426997 0.22900672 0.39881218 0.85371948]
1718050198.299474,-8.666666666666668,-25.10666666666667,-9.573333333333334,-2.5609756097560976,19.146341463414636,1.707317073170732,-0.10546875,-0.97314453125,-0.28662109375,1.6158357771260996,1.5923753665689149,1.2756598240469208,0.011730205278592375,0.008797653958944282,0.020527859237536656,42.3,-83.7,0.3,[0.28507007 0.57275677 0.76856017],[-0.30696895 -0.88926545 -0.33908263],[ 0.19183003  0.19043592 -0.96277484],[0.4040646  0.2734554  0.87289973],37.2824125531599,50.66440868219397,22.095249464772323,[0.2983414  0.34254508 0.36123945 0.81434719],[0.23644338 0.21894319 0.38812203 0.86343483]
1718050198.326533,-8.600000000000001,-24.213333333333335,-9.746666666666668,-10.548780487804878,21.34146341463415,2.5609756097560976,-0.035888671875,-0.896240234375,-0.29541015625,1.6275659824046922,1.6011730205278591,1.2873900293255132,0.011730205278592375,0.008797653958944282,0.020527859237536656,42.3,-83.7,0.3,[0.27862967 0.5712417  0.77204173],[-0.31293569 -0.88107164 -0.35466044],[ 0.19183003  0.19043592 -0.96277484],[0.4040646  0.2734554  0.87289973],37.502929990753344,49.43356259698143,21.07953432108527,[0.28948738 0.33584481 0.35951066 0.82107089],[0.229949   0.19373689 0.34857716 0.88774064]
1718050198.3544865,-8.573333333333334,-24.173333333333336,-9.906666666666668,6.036585365853659,14.878048780487806,6.829268292682928,-0.086181640625,-0.95703125,-0.27978515625,1.6275659824046922,1.598240469208211,1.284457478005865,0.011730205278592375,0.008797653958944282,0.017595307917888565,42.3,-83.7,0.3,[0.27543872 0.5754396  0.77006674],[-0.31181033 -0.87917904 -0.36030338],[ 0.19183003  0.19043592 -0.96277484],[0.4040646  0.2734554  0.87289973],37.64169255940392,49.08144376337318,20.903635329246892,[0.28796753 0.333372   0.35991588 0.82243442],[0.20436483 0.23441427 0.39587048 0.86404371]
1718050198.3802311,-8.786666666666667,-24.520000000000003,-10.146666666666667,7.743902439024391,14.451219512195124,9.939024390243903,-0.1630859375,-0.98583984375,-0.298828125,1.6217008797653958,1.5894428152492668,1.278592375366569,0.011730205278592375,0.008797653958944282,0.020527859237536656,42.3,-83.7,0.3,[0.27091094 0.57789565 0.76983367],[-0.31433303 -0.87717517 -0.36298549],[ 0.19183003  0.19043592 -0.96277484],[0.4040646  0.2734554  0.87289973],38.264789580804674,48.47065409157171,19.975764279957833,[0.28191676 0.33009882 0.36159894 0.82510843],[0.17210803 0.26021132 0.41330886 0.85547921]
1718050198.4073339,-9.026666666666667,-24.680000000000003,-9.453333333333333,2.439024390243903,-4.329268292682928,12.439024390243903,0.03564453125,-0.9560546875,-0.1025390625,1.6187683284457477,1.5894428152492668,1.278592375366569,0.011730205278592375,0.011730205278592375,0.017595307917888565,42.3,-83.7,0.3,[0.27443653 0.57436676 0.77122462],[-0.32321716 -0.88371486 -0.33849478],[ 0.19183003  0.19043592 -0.96277484],[0.4040646  0.2734554  0.87289973],39.643618799599196,48.8844612993224,18.40205059518087,[0.27544821 0.33488991 0.36697613 0.82298575],[0.18799754 0.35420082 0.37503063 0.83579347]
1718050198.4344199,-9.08,-24.826666666666668,-8.76,-5.548780487804878,1.7682926829268295,-7.01219512195122,0.17529296875,-0.958984375,-0.04833984375,1.6187683284457477,1.5923753665689149,1.281524926686217,0.011730205278592375,0.011730205278592375,0.017595307917888565,42.3,-83.7,0.3,[0.2776467  0.57013704 0.77321153],[-0.32604811 -0.89148542 -0.31455742],[ 0.19183003  0.19043592 -0.96277484],[0.4040646  0.2734554  0.87289973],40.56053674482222,49.58431424740945,17.701190778062543,[0.27463288 0.34023536 0.37143787 0.81905469],[0.27785598 0.31834774 0.36261013 0.83064112]
1718050198.4621918,-8.786666666666667,-24.773333333333333,-9.413333333333334,-13.29268292682927,3.1097560975609757,-16.585365853658537,-0.024658203125,-0.95556640625,-0.2314453125,1.6304985337243403,1.6011730205278591,1.2903225806451613,0.008797653958944282,0.008797653958944282,0.020527859237536656,42.3,-83.7,0.3,[0.27316022 0.57169558 0.77365862],[-0.31470708 -0.88729249 -0.33715204],[ 0.19183003  0.19043592 -0.96277484],[0.4040646  0.2734554  0.87289973],39.06892533002538,49.29318776537941,19.580947534771727,[0.28306778 0.33561397 0.36631608 0.82039528],[0.36416463 0.26591414 0.33849454 0.82589057]
1718050198.4888747,-8.76,-24.76,-9.453333333333333,0.3658536585365854,-5.487804878048781,4.2682926829268295,-0.175048828125,-0.918212890625,-0.299560546875,1.6246334310850439,1.5923753665689149,1.284457478005865,0.011730205278592375,0.011730205278592375,0.020527859237536656,42.3,-83.7,0.3,[0.26861323 0.57414048 0.77344013],[-0.3138272  -0.88702757 -0.33866588],[ 0.19183003  0.19043592 -0.96277484],[0.4040646  0.2734554  0.87289973],39.45684940338733,48.91513620217915,19.176861979663304,[0.28052809 0.33309093 0.36789463 0.82158868],[0.30309218 0.33872024 0.34188331 0.82250807]
1718050198.5153418,-8.893333333333334,-24.78666666666667,-9.413333333333334,5.609756097560976,0.30487804878048785,-0.9146341463414634,0.059326171875,-1.0849609375,-0.005859375,1.6246334310850439,1.595307917888563,1.284457478005865,0.011730205278592375,0.008797653958944282,0.017595307917888565,42.3,-83.7,0.3,[0.27379739 0.57302911 0.77244587],[-0.31800847 -0.88632345 -0.33660267],[ 0.19183003  0.19043592 -0.96277484],[0.4040646  0.2734554  0.87289973],39.34691850918062,49.17376967746521,19.091689110371526,[0.28013286 0.33559174 0.36686806 0.82116477],[0.28221498 0.34237421 0.38288833 0.81026609]
1718050198.5423949,-8.84,-24.733333333333334,-9.613333333333333,-4.939024390243903,1.3414634146341464,-0.6707317073170732,-0.193359375,-0.90625,-0.3740234375,1.6304985337243403,1.598240469208211,1.2873900293255132,0.011730205278592375,0.008797653958944282,0.017595307917888565,42.3,-83.7,0.3,[0.26996928 0.57588695 0.77166755],[-0.31605723 -0.88429284 -0.34370627],[ 0.19183003  0.19043592 -0.96277484],[0.4040646  0.2734554  0.87289973],39.33381844856467,48.77630263510194,19.084634554235215,[0.27922072 0.33263484 0.36673793 0.82273516],[0.28905217 0.32203959 0.3551858  0.82860268]
1718050198.5695572,-8.853333333333333,-24.76,-9.733333333333334,-12.621951219512196,-1.1585365853658538,-1.829268292682927,0.0615234375,-0.952880859375,-0.112060546875,1.6334310850439884,1.6041055718475072,1.2932551319648093,0.011730205278592375,0.008797653958944282,0.017595307917888565,42.3,-83.7,0.3,[0.27284237 0.57103037 0.77426182],[-0.31575241 -0.88306059 -0.34713744],[ 0.19183003  0.19043592 -0.96277484],[0.4040646  0.2734554  0.87289973],38.63927938365212,48.96983447130463,19.758292713402827,[0.28243237 0.33365784 0.363725   0.82256217],[0.31510789 0.31171445 0.30783422 0.84189026]
1718050198.6001306,-8.653333333333334,-24.733333333333334,-10.066666666666666,-19.26829268292683,-1.0365853658536586,0.3658536585365854,-0.081787109375,-1.013427734375,-0.25244140625,1.6392961876832846,1.6129032258064515,1.2932551319648093,0.011730205278592375,0.008797653958944282,0.020527859237536656,42.3,-83.7,0.3,[0.28119566 0.5747133  0.76852692],[-0.3082709  -0.88111327 -0.35862022],[ 0.19183003  0.19043592 -0.96277484],[0.4040646  0.2734554  0.87289973],36.829721413714594,49.81513122667367,22.108387134941374,[0.29557129 0.33724075 0.35781367 0.81907   ],[0.33316066 0.3018281  0.25472888 0.8561641 ]
1718050198.6236014,-8.466666666666667,-24.720000000000002,-10.333333333333334,-7.073170731707318,-0.30487804878048785,-0.5487804878048781,0.042724609375,-0.967529296875,-0.150390625,1.6422287390029326,1.6187683284457477,1.3049853372434017,0.01466275659824047,0.008797653958944282,0.020527859237536656,42.3,-83.7,0.3,[0.28018377 0.56372364 0.77698952],[-0.3013181  -0.87975395 -0.36775044],[ 0.19183003  0.19043592 -0.96277484],[0.4040646  0.2734554  0.87289973],35.38117186263453,49.86736787696905,23.834522556268134,[0.30374145 0.33607547 0.35255198 0.81884157],[0.32988001 0.31259373 0.28542757 0.84379822]
1718050198.6510282,-8.360000000000001,-24.733333333333334,-10.520000000000001,-6.52439024390244,-0.06097560975609757,2.1341463414634148,-0.001220703125,-0.949951171875,-0.20703125,1.6451612903225807,1.6217008797653958,1.3079178885630498,0.01466275659824047,0.008797653958944282,0.02346041055718475,42.3,-83.7,0.3,[0.27985811 0.56306841 0.77758176],[-0.29700384 -0.87869556 -0.37374167],[ 0.19183003  0.19043592 -0.96277484],[0.4040646  0.2734554  0.87289973],34.71172404286031,49.91929854034753,24.726724801366114,[0.30823575 0.33552163 0.35041043 0.81830831],[0.31833595 0.31964646 0.29427137 0.84255132]
1718050198.6775515,-8.266666666666667,-24.706666666666667,-10.680000000000001,-10.182926829268293,1.2804878048780488,0.426829268292683,-0.029541015625,-0.982177734375,-0.181640625,1.653958944281525,1.6334310850439884,1.316715542521994,0.01466275659824047,0.008797653958944282,0.02346041055718475,42.3,-83.7,0.3,[0.28395812 0.56000434 0.77830773],[-0.29359135 -0.8774593  -0.37930108],[ 0.19183003  0.19043592 -0.96277484],[0.4040646  0.2734554  0.87289973],33.537658377463984,50.28323401262341,26.132987284362436,[0.31536207 0.33721076 0.34638315 0.81661152],[0.3297365  0.30931832 0.28423998 0.84546061]
1718050198.7067463,-8.146666666666667,-24.720000000000002,-10.946666666666667,-15.365853658536587,0.7317073170731708,0.0,-0.014404296875,-0.987548828125,-0.201171875,1.6627565982404693,1.6451612903225807,1.3225806451612903,0.011730205278592375,0.011730205278592375,0.02346041055718475,42.3,-83.7,0.3,[0.28989513 0.56004922 0.77608356],[-0.28851977 -0.8754757  -0.38768368],[ 0.19183003  0.19043592 -0.96277484],[0.4040646  0.2734554  0.87289973],31.926646139013744,50.81907528767102,28.136031578582152,[0.32556153 0.33978245 0.34124418 0.81370141],[0.35061196 0.29961051 0.25503596 0.84985967]
1718050198.7315676,-7.906666666666667,-24.666666666666668,-11.373333333333335,-22.378048780487806,0.48780487804878053,-0.06097560975609757,-0.00732421875,-0.9609375,-0.197021484375,1.6744868035190617,1.656891495601173,1.3343108504398826,0.017595307917888565,0.008797653958944282,0.02346041055718475,42.3,-83.7,0.3,[0.28857224 0.55749353 0.77841315],[-0.27948829 -0.87192806 -0.40202953],[ 0.19183003  0.19043592 -0.96277484],[0.4040646  0.2734554  0.87289973],30.339137318807452,50.78497086127012,30.18442585574595,[0.33536386 0.33804813 0.33600459 0.81262258],[0.37495365 0.28265223 0.21168042 0.85715161]
1718050198.7586653,-7.613333333333334,-24.680000000000003,-11.866666666666667,-22.98780487804878,0.1829268292682927,1.0975609756097562,-0.041748046875,-0.97119140625,-0.23974609375,1.686217008797654,1.6715542521994136,1.346041055718475,0.017595307917888565,0.011730205278592375,0.026392961876832845,42.3,-83.7,0.3,[0.29220296 0.55385663 0.77965394],[-0.26785552 -0.86830223 -0.4174981 ],[ 0.19183003  0.19043592 -0.96277484],[0.4040646  0.2734554  0.87289973],27.698053927752472,51.18907016087328,33.601919411492744,[0.35209794 0.3391388  0.3279003  0.80838933],[0.39047757 0.27690178 0.18579272 0.85809891]
1718050198.7857406,-7.346666666666668,-24.653333333333336,-12.48,-30.30487804878049,-0.30487804878048785,1.8902439024390245,-0.008544921875,-0.97119140625,-0.219970703125,1.7038123167155426,1.6920821114369502,1.3636363636363635,0.017595307917888565,0.011730205278592375,0.02932551319648094,42.3,-83.7,0.3,[0.29511034 0.54900878 0.78198417],[-0.25694703 -0.86224148 -0.43648352],[ 0.19183003  0.19043592 -0.96277484],[0.4040646  0.2734554  0.87289973],24.861251655802583,51.335086340748084,37.13958956290678,[0.36869007 0.33918547 0.31862176 0.80467448],[0.41286686 0.26308672 0.14022403 0.86061813]
1718050198.8131006,-6.986666666666667,-24.613333333333333,-13.226666666666668,-37.80487804878049,-0.1829268292682927,0.853658536585366,-0.0205078125,-0.96044921875,-0.25,1.721407624633431,1.715542521994135,1.3870967741935485,0.017595307917888565,0.01466275659824047,0.03225806451612903,42.3,-83.7,0.3,[0.29913669 0.53696068 0.78879051],[-0.24257294 -0.8545604  -0.45922206],[ 0.19183003  0.19043592 -0.96277484],[0.4040646  0.2734554  0.87289973],21.022944883159546,51.35568905550252,41.92642272026365,[0.39084349 0.33901666 0.30595687 0.79918675],[0.44745693 0.2409338  0.09051852 0.85646926]
1718050198.8398108,-6.546666666666667,-24.546666666666667,-14.093333333333334,-37.37804878048781,0.12195121951219513,0.426829268292683,-0.023681640625,-0.948486328125,-0.265869140625,1.7419354838709677,1.7360703812316716,1.4105571847507332,0.020527859237536656,0.017595307917888565,0.03225806451612903,42.3,-83.7,0.3,[0.29493194 0.52958342 0.79533424],[-0.22534293 -0.84492123 -0.48510687],[ 0.19183003  0.19043592 -0.96277484],[0.4040646  0.2734554  0.87289973],18.027060322235766,50.80015950459837,45.98314924114901,[0.41034386 0.33470823 0.29575292 0.79505882],[0.47321689 0.22460176 0.06996797 0.84895483]
1718050198.8668103,-6.066666666666667,-24.44,-14.96,-42.743902439024396,0.9756097560975611,0.7926829268292683,-0.014892578125,-0.992431640625,-0.239990234375,1.7624633431085044,1.7624633431085044,1.434017595307918,0.020527859237536656,0.017595307917888565,0.03519061583577713,42.3,-83.7,0.3,[0.30032022 0.52016988 0.79951927],[-0.20712228 -0.83440692 -0.5107499 ],[ 0.19183003  0.19043592 -0.96277484],[0.4040646  0.2734554  0.87289973],13.290795621364072,50.62087791760294,52.22795477525532,[0.43965607 0.33525477 0.28084941 0.78449372],[0.50262671 0.2015879  0.03847084 0.83979087]
1718050198.8942947,-5.586666666666667,-24.360000000000003,-15.893333333333334,-40.1219512195122,0.5487804878048781,0.48780487804878053,-0.013671875,-0.93505859375,-0.31982421875,1.782991202346041,1.7859237536656891,1.4604105571847508,0.02346041055718475,0.020527859237536656,0.03812316715542522,42.3,-83.7,0.3,[0.29902281 0.50867407 0.80736364],[-0.18862483 -0.82247631 -0.53661289],[ 0.19183003  0.19043592 -0.96277484],[0.4040646  0.2734554  0.87289973],9.731839731934977,49.81074491066193,57.174193066602314,[0.4637987  0.33163619 0.26833441 0.77646948],[0.52650316 0.19242342 0.02865474 0.82761498]
1718050198.9253182,-5.08,-24.253333333333334,-16.853333333333335,-45.670731707317074,0.9756097560975611,-1.0975609756097562,-0.015869140625,-0.9375,-0.325927734375,1.8064516129032258,1.812316715542522,1.4897360703812317,0.026392961876832845,0.020527859237536656,0.04105571847507331,42.3,-83.7,0.3,[0.29733835 0.49661209 0.81545468],[-0.16951562 -0.80931474 -0.56238253],[ 0.19183003  0.19043592 -0.96277484],[0.4040646  0.2734554  0.87289973],6.3268822442319985,48.797259022308076,62.09570625347384,[0.48850786 0.32744407 0.25578054 0.76727881],[0.55968944 0.16896171 0.00496646 0.81127986]
1718050198.9499927,-4.533333333333333,-24.90666666666667,-17.84,-48.29268292682927,0.853658536585366,-0.5487804878048781,-0.031494140625,-0.887939453125,-0.348388671875,1.8240469208211143,1.8357771260997067,1.5073313782991202,0.026392961876832845,0.026392961876832845,0.04398826979472141,42.3,-83.7,0.3,[0.30465706 0.49128968 0.81597704],[-0.14637685 -0.80421165 -0.57603597],[ 0.19183003  0.19043592 -0.96277484],[0.4040646  0.2734554  0.87289973],1.8783635533939014,48.47372329690982,68.84515023966436,[0.52094627 0.33013122 0.24435581 0.74827709],[ 0.59048231  0.15168296 -0.01565816  0.79251356]
1718050198.9751358,-3.6533333333333338,-24.0,-18.84,-42.5609756097561,-1.1585365853658538,1.2804878048780488,-0.0322265625,-0.94677734375,-0.381103515625,1.8416422287390029,1.8563049853372433,1.533724340175953,0.026392961876832845,0.026392961876832845,0.0469208211143695,42.3,-83.7,0.3,[0.30174207 0.47718629 0.82537565],[-0.11888746 -0.7810125  -0.61309481],[ 0.19183003  0.19043592 -0.96277484],[0.4040646  0.2734554  0.87289973],-2.532752368802992,46.42317769052308,75.87528909145155,[0.55803085 0.32325263 0.22623253 0.73001928],[ 0.61319717  0.15376877 -0.02192234  0.77450875]
1718050199.0019867,-3.6533333333333338,-23.78666666666667,-19.84,-51.21951219512196,0.1829268292682927,0.24390243902439027,-0.00048828125,-0.92041015625,-0.369873046875,1.8621700879765395,1.8797653958944283,1.5571847507331378,0.02932551319648094,0.02932551319648094,0.04985337243401759,42.3,-83.7,0.3,[0.30211558 0.46914717 0.82983559],[-0.11713386 -0.76265255 -0.63611379],[ 0.19183003  0.19043592 -0.96277484],[0.4040646  0.2734554  0.87289973],-4.383029319209118,45.076409235035555,78.29937107902752,[0.57133553 0.3193297  0.21442848 0.72499978],[ 0.6382153   0.12329501 -0.04680228  0.75847816]
1718050199.028992,-2.8266666666666667,-23.653333333333336,-20.933333333333334,-52.01219512195122,0.06097560975609757,0.426829268292683,-0.024658203125,-0.888916015625,-0.4072265625,1.8826979472140764,1.903225806451613,1.5865102639296187,0.03225806451612903,0.03225806451612903,0.05278592375366569,42.3,-83.7,0.3,[0.29874963 0.45445568 0.83917739],[-0.0891345  -0.74587079 -0.66009985],[ 0.19183003  0.19043592 -0.96277484],[0.4040646  0.2734554  0.87289973],-7.042091731739439,43.2552019521874,83.60080257634814,[0.60156872 0.31229513 0.20264359 0.70676899],[ 0.66342356  0.10122116 -0.06227558  0.7387457 ]
1718050199.055914,-1.8933333333333335,-23.373333333333335,-22.040000000000003,-56.09756097560976,-0.24390243902439027,1.0975609756097562,-0.04345703125,-0.84814453125,-0.453857421875,1.900293255131965,1.9266862170087977,1.6158357771260996,0.03225806451612903,0.03519061583577713,0.05571847507331378,42.3,-83.7,0.3,[0.29837137 0.43590481 0.84909453],[-0.05883269 -0.72629367 -0.6848622 ],[ 0.19183003  0.19043592 -0.96277484],[0.4040646  0.2734554  0.87289973],-9.618460791495158,41.124802536763376,89.16321732488908,[0.63391804 0.30438041 0.18975745 0.68519529],[ 0.68958786  0.07451642 -0.08231638  0.7156395 ]
1718050199.0830443,-2.3066666666666666,-23.133333333333336,-23.12,-50.1219512195122,-1.4634146341463417,3.658536585365854,-0.059326171875,-0.894287109375,-0.45166015625,1.9149560117302054,1.9413489736070382,1.6334310850439884,0.03519061583577713,0.03519061583577713,0.05571847507331378,42.3,-83.7,0.3,[0.29474046 0.42989932 0.85341352],[-0.07035247 -0.70555801 -0.70515135],[ 0.19183003  0.19043592 -0.96277484],[0.4040646  0.2734554  0.87289973],-9.98046203839919,39.852872564857144,89.14177183909128,[0.63615549 0.29926044 0.18001588 0.68799976],[ 0.68671006  0.07155429 -0.0818844   0.71875185]
1718050199.1132135,-1.9600000000000002,-23.14666666666667,-24.14666666666667,-50.00000000000001,-2.5,3.536585365853659,0.013427734375,-0.897705078125,-0.43701171875,1.932551319648094,1.9589442815249267,1.656891495601173,0.03519061583577713,0.03812316715542522,0.06158357771260997,42.3,-83.7,0.3,[0.28884783 0.4198939  0.86038134],[-0.05849648 -0.69081562 -0.72066077],[ 0.19183003  0.19043592 -0.96277484],[0.4040646  0.2734554  0.87289973],-10.477711974210125,38.588155814027374,90.87409770697334,[0.64848465 0.29228376 0.17396036 0.68101075],[ 0.6919771   0.07017764 -0.08942759  0.71291339]
1718050199.1372478,-1.5866666666666667,-23.32,-25.12,-46.707317073170735,-0.24390243902439027,0.1829268292682927,0.018310546875,-0.819091796875,-0.405517578125,1.9472140762463344,1.9794721407624634,1.689149560117302,0.03812316715542522,0.03812316715542522,0.06451612903225806,42.3,-83.7,0.3,[0.28463574 0.39440285 0.87374418],[-0.04624152 -0.67963378 -0.73209265],[ 0.19183003  0.19043592 -0.96277484],[0.4040646  0.2734554  0.87289973],-9.647629235222832,37.46346232605137,90.43397461221281,[0.6507805  0.281941   0.17103069 0.68391704],[ 0.70593998  0.06241507 -0.07653856  0.70135223]
1718050199.1643603,-0.8,-22.453333333333333,-26.040000000000003,-47.987804878048784,0.12195121951219513,-0.7926829268292683,-0.022216796875,-0.828125,-0.5029296875,1.964809384164223,2.0,1.7126099706744868,0.04105571847507331,0.04105571847507331,0.06744868035190615,42.3,-83.7,0.3,[0.28324486 0.38355569 0.87900932],[-0.02326059 -0.65284731 -0.75713231],[ 0.19183003  0.19043592 -0.96277484],[0.4040646  0.2734554  0.87289973],-11.784589141359627,35.17671671006195,95.81495114688265,[0.68284176 0.27410561 0.15745091 0.65863682],[ 0.73115343  0.04692594 -0.079744    0.67590939]
1718050199.1911607,-0.8266666666666668,-21.84,-26.973333333333336,-41.646341463414636,-0.24390243902439027,-0.7926829268292683,-0.011474609375,-0.830322265625,-0.526611328125,1.9765395894428153,2.0117302052785924,1.7331378299120235,0.04105571847507331,0.04105571847507331,0.06744868035190615,42.3,-83.7,0.3,[0.27584871 0.37061748 0.88687664],[-0.02381198 -0.62909716 -0.77696187],[ 0.19183003  0.19043592 -0.96277484],[0.4040646  0.2734554  0.87289973],-11.807893497169225,33.60850786571632,96.33116521602511,[0.6896417  0.26516968 0.14858424 0.65726865],[ 0.7402463   0.04737512 -0.06738425  0.66727085]
1718050199.2198942,-0.52,-21.706666666666667,-28.30666666666667,-44.93902439024391,0.12195121951219513,-0.6707317073170732,-0.00341796875,-0.814208984375,-0.533203125,1.9912023460410557,2.026392961876833,1.750733137829912,0.04398826979472141,0.04398826979472141,0.07038123167155426,42.3,-83.7,0.3,[0.2721506  0.36465143 0.89048492],[-0.01457597 -0.60845321 -0.79345588],[ 0.19183003  0.19043592 -0.96277484],[0.4040646  0.2734554  0.87289973],-12.763534882824782,32.0565933012312,99.18929588274888,[0.7074471  0.25921427 0.13970299 0.64250263],[ 0.75265195  0.03134616 -0.07350139  0.65355183]
1718050199.2451391,-0.52,-20.76,-28.773333333333333,-38.78048780487805,0.6097560975609757,-1.0975609756097562,-0.031005859375,-0.80859375,-0.555419921875,1.997067448680352,2.038123167155425,1.7712609970674487,0.04398826979472141,0.0469208211143695,0.07331378299120235,42.3,-83.7,0.3,[0.2704767  0.34355155 0.89934125],[-0.01465427 -0.58504348 -0.81086952],[ 0.19183003  0.19043592 -0.96277484],[0.4040646  0.2734554  0.87289973],-12.651567257443647,30.43900702971318,99.46221946376046,[0.71307928 0.24977397 0.13036565 0.64197797],[ 0.75876334  0.03241249 -0.0623737   0.64756247]
1718050199.2723043,0.0,-21.733333333333334,-29.22666666666667,-38.963414634146346,0.6707317073170732,-0.7926829268292683,-0.01806640625,-0.792236328125,-0.573974609375,2.005865102639296,2.0498533724340176,1.7888563049853372,0.0469208211143695,0.0469208211143695,0.07038123167155426,42.3,-83.7,0.3,[0.26786711 0.33012499 0.90513242],[ 0.         -0.59671486 -0.80245335],[ 0.19183003  0.19043592 -0.96277484],[0.4040646  0.2734554  0.87289973],-11.072159557468279,31.09468763803373,97.44965651236001,[0.70361521 0.24584221 0.13918981 0.65200724],[ 0.75345076  0.02812926 -0.05152655  0.6548784 ]
1718050199.2994118,0.64,-21.293333333333333,-30.06666666666667,-40.36585365853659,2.25609756097561,-0.6707317073170732,-0.01611328125,-0.809326171875,-0.552978515625,2.0175953079178885,2.06158357771261,1.812316715542522,0.0469208211143695,0.0469208211143695,0.07331378299120235,42.3,-83.7,0.3,[0.25803842 0.31285496 0.91407765],[ 0.01736836 -0.57785987 -0.81595117],[ 0.19183003  0.19043592 -0.96277484],[0.4040646  0.2734554  0.87289973],-10.56659073226495,29.780992715092694,98.47559208415684,[0.71343131 0.23447185 0.13570852 0.64623673],[ 0.75483241  0.01081132 -0.04882615  0.65400853]
1718050199.3265965,0.8133333333333334,-19.68,-30.90666666666667,-37.6829268292683,0.6707317073170732,0.6097560975609757,-0.058837890625,-0.7392578125,-0.634521484375,2.0234604105571847,2.0733137829912023,1.8240469208211143,0.0469208211143695,0.04985337243401759,0.07624633431085044,42.3,-83.7,0.3,[0.26247634 0.30308158 0.91610465],[ 0.02219221 -0.53697866 -0.84330388],[ 0.19183003  0.19043592 -0.96277484],[0.4040646  0.2734554  0.87289973],-12.636818804335718,26.899814423964436,103.93235515699389,[0.74562009 0.22674359 0.11614278 0.61575066],[ 0.76754762  0.01158297 -0.05975509  0.63809546]
1718050199.3534915,0.52,-19.293333333333333,-32.2,-35.1219512195122,-0.7926829268292683,2.1951219512195124,-0.030029296875,-0.790283203125,-0.6015625,2.026392961876833,2.0821114369501466,1.8357771260997067,0.04985337243401759,0.04985337243401759,0.07624633431085044,42.3,-83.7,0.3,[0.26503704 0.28969656 0.91969086],[ 0.01385144 -0.513924   -0.85772388],[ 0.19183003  0.19043592 -0.96277484],[0.4040646  0.2734554  0.87289973],-13.072951358262548,25.36360037188512,104.79313419273718,[0.75265183 0.22107519 0.10503057 0.61123609],[ 0.77070381  0.01776916 -0.06709046  0.63340252]
1718050199.3803077,0.4666666666666667,-19.533333333333335,-32.22666666666667,-33.04878048780488,-1.5853658536585367,2.5609756097560976,-0.009033203125,-0.768798828125,-0.626220703125,2.029325513196481,2.0879765395894427,1.8504398826979471,0.04985337243401759,0.05278592375366569,0.07917888563049853,42.3,-83.7,0.3,[0.26067691 0.27269154 0.92611386],[ 0.01238262 -0.51830118 -0.8551085 ],[ 0.19183003  0.19043592 -0.96277484],[0.4040646  0.2734554  0.87289973],-11.476287205504732,25.81176181400533,101.13881099216961,[0.73492659 0.2164233  0.10975123 0.63324444],[ 0.75961868  0.02531352 -0.06364613  0.64675177]
1718050199.407394,0.6000000000000001,-19.693333333333335,-32.68,-33.65853658536586,-0.7317073170731708,0.30487804878048785,0.005859375,-0.813232421875,-0.6103515625,2.035190615835777,2.096774193548387,1.8621700879765395,0.04985337243401759,0.05278592375366569,0.07917888563049853,42.3,-83.7,0.3,[0.26031182 0.26338143 0.92890687],[ 0.01572336 -0.51607548 -0.85639878],[ 0.19183003  0.19043592 -0.96277484],[0.4040646  0.2734554  0.87289973],-11.049301177474922,25.634539841854167,100.5596653808507,[0.73287653 0.21331369 0.10985313 0.63664869],[ 0.76160798  0.02395589 -0.06258587  0.64456374]
1718050199.4347575,1.1333333333333333,-18.560000000000002,-33.373333333333335,-35.91463414634147,-0.5487804878048781,0.0,0.015380859375,-0.77392578125,-0.62744140625,2.038123167155425,2.1055718475073313,1.8768328445747802,0.05278592375366569,0.05278592375366569,0.07917888563049853,42.3,-83.7,0.3,[0.2605036  0.24570595 0.93368435],[ 0.02966539 -0.48581437 -0.87355845],[ 0.19183003  0.19043592 -0.96277484],[0.4040646  0.2734554  0.87289973],-11.497816999654132,23.57559090682684,103.77266688593386,[0.75369101 0.20260666 0.09939967 0.61726826],[ 0.77487904  0.0085575  -0.0736473   0.62774622]
1718050199.4613273,1.4133333333333333,-17.853333333333335,-34.333333333333336,-41.03658536585366,1.0365853658536586,-0.426829268292683,-0.017822265625,-0.727783203125,-0.65771484375,2.0410557184750733,2.1114369501466275,1.8944281524926687,0.05278592375366569,0.05571847507331378,0.08211143695014662,42.3,-83.7,0.3,[0.25362829 0.22413117 0.9409771 ],[ 0.03649799 -0.46104535 -0.88662567],[ 0.19183003  0.19043592 -0.96277484],[0.4040646  0.2734554  0.87289973],-10.890545113724583,22.110607693591493,104.10041816095406,[0.75923359 0.19083316 0.09325251 0.61518374],[ 0.7830167  -0.02733213 -0.08524054  0.61552567]
1718050199.489227,1.5866666666666667,-17.613333333333333,-35.400000000000006,-39.69512195121951,-0.3658536585365854,0.24390243902439027,-0.058837890625,-0.67529296875,-0.6748046875,2.0439882697947214,2.1202346041055717,1.906158357771261,0.05278592375366569,0.05571847507331378,0.08211143695014662,42.3,-83.7,0.3,[0.25591504 0.21043555 0.94351702],[ 0.04009615 -0.445101   -0.89458225],[ 0.19183003  0.19043592 -0.96277484],[0.4040646  0.2734554  0.87289973],-10.905220084939124,21.059164807592733,105.02743874240605,[0.76603943 0.18483956 0.08749625 0.60939506],[ 0.78501846 -0.03801473 -0.09342507  0.6112059 ]
1718050199.515431,1.6933333333333334,-17.36,-35.946666666666665,-38.71951219512196,-1.0975609756097562,2.25609756097561,-0.0283203125,-0.7294921875,-0.69140625,2.0469208211143695,2.126099706744868,1.9208211143695015,0.05571847507331378,0.05865102639296188,0.08504398826979472,42.3,-83.7,0.3,[0.2511147  0.19280997 0.94855981],[ 0.04238104 -0.4344891  -0.89967943],[ 0.19183003  0.19043592 -0.96277484],[0.4040646  0.2734554  0.87289973],-10.12146484678759,20.474187922052906,103.8145893830651,[0.76179399 0.17753414 0.08576972 0.61708597],[ 0.77563527 -0.04290358 -0.09692054  0.6222183 ]
1718050199.542458,1.8933333333333335,-17.040000000000003,-36.080000000000005,-41.09756097560976,-1.0365853658536586,1.4634146341463417,-0.005615234375,-0.6923828125,-0.71044921875,2.0498533724340176,2.131964809384164,1.932551319648094,0.05571847507331378,0.05865102639296188,0.08504398826979472,42.3,-83.7,0.3,[0.24855419 0.17937853 0.95186352],[ 0.04739688 -0.42657189 -0.90321091],[ 0.19183003  0.19043592 -0.96277484],[0.4040646  0.2734554  0.87289973],-9.589289493844745,19.996564113097538,103.33400703810145,[0.76080235 0.17187654 0.08465876 0.62005737],[ 0.77267334 -0.05352087 -0.10646696  0.62351922]
1718050199.5695708,2.04,-16.6,-36.400000000000006,-45.0609756097561,-0.9146341463414634,-0.24390243902439027,0.01025390625,-0.71142578125,-0.677001953125,2.0527859237536656,2.1407624633431084,1.9530791788856305,0.05571847507331378,0.05865102639296188,0.08797653958944282,42.3,-83.7,0.3,[0.24360641 0.15261612 0.95779133],[ 0.05092555 -0.41439418 -0.90867158],[ 0.19183003  0.19043592 -0.96277484],[0.4040646  0.2734554  0.87289973],-8.521058686985723,19.235945008318318,101.39843480885722,[0.75298396 0.16221456 0.08253863 0.63236774],[ 0.76937657 -0.07406673 -0.12051736  0.62293609]
1718050199.5965695,2.226666666666667,-16.066666666666666,-37.45333333333333,-51.03658536585366,1.2804878048780488,-0.48780487804878053,-0.017822265625,-0.729736328125,-0.71875,2.0557184750733137,2.1495601173020527,1.9618768328445748,0.05865102639296188,0.06158357771260997,0.08797653958944282,42.3,-83.7,0.3,[0.24804277 0.14320756 0.95810562],[ 0.05455537 -0.39364804 -0.91764096],[ 0.19183003  0.19043592 -0.96277484],[0.4040646  0.2734554  0.87289973],-8.926630028616538,17.96752892934235,103.59137557396242,[0.76630102 0.15668585 0.07479656 0.61857721],[ 0.77510557 -0.10655193 -0.13560499  0.60783989]
1718050199.6261637,2.4000000000000004,-15.426666666666668,-38.333333333333336,-50.54878048780488,0.0,-1.1585365853658538,-0.036865234375,-0.674072265625,-0.748779296875,2.0557184750733137,2.155425219941349,1.9794721407624634,0.05865102639296188,0.06158357771260997,0.08797653958944282,42.3,-83.7,0.3,[0.2431805  0.1165024  0.96295921],[ 0.0579841  -0.37270891 -0.92613493],[ 0.19183003  0.19043592 -0.96277484],[0.4040646  0.2734554  0.87289973],-8.148515885430085,16.737144417364707,102.71975034914844,[0.7643568  0.14555416 0.06949918 0.62429363],[ 0.77362991 -0.1220668  -0.14574384  0.60444619]
1718050199.6509962,2.52,-14.88,-39.13333333333333,-48.47560975609756,0.12195121951219513,-0.1829268292682927,-0.008544921875,-0.61474609375,-0.75927734375,2.0527859237536656,2.158357771260997,1.9912023460410557,0.06158357771260997,0.06451612903225806,0.09090909090909091,42.3,-83.7,0.3,[0.24088903 0.09421369 0.96596908],[ 0.0600821  -0.35477048 -0.93302093],[ 0.19183003  0.19043592 -0.96277484],[0.4040646  0.2734554  0.87289973],-7.635805869898452,15.658719730988617,102.17908184528106,[0.76346689 0.13670185 0.06433101 0.6279271 ],[ 0.76854026 -0.1291646  -0.14728923  0.60907164]
1718050199.6775684,2.72,-14.200000000000001,-39.77333333333333,-49.87804878048781,-0.48780487804878053,-0.24390243902439027,-0.005126953125,-0.612060546875,-0.77685546875,2.0498533724340176,2.158357771260997,1.997067448680352,0.06158357771260997,0.06451612903225806,0.09090909090909091,42.3,-83.7,0.3,[0.2386228  0.08086438 0.96773969],[ 0.06427268 -0.33554118 -0.93983038],[ 0.19183003  0.19043592 -0.96277484],[0.4040646  0.2734554  0.87289973],-7.41712902564962,14.594193735507009,103.00375731088064,[0.76955034 0.12911105 0.05925949 0.62258407],[ 0.76780012 -0.13736075 -0.15737438  0.60568003]
1718050199.704757,2.8533333333333335,-13.573333333333334,-40.440000000000005,-49.146341463414636,0.9756097560975611,-1.0975609756097562,-0.0224609375,-0.627685546875,-0.8173828125,2.0439882697947214,2.164222873900293,2.0087976539589443,0.06158357771260997,0.06744868035190615,0.093841642228739,42.3,-83.7,0.3,[0.24351653 0.05384464 0.96840098],[ 0.06674084 -0.31748681 -0.94591109],[ 0.19183003  0.19043592 -0.96277484],[0.4040646  0.2734554  0.87289973],-7.079439817704381,13.392267088651755,102.7085764306342,[0.76971901 0.1205722  0.05260229 0.62468231],[ 0.76997754 -0.1476914  -0.1585017   0.60016585]
1718050199.7317607,3.0,-12.933333333333334,-41.080000000000005,-49.63414634146342,0.30487804878048785,0.3658536585365854,-0.013427734375,-0.580810546875,-0.78271484375,2.0410557184750733,2.164222873900293,2.0234604105571847,0.06451612903225806,0.06744868035190615,0.093841642228739,42.3,-83.7,0.3,[0.23357162 0.02697053 0.97196548],[ 0.06948919 -0.29957561 -0.9515386 ],[ 0.19183003  0.19043592 -0.96277484],[0.4040646  0.2734554  0.87289973],-6.162618875332668,12.356547257570217,100.96018244006929,[0.76213303 0.10961056 0.04889335 0.63619825],[ 0.75794534 -0.15973479 -0.16256808  0.61120804]
1718050199.7587216,3.106666666666667,-12.266666666666667,-41.62666666666667,-46.524390243902445,0.24390243902439027,0.426829268292683,-0.02392578125,-0.564208984375,-0.8388671875,2.038123167155425,2.164222873900293,2.026392961876833,0.06451612903225806,0.06744868035190615,0.093841642228739,42.3,-83.7,0.3,[0.23361883 0.01798399 0.97216193],[ 0.07140533 -0.28194378 -0.95677008],[ 0.19183003  0.19043592 -0.96277484],[0.4040646  0.2734554  0.87289973],-6.1329928853575835,11.4225857472166,102.0716114103334,[0.76922389 0.10387733 0.04379422 0.62895641],[ 0.75781376 -0.15717252 -0.16396419  0.61166237]
1718050199.785756,3.2133333333333334,-11.653333333333334,-42.24,-48.71951219512196,-0.6707317073170732,0.5487804878048781,-0.01513671875,-0.570556640625,-0.830322265625,2.029325513196481,2.164222873900293,2.035190615835777,0.06451612903225806,0.06744868035190615,0.0967741935483871,42.3,-83.7,0.3,[ 0.23364717 -0.00899308  0.97227986],[ 0.07313723 -0.26523626 -0.96140557],[ 0.19183003  0.19043592 -0.96277484],[0.4040646  0.2734554  0.87289973],-5.66248693329722,10.330854518928016,101.1079321761698,[0.76532305 0.0951205  0.03818432 0.63543267],[ 0.75145294 -0.16485152 -0.17574937  0.61421056]
1718050199.8126252,3.2933333333333334,-10.933333333333334,-42.733333333333334,-48.53658536585366,0.30487804878048785,0.24390243902439027,-0.014404296875,-0.53125,-0.82275390625,2.0234604105571847,2.164222873900293,2.0410557184750733,0.06744868035190615,0.07038123167155426,0.09970674486803519,42.3,-83.7,0.3,[ 0.23357162 -0.02697053  0.97196548],[ 0.07445491 -0.24717826 -0.96610526],[ 0.19183003  0.19043592 -0.96277484],[0.4040646  0.2734554  0.87289973],-5.422700990613247,9.284446357676673,101.20823578243727,[0.76695197 0.08774482 0.03254929 0.63484334],[ 0.75105188 -0.17346366 -0.18085979  0.61083644]
1718050199.8396935,3.3733333333333335,-10.226666666666667,-43.30666666666667,-47.6829268292683,0.1829268292682927,-0.3658536585365854,-0.02001953125,-0.525634765625,-0.860107421875,2.0146627565982405,2.161290322580645,2.0439882697947214,0.06744868035190615,0.07038123167155426,0.09970674486803519,42.3,-83.7,0.3,[ 0.2337322  -0.04498178  0.97125995],[ 0.07559213 -0.22916665 -0.97044756],[ 0.19183003  0.19043592 -0.96277484],[0.4040646  0.2734554  0.87289973],-5.189940991816806,8.241802447963542,101.3002142135777,[0.7684353  0.0804376  0.02687974 0.63428264],[ 0.75229244 -0.17840366 -0.18497102  0.60664152]
1718050199.8668165,3.4800000000000004,-9.506666666666668,-43.800000000000004,-47.31707317073171,-0.426829268292683,0.853658536585366,-0.020751953125,-0.507080078125,-0.868896484375,2.002932551319648,2.158357771260997,2.0469208211143695,0.06744868035190615,0.07038123167155426,0.09970674486803519,42.3,-83.7,0.3,[ 0.23630617 -0.06746609  0.96933365],[ 0.07741122 -0.21147203 -0.97431365],[ 0.19183003  0.19043592 -0.96277484],[0.4040646  0.2734554  0.87289973],-4.9368539789723105,7.138816451321003,101.17812283334229,[0.76869575 0.07270031 0.02076596 0.63513013],[ 0.74739089 -0.18393908 -0.18990995  0.60951414]
1718050199.894302,3.546666666666667,-8.84,-44.22666666666667,-45.60975609756098,0.24390243902439027,0.30487804878048785,-0.0068359375,-0.48486328125,-0.90625,2.0,2.161290322580645,2.0527859237536656,0.07038123167155426,0.07038123167155426,0.0967741935483871,42.3,-83.7,0.3,[ 0.23830637 -0.08075715  0.96782661],[ 0.07839546 -0.1953992  -0.97758545],[ 0.19183003  0.19043592 -0.96277484],[0.4040646  0.2734554  0.87289973],-4.817635113656758,6.238140296401888,101.70741213979043,[0.77225974 0.06686662 0.01566658 0.63158397],[ 0.75005792 -0.18583498 -0.19022613  0.6055514 ]
1718050199.920882,3.586666666666667,-8.24,-44.693333333333335,-37.43902439024391,-1.0365853658536586,0.7317073170731708,-0.01806640625,-0.452880859375,-0.892333984375,1.9912023460410557,2.155425219941349,2.0527859237536656,0.07038123167155426,0.07331378299120235,0.09970674486803519,42.3,-83.7,0.3,[ 0.23610456 -0.09437195  0.96713421],[ 0.07867586 -0.18074975 -0.98037729],[ 0.19183003  0.19043592 -0.96277484],[0.4040646  0.2734554  0.87289973],-4.5851378756003385,5.429127791098999,101.59722084937262,[0.7722426  0.06087415 0.0114166  0.63230164],[ 0.75254781 -0.16474499 -0.17806408  0.61222876]
1718050199.9478652,3.6,-7.626666666666667,-45.02666666666667,-42.31707317073171,-0.6707317073170732,0.7926829268292683,-0.006103515625,-0.4306640625,-0.8896484375,1.9794721407624634,2.1495601173020527,2.0498533724340176,0.07038123167155426,0.07331378299120235,0.09970674486803519,42.3,-83.7,0.3,[ 0.23896522 -0.10797389  0.96500635],[ 0.07858601 -0.16648592 -0.98290726],[ 0.19183003  0.19043592 -0.96277484],[0.4040646  0.2734554  0.87289973],-4.498696804553267,4.597825897612459,101.88685456841048,[0.77430939 0.05570796 0.00641453 0.63031773],[ 0.75128773 -0.17498445 -0.18706412  0.60823861]
1718050199.9749305,3.6533333333333338,-6.973333333333334,-45.413333333333334,-40.73170731707317,0.30487804878048785,0.0,-0.01416015625,-0.4521484375,-0.891357421875,1.970674486803519,2.1436950146627565,2.0527859237536656,0.07331378299120235,0.07331378299120235,0.09970674486803519,42.3,-83.7,0.3,[ 0.23397845 -0.12608169  0.96403189],[ 0.07926414 -0.15129616 -0.98530537],[ 0.19183003  0.19043592 -0.96277484],[0.4040646  0.2734554  0.87289973],-4.1421051907177056,3.723094751272313,101.13400404398402,[0.77071034 0.04851755 0.00213116 0.63533225],[ 0.75148482 -0.1812234  -0.18607161  0.60647012]
1718050200.001953,3.72,-6.306666666666667,-45.78666666666667,-38.78048780487805,-0.48780487804878053,0.12195121951219513,-0.022705078125,-0.37548828125,-0.91748046875,1.9589442815249267,2.1436950146627565,2.0557184750733137,0.07331378299120235,0.07624633431085044,0.10263929618768329,42.3,-83.7,0.3,[ 0.2409066  -0.14806088  0.95918819],[ 0.080227   -0.13601208 -0.98745346],[ 0.19183003  0.19043592 -0.96277484],[0.4040646  0.2734554  0.87289973],-4.042550605766419,2.6993314519889933,101.1228479055033,[ 0.77108365  0.04218548 -0.00421992  0.63532085],[ 0.75017181 -0.17974907 -0.18773883  0.60801864]
1718050200.0290108,3.786666666666667,-5.706666666666667,-46.080000000000005,-34.57317073170732,-1.0365853658536586,1.5853658536585367,-0.011474609375,-0.41162109375,-0.94140625,1.9530791788856305,2.1378299120234603,2.0527859237536656,0.07331378299120235,0.07624633431085044,0.10263929618768329,42.3,-83.7,0.3,[ 0.23882648 -0.1528742   0.95895328],[ 0.08128306 -0.12249701 -0.98913475],[ 0.19183003  0.19043592 -0.96277484],[0.4040646  0.2734554  0.87289973],-3.8597826494462244,2.0809924529241557,101.86889758094716,[ 0.77547171  0.03758058 -0.00712861  0.63022259],[ 0.75003574 -0.16895736 -0.18096621  0.61331153]
1718050200.0560489,3.7733333333333334,-5.146666666666667,-46.42666666666667,-38.04878048780488,0.24390243902439027,0.24390243902439027,0.00634765625,-0.40625,-0.88232421875,1.9472140762463344,2.131964809384164,2.058651026392962,0.07331378299120235,0.07624633431085044,0.10263929618768329,42.3,-83.7,0.3,[ 0.22853238 -0.17092646  0.95841384],[ 0.08051801 -0.10982315 -0.99068447],[ 0.19183003  0.19043592 -0.96277484],[0.4040646  0.2734554  0.87289973],-3.498306614285428,1.3292605935810744,100.25183405747147,[ 0.76681902  0.03085718 -0.01066941  0.64103244],[ 0.74632432 -0.18181292 -0.18602758  0.61264819]
1718050200.0833857,3.8400000000000003,-4.546666666666667,-46.61333333333334,-35.36585365853659,2.25609756097561,0.1829268292682927,-0.031494140625,-0.361572265625,-0.962890625,1.935483870967742,2.129032258064516,2.058651026392962,0.07624633431085044,0.07624633431085044,0.10263929618768329,42.3,-83.7,0.3,[ 0.23320313 -0.18849584  0.95398408],[ 0.08171654 -0.09675466 -0.99194805],[ 0.19183003  0.19043592 -0.96277484],[0.4040646  0.2734554  0.87289973],-3.3918699020189305,0.48149170348373616,100.28480832688781,[ 0.76721695  0.02541002 -0.01574288  0.64069076],[ 0.74764772 -0.18766366 -0.17733419  0.61184787]
1718050200.1102436,3.8800000000000003,-4.026666666666667,-46.93333333333334,-35.670731707317074,0.3658536585365854,0.7926829268292683,-0.0048828125,-0.36083984375,-0.93505859375,1.9266862170087977,2.1173020527859236,2.0527859237536656,0.07624633431085044,0.07624633431085044,0.10557184750733138,42.3,-83.7,0.3,[ 0.22652895 -0.19392489  0.95450394],[ 0.08208986 -0.08519292 -0.99297705],[ 0.19183003  0.19043592 -0.96277484],[0.4040646  0.2734554  0.87289973],-3.148496016468666,-0.03904641229155419,100.27977919807158,[ 0.76732778  0.02086979 -0.01786891  0.64066624],[ 0.74261205 -0.18858953 -0.18243075  0.61618208]
1718050200.139817,4.093333333333334,-3.3866666666666667,-47.18666666666667,-35.1829268292683,0.48780487804878053,0.30487804878048785,-0.009521484375,-0.33984375,-0.94677734375,1.9120234604105573,2.1055718475073313,2.0527859237536656,0.07624633431085044,0.07624633431085044,0.10557184750733138,42.3,-83.7,0.3,[ 0.21894705 -0.21670138  0.95136886],[ 0.08620302 -0.07132107 -0.99372146],[ 0.19183003  0.19043592 -0.96277484],[0.4040646  0.2734554  0.87289973],-2.7060956114518615,-0.9387840833271037,98.9769942169846,[ 0.76016374  0.01263147 -0.02156517  0.64925071],[ 0.73728732 -0.19181132 -0.18614068  0.62045747]
1718050200.1662235,4.720000000000001,-2.8400000000000003,-47.480000000000004,-35.670731707317074,0.30487804878048785,1.2804878048780488,-0.031982421875,-0.348388671875,-0.9384765625,1.900293255131965,2.099706744868035,2.0498533724340176,0.07624633431085044,0.07917888563049853,0.10557184750733138,42.3,-83.7,0.3,[ 0.22143287 -0.23011979  0.94763515],[ 0.09874792 -0.05941612 -0.99333709],[ 0.19183003  0.19043592 -0.96277484],[0.4040646  0.2734554  0.87289973],-2.1146556580014466,-1.593094024066797,100.12180298662875,[ 0.7666873   0.00522376 -0.02250222  0.64160497],[ 0.73532582 -0.19865489 -0.18976999  0.6195317 ]
1718050200.1910315,3.8933333333333335,-2.7600000000000002,-47.74666666666667,-36.951219512195124,0.3658536585365854,1.5853658536585367,-0.0146484375,-0.30712890625,-0.95703125,1.8914956011730206,2.090909090909091,2.0410557184750733,0.07917888563049853,0.07917888563049853,0.10557184750733138,42.3,-83.7,0.3,[ 0.22230358 -0.23102466  0.94721102],[ 0.08113718 -0.05751848 -0.9950419 ],[ 0.19183003  0.19043592 -0.96277484],[0.4040646  0.2734554  0.87289973],-2.8491235713088074,-1.7837561489162754,98.71785506848511,[ 0.75873022  0.00872714 -0.02799787  0.65074451],[ 0.72718291 -0.20296425 -0.19739303  0.62533713]
1718050200.2197683,3.8400000000000003,-1.5733333333333335,-47.92,-39.08536585365854,0.12195121951219513,1.3414634146341464,-0.003662109375,-0.319091796875,-0.957763671875,1.8739002932551319,2.0762463343108504,2.038123167155425,0.07917888563049853,0.07917888563049853,0.10850439882697947,42.3,-83.7,0.3,[ 0.21476937 -0.25404295  0.94304628],[ 0.07983476 -0.03271008 -0.99627128],[ 0.19183003  0.19043592 -0.96277484],[0.4040646  0.2734554  0.87289973],-2.590573898491029,-3.1599384895873146,97.93520471275386,[ 0.75426819 -0.0010507  -0.03562772  0.65559824],[ 0.71871472 -0.21444853 -0.21243571  0.62636415]
1718050200.2451234,4.08,-0.6933333333333334,-48.22666666666667,-39.32926829268293,0.12195121951219513,0.6707317073170732,-0.0244140625,-0.294677734375,-1.001708984375,1.8563049853372433,2.067448680351906,2.032258064516129,0.07917888563049853,0.07917888563049853,0.10850439882697947,42.3,-83.7,0.3,[ 0.21975828 -0.27188037  0.93690307],[ 0.08429071 -0.01432391 -0.99633825],[ 0.19183003  0.19043592 -0.96277484],[0.4040646  0.2734554  0.87289973],-2.296689806085277,-4.214016875804618,98.78962753886078,[ 0.75902628 -0.00871892 -0.04094232  0.64971287],[ 0.7197955  -0.22255065 -0.22322547  0.61849498]
1718050200.2722483,4.28,-0.9333333333333333,-48.34666666666667,-41.463414634146346,-0.06097560975609757,0.1829268292682927,-0.009765625,-0.23828125,-0.963623046875,1.8416422287390029,2.0527859237536656,2.026392961876833,0.08211143695014662,0.08211143695014662,0.10557184750733138,42.3,-83.7,0.3,[ 0.21256477 -0.28635676  0.93424623],[ 0.08816613 -0.01922626 -0.99592022],[ 0.19183003  0.19043592 -0.96277484],[0.4040646  0.2734554  0.87289973],-2.1839735426987024,-4.2643773935761935,96.58496174056526,[ 0.74637026 -0.0105315  -0.04044126  0.66421761],[ 0.71145109 -0.23218882 -0.23196923  0.6213823 ]
1718050200.299306,4.773333333333333,0.45333333333333337,-48.62666666666667,-39.390243902439025,0.0,0.5487804878048781,-0.005615234375,-0.25439453125,-0.980224609375,1.8240469208211143,2.0410557184750733,2.0205278592375366,0.08211143695014662,0.08211143695014662,0.10557184750733138,42.3,-83.7,0.3,[ 0.21252239 -0.30447742  0.92850834],[ 0.09768911  0.00927774 -0.99517373],[ 0.19183003  0.19043592 -0.96277484],[0.4040646  0.2734554  0.87289973],-1.4562855955780651,-5.670289947888093,98.31150917451542,[ 0.75591436 -0.02274424 -0.04571584  0.65267621],[ 0.71376805 -0.23720466 -0.23376139  0.61613694]
1718050200.326488,3.9200000000000004,1.1466666666666667,-48.98666666666667,-36.951219512195124,0.24390243902439027,0.30487804878048785,-0.025390625,-0.20947265625,-1.016357421875,1.812316715542522,2.032258064516129,2.0146627565982405,0.08211143695014662,0.08211143695014662,0.10850439882697947,42.3,-83.7,0.3,[ 0.21274561 -0.31389566  0.92531552],[ 0.07974508  0.02332679 -0.99654231],[ 0.19183003  0.19043592 -0.96277484],[0.4040646  0.2734554  0.87289973],-2.2057434722277436,-6.487560029283544,97.02541814118902,[ 0.74848542 -0.02308232 -0.05510986  0.66045415],[ 0.71185975 -0.23336741 -0.2331501   0.62002933]
1718050200.354026,4.48,1.6800000000000002,-49.693333333333335,-35.73170731707317,0.24390243902439027,0.0,-0.0185546875,-0.187255859375,-0.988037109375,1.8005865102639296,2.026392961876833,2.0087976539589443,0.08211143695014662,0.08504398826979472,0.10850439882697947,42.3,-83.7,0.3,[ 0.21786632 -0.32279811  0.92105138],[ 0.08973794  0.03365173 -0.99539674],[ 0.19183003  0.19043592 -0.96277484],[0.4040646  0.2734554  0.87289973],-1.6477890336763144,-7.0293383971970815,98.5309565891808,[ 0.75681313 -0.02912495 -0.05581339  0.65059242],[ 0.71825701 -0.23143347 -0.23106885  0.61412751]
1718050200.381603,3.9066666666666667,2.08,-49.22666666666667,-32.6829268292683,-0.1829268292682927,0.426829268292683,-0.008056640625,-0.1884765625,-1.00634765625,1.7859237536656891,2.0175953079178885,2.002932551319648,0.08504398826979472,0.08504398826979472,0.10850439882697947,42.3,-83.7,0.3,[ 0.2203109  -0.33616233  0.91567352],[ 0.07904196  0.04208377 -0.99598259],[ 0.19183003  0.19043592 -0.96277484],[0.4040646  0.2734554  0.87289973],-2.2118508643642656,-7.684302047056122,97.20373776835642,[ 0.7491625  -0.0298576  -0.0629902   0.65870806],[ 0.71596799 -0.2222429  -0.22700271  0.62166526]
1718050200.408779,4.173333333333334,3.2,-49.30666666666667,-27.134146341463417,-0.9146341463414634,0.6707317073170732,-0.021240234375,-0.180908203125,-0.998046875,1.7771260997067448,2.0087976539589443,2.0,0.08797653958944282,0.08211143695014662,0.10850439882697947,42.3,-83.7,0.3,[ 0.21528196 -0.34559544  0.91335506],[ 0.08416298  0.06453392 -0.99436008],[ 0.19183003  0.19043592 -0.96277484],[0.4040646  0.2734554  0.87289973],-1.590848287608079,-8.694234407637182,98.38996943280475,[ 0.75537516 -0.03905088 -0.06641522  0.65074758],[ 0.72181756 -0.20458793 -0.21574717  0.62496108]
1718050200.4358847,4.493333333333333,3.3866666666666667,-49.52,-26.707317073170735,0.06097560975609757,0.853658536585366,-0.00537109375,-0.1748046875,-0.998779296875,1.7653958944281525,1.997067448680352,1.9941348973607038,0.08504398826979472,0.08504398826979472,0.11143695014662756,42.3,-83.7,0.3,[ 0.21048413 -0.35545498  0.91068556],[ 0.09015762  0.06795263 -0.99360658],[ 0.19183003  0.19043592 -0.96277484],[0.4040646  0.2734554  0.87289973],-1.3159887203251306,-8.986184365222993,97.81370026142302,[ 0.75186765 -0.04285944 -0.0665606   0.65454395],[ 0.72252376 -0.2023841  -0.20649914  0.62797946]
1718050200.4613497,4.333333333333334,4.786666666666667,-49.61333333333334,-22.80487804878049,-0.9756097560975611,2.1341463414634148,-0.027099609375,-0.171630859375,-1.006103515625,1.7565982404692082,1.9882697947214076,1.9853372434017595,0.08504398826979472,0.08504398826979472,0.11143695014662756,42.3,-83.7,0.3,[ 0.21128722 -0.35681119  0.90996895],[ 0.08661172  0.09567264 -0.99163761],[ 0.19183003  0.19043592 -0.96277484],[0.4040646  0.2734554  0.87289973],-0.8765863334555758,-10.061661543105984,100.18903728701805,[ 0.76455661 -0.05040923 -0.07215521  0.63851838],[ 0.72783093 -0.1911799  -0.19788752  0.62813448]
1718050200.488394,3.826666666666667,4.946666666666667,-49.74666666666667,-21.585365853658537,-0.9146341463414634,1.524390243902439,-0.001953125,-0.1591796875,-1.000732421875,1.747800586510264,1.9824046920821115,1.9853372434017595,0.08797653958944282,0.08504398826979472,0.10850439882697947,42.3,-83.7,0.3,[ 0.20816371 -0.36967797  0.90554187],[ 0.07632231  0.09866054 -0.99219   ],[ 0.19183003  0.19043592 -0.96277484],[0.4040646  0.2734554  0.87289973],-1.6175730648481486,-10.514503216124913,97.74753482047015,[ 0.75086956 -0.04967139 -0.07825779  0.65391389],[ 0.72381022 -0.18204182 -0.19505511  0.63632778]
1718050200.5154827,3.8666666666666667,4.92,-50.040000000000006,-25.000000000000004,0.3658536585365854,1.1585365853658538,-0.002197265625,-0.109375,-0.998779296875,1.7331378299120235,1.9736070381231672,1.9765395894428153,0.08797653958944282,0.08797653958944282,0.11143695014662756,42.3,-83.7,0.3,[ 0.21345247 -0.37883918  0.90051036],[ 0.07667433  0.09756147 -0.99227154],[ 0.19183003  0.19043592 -0.96277484],[0.4040646  0.2734554  0.87289973],-1.7942418383035725,-10.679917367227404,97.20493819295493,[ 0.747756   -0.04984041 -0.08011194  0.65723585],[ 0.72001442 -0.19315729 -0.20156248  0.63532831]
1718050200.5424876,3.9333333333333336,5.253333333333334,-49.440000000000005,-23.353658536585368,0.853658536585366,0.6707317073170732,-0.011474609375,-0.136474609375,-1.007080078125,1.7243401759530792,1.967741935483871,1.9736070381231672,0.08797653958944282,0.08797653958944282,0.10850439882697947,42.3,-83.7,0.3,[ 0.21324077 -0.38758306  0.89683206],[ 0.07886594  0.10533282 -0.99130478],[ 0.19183003  0.19043592 -0.96277484],[0.4040646  0.2734554  0.87289973],-1.6407479653179717,-11.150609711295289,97.23166724095783,[ 0.7475875  -0.05353063 -0.08230727  0.65686598],[ 0.72141239 -0.19509973 -0.19933493  0.63385002]
1718050200.5695431,4.08,6.36,-49.413333333333334,-23.84146341463415,0.853658536585366,0.48780487804878053,-0.020263671875,-0.125732421875,-1.005859375,1.715542521994135,1.9589442815249267,1.964809384164223,0.08797653958944282,0.08797653958944282,0.11143695014662756,42.3,-83.7,0.3,[ 0.21404238 -0.38904004  0.89600988],[ 0.08162002  0.12723121 -0.98850918],[ 0.19183003  0.19043592 -0.96277484],[0.4040646  0.2734554  0.87289973],-0.9132306434637162,-11.983990284594817,99.63487926544524,[ 0.76033102 -0.06129734 -0.08486421  0.64104402],[ 0.72932586 -0.2021756  -0.20137316  0.62181804]
1718050200.5965827,4.213333333333334,6.8533333333333335,-49.85333333333334,-26.951219512195124,-0.06097560975609757,0.24390243902439027,-0.022705078125,-0.1396484375,-1.01708984375,1.7038123167155426,1.9501466275659824,1.9589442815249267,0.08797653958944282,0.08797653958944282,0.11143695014662756,42.3,-83.7,0.3,[ 0.21407353 -0.39825187  0.89194617],[ 0.0834352   0.13571422 -0.98722855],[ 0.19183003  0.19043592 -0.96277484],[0.4040646  0.2734554  0.87289973],-0.7533437396318632,-12.490588811270504,99.65848426368453,[ 0.7600354  -0.0651787  -0.08733934  0.64067915],[ 0.72835976 -0.2153564  -0.21460914  0.61404935]
1718050200.6238072,4.213333333333334,7.173333333333334,-50.333333333333336,-26.03658536585366,0.0,0.12195121951219513,-0.01513671875,-0.071044921875,-1.00439453125,1.686217008797654,1.935483870967742,1.9501466275659824,0.08797653958944282,0.08797653958944282,0.11143695014662756,42.3,-83.7,0.3,[ 0.21159931 -0.41231335  0.88612834],[ 0.08258813  0.14060891 -0.98661458],[ 0.19183003  0.19043592 -0.96277484],[0.4040646  0.2734554  0.87289973],-0.9876012351484017,-12.994214910212362,98.26671646736965,[ 0.75198784 -0.06755774 -0.09116984  0.64933682],[ 0.72387722 -0.21918749 -0.2187496   0.61652837]
1718050200.6529844,4.213333333333334,7.546666666666667,-50.120000000000005,-24.81707317073171,-0.3658536585365854,0.426829268292683,0.00244140625,-0.0849609375,-0.99267578125,1.6774193548387097,1.9237536656891496,1.9472140762463344,0.08797653958944282,0.08797653958944282,0.11143695014662756,42.3,-83.7,0.3,[ 0.20135431 -0.42217819  0.88386765],[ 0.08284212  0.14838177 -0.98545423],[ 0.19183003  0.19043592 -0.96277484],[0.4040646  0.2734554  0.87289973],-1.0211143158369453,-13.486673003302599,96.9884594079446,[ 0.74437213 -0.07118485 -0.09379676  0.65730132],[ 0.71683444 -0.21760137 -0.21994045  0.62483936]
1718050200.6775107,4.253333333333334,7.880000000000001,-49.653333333333336,-25.914634146341466,0.1829268292682927,0.48780487804878053,-0.012451171875,-0.064453125,-1.029052734375,1.6656891495601174,1.9149560117302054,1.93841642228739,0.08797653958944282,0.09090909090909091,0.11143695014662756,42.3,-83.7,0.3,[ 0.20433773 -0.42746584  0.88063559],[ 0.08430067  0.15618087 -0.98412445],[ 0.19183003  0.19043592 -0.96277484],[0.4040646  0.2734554  0.87289973],-0.8107354491708003,-13.893791915806323,97.63450053059947,[ 0.74763277 -0.07435307 -0.09565019  0.65296853],[ 0.71539689 -0.22336512 -0.22352692  0.62317817]
1718050200.7050493,4.226666666666667,8.32,-49.98666666666667,-25.60975609756098,-0.7317073170731708,1.8902439024390245,-0.010498046875,-0.06787109375,-1.021484375,1.6480938416422288,1.903225806451613,1.9237536656891496,0.09090909090909091,0.09090909090909091,0.11143695014662756,42.3,-83.7,0.3,[ 0.21283652 -0.43315632  0.87582888],[ 0.08311978  0.16361749 -0.98301598],[ 0.19183003  0.19043592 -0.96277484],[0.4040646  0.2734554  0.87289973],-0.7549340068132226,-14.323676340791975,98.45541982559865,[ 0.75192248 -0.07646587 -0.09868249  0.64732319],[ 0.71205376 -0.22448232 -0.22751261  0.6251601 ]
1718050200.731589,4.226666666666667,8.76,-49.89333333333334,-23.902439024390247,-0.5487804878048781,4.451219512195122,-0.01220703125,-0.054931640625,-0.99462890625,1.6392961876832846,1.8944281524926687,1.9178885630498534,0.09090909090909091,0.09090909090909091,0.11143695014662756,42.3,-83.7,0.3,[ 0.210563   -0.43857028  0.87368148],[ 0.08314884  0.17233056 -0.98152353],[ 0.19183003  0.19043592 -0.96277484],[0.4040646  0.2734554  0.87289973],-0.6258187861826823,-14.766072043116477,98.52713787082384,[ 0.75188425 -0.07975281 -0.10090138  0.64662854],[ 0.70438067 -0.22446272 -0.22210758  0.63571423]
1718050200.7587194,4.266666666666667,9.213333333333335,-50.040000000000006,-23.170731707317074,0.06097560975609757,2.6219512195121952,-0.003173828125,-0.043212890625,-1.005126953125,1.6275659824046922,1.8856304985337244,1.9090909090909092,0.09090909090909091,0.09090909090909091,0.11143695014662756,42.3,-83.7,0.3,[ 0.21354783 -0.44385083  0.87028372],[ 0.08356234  0.18044242 -0.98002952],[ 0.19183003  0.19043592 -0.96277484],[0.4040646  0.2734554  0.87289973],-0.4509460162077226,-15.19012708195801,99.09264094773386,[ 0.7545867  -0.08278808 -0.1031031   0.64274007],[ 0.70981421 -0.22280851 -0.22043767  0.63081486]
