Time,MagX,MagY,MagZ,GyroX,GyroY,GyroZ,AccelX,AccelY,AccelZ,Tri11,Tri12,Tri13,Tri21,Tri22,Tri23,Lat,Lon,Alt,SunVect,MagVect,MagRef,SunRef,Roll,Pitch,Yaw,static_q,dynamic_q
1718050171.0855103,0.52,-26.48,-11.946666666666667,-2.1951219512195124,0.0,0.7317073170731708,-0.01318359375,-0.92919921875,-0.3095703125,0.3460410557184751,0.36656891495601174,0.26392961876832843,0.02932551319648094,0.05278592375366569,0.06451612903225806,42.3,-83.7,0.3,[0.48292861 0.55763792 0.67514436],[ 0.01789719 -0.91138004 -0.41117649],[ 0.19183003  0.19043592 -0.96277484],[0.4040646  0.2734554  0.87289973],-30.94368093647207,53.70032813442214,113.88368897710461,[0.65493865 0.4369233  0.23499598 0.57002657],[0.66196114 0.422471   0.22141138 0.57818917]
1718050171.1100156,0.5866666666666667,-26.453333333333337,-11.466666666666667,-2.5,0.3658536585365854,0.853658536585366,-0.009033203125,-0.927734375,-0.31640625,0.34310850439882695,0.36363636363636365,0.2668621700879765,0.03225806451612903,0.05278592375366569,0.06451612903225806,42.3,-83.7,0.3,[0.47622433 0.53614908 0.69696094],[ 0.02034381 -0.91732074 -0.39762895],[ 0.19183003  0.19043592 -0.96277484],[0.4040646  0.2734554  0.87289973],-26.924636177358128,55.10630985051751,109.12605089455526,[0.64005937 0.42899917 0.24685322 0.58766249],[0.65104397 0.41793991 0.2291182  0.59073923]
1718050171.1433027,0.7200000000000001,-25.94666666666667,-11.746666666666668,-2.378048780487805,0.1829268292682927,0.9146341463414634,-0.00341796875,-0.923583984375,-0.3193359375,0.34310850439882695,0.36656891495601174,0.2668621700879765,0.03225806451612903,0.05278592375366569,0.06451612903225806,42.3,-83.7,0.3,[0.49361668 0.52926663 0.69008652],[ 0.02527122 -0.91069975 -0.41229521],[ 0.19183003  0.19043592 -0.96277484],[0.4040646  0.2734554  0.87289973],-29.52930181995656,53.496025720120464,112.3047588871395,[0.65327679 0.43141332 0.23469027 0.57622258],[0.65461963 0.41884967 0.22398068 0.58810777]
1718050171.1644056,0.7866666666666667,-25.880000000000003,-12.186666666666667,-2.25609756097561,0.6097560975609757,0.1829268292682927,-0.0048828125,-0.919189453125,-0.315673828125,0.3460410557184751,0.36656891495601174,0.26392961876832843,0.02932551319648094,0.05278592375366569,0.06744868035190615,42.3,-83.7,0.3,[0.48292861 0.55763792 0.67514436],[ 0.0274899  -0.90437113 -0.42586049],[ 0.19183003  0.19043592 -0.96277484],[0.4040646  0.2734554  0.87289973],-31.81780404772522,52.49256053019184,115.67773997649454,[0.66566948 0.43450817 0.22916761 0.56175528],[0.66520667 0.41935756 0.22205159 0.57648279]
1718050171.1911693,0.76,-25.986666666666668,-12.120000000000001,-2.8658536585365857,-0.12195121951219513,1.402439024390244,-0.010009765625,-0.938720703125,-0.303955078125,0.3460410557184751,0.36656891495601174,0.26392961876832843,0.02932551319648094,0.05278592375366569,0.06451612903225806,42.3,-83.7,0.3,[0.48292861 0.55763792 0.67514436],[ 0.02649549 -0.90595999 -0.42253342],[ 0.19183003  0.19043592 -0.96277484],[0.4040646  0.2734554  0.87289973],-31.65466195871441,52.74864711791766,115.36787180334633,[0.66366936 0.43498231 0.23056713 0.5631804 ],[0.6665106  0.42120633 0.21536871 0.57616418]
1718050171.2185373,0.7333333333333334,-26.14666666666667,-11.773333333333333,-3.2926829268292686,-0.1829268292682927,1.707317073170732,-0.010009765625,-0.904541015625,-0.321533203125,0.3460410557184751,0.36656891495601174,0.26392961876832843,0.03225806451612903,0.05278592375366569,0.06451612903225806,42.3,-83.7,0.3,[0.48292861 0.55763792 0.67514436],[ 0.02556554 -0.91152775 -0.41044314],[ 0.19183003  0.19043592 -0.96277484],[0.4040646  0.2734554  0.87289973],-31.115410428607067,53.624045713572954,114.45211934564679,[0.65743405 0.43649545 0.235786   0.56714826],[0.66333938 0.42188173 0.21392171 0.57985703]
1718050171.2454553,0.7333333333333334,-26.213333333333335,-11.693333333333333,-1.524390243902439,-0.3658536585365854,0.9756097560975611,0.012939453125,-0.8701171875,-0.335205078125,0.3460410557184751,0.36656891495601174,0.26392961876832843,0.03225806451612903,0.05278592375366569,0.06451612903225806,42.3,-83.7,0.3,[0.48292861 0.55763792 0.67514436],[ 0.02554051 -0.91295727 -0.4072551 ],[ 0.19183003  0.19043592 -0.96277484],[0.4040646  0.2734554  0.87289973],-30.97664108694943,53.84833678666526,114.22870200187208,[0.65588669 0.43687443 0.23716396 0.56807274],[0.65969752 0.428207   0.2204036  0.57694038]
1718050171.2721756,0.7466666666666667,-26.213333333333335,-11.773333333333333,-0.426829268292683,0.9756097560975611,-1.402439024390244,-0.009765625,-0.9296875,-0.326416015625,0.3460410557184751,0.36656891495601174,0.26392961876832843,0.03225806451612903,0.05278592375366569,0.06451612903225806,42.3,-83.7,0.3,[0.48292861 0.55763792 0.67514436],[ 0.02597502 -0.91190866 -0.40957037],[ 0.19183003  0.19043592 -0.96277484],[0.4040646  0.2734554  0.87289973],-31.08841959869481,53.678658846290645,114.42439212430469,[0.65716369 0.4365711  0.23618967 0.5672354 ],[0.66212887 0.42741604 0.2353067  0.56879843]
1718050171.2992585,0.7733333333333334,-26.186666666666667,-11.840000000000002,-1.0975609756097562,0.6707317073170732,-0.3658536585365854,-0.021484375,-0.941650390625,-0.30078125,0.34310850439882695,0.36656891495601174,0.26392961876832843,0.03225806451612903,0.05278592375366569,0.06451612903225806,42.3,-83.7,0.3,[0.49775064 0.54133706 0.67764186],[ 0.02689916 -0.91086116 -0.41183539],[ 0.19183003  0.19043592 -0.96277484],[0.4040646  0.2734554  0.87289973],-31.453303312885378,53.15989487451179,114.60712627329512,[0.6589155  0.43664849 0.23150776 0.56707373],[0.66284422 0.42697163 0.23284311 0.56931262]
1718050171.326499,0.7733333333333334,-26.22666666666667,-12.0,-3.231707317073171,-0.426829268292683,1.6463414634146343,-0.006591796875,-0.93310546875,-0.3134765625,0.34310850439882695,0.36656891495601174,0.26392961876832843,0.03225806451612903,0.05278592375366569,0.06451612903225806,42.3,-83.7,0.3,[0.49775064 0.54133706 0.67764186],[ 0.02680349 -0.90900788 -0.41591616],[ 0.19183003  0.19043592 -0.96277484],[0.4040646  0.2734554  0.87289973],-31.60987778576346,52.87612460237205,114.86560959885799,[0.66081761 0.43613278 0.22976009 0.56596694],[0.66430215 0.42476417 0.21633484 0.57574065]
1718050171.3575811,0.7333333333333334,-26.186666666666667,-12.0,-2.378048780487805,0.06097560975609757,1.0975609756097562,-0.001220703125,-0.916015625,-0.31689453125,0.3460410557184751,0.36656891495601174,0.26392961876832843,0.02932551319648094,0.04985337243401759,0.06744868035190615,42.3,-83.7,0.3,[0.48292861 0.55763792 0.67514436],[ 0.02545009 -0.90879958 -0.41645602],[ 0.19183003  0.19043592 -0.96277484],[0.4040646  0.2734554  0.87289973],-31.370906474742124,53.20041751574922,114.86143007171884,[0.66031132 0.43578667 0.23316245 0.56543277],[0.66382595 0.42453982 0.21751176 0.57601188]
1718050171.3828585,0.7733333333333334,-26.213333333333335,-12.013333333333334,-1.829268292682927,0.30487804878048785,-0.06097560975609757,-0.004638671875,-0.924560546875,-0.323974609375,0.3460410557184751,0.36656891495601174,0.26392961876832843,0.03225806451612903,0.04985337243401759,0.06451612903225806,42.3,-83.7,0.3,[0.48292861 0.55763792 0.67514436],[ 0.02680959 -0.90875266 -0.41647311],[ 0.19183003  0.19043592 -0.96277484],[0.4040646  0.2734554  0.87289973],-31.405727210498934,53.17673313369152,114.97048930764267,[0.66081877 0.43569084 0.23324196 0.56488073],[0.66590023 0.42424584 0.22300392 0.57171811]
1718050171.407324,0.76,-26.213333333333335,-11.986666666666668,-1.707317073170732,-0.3658536585365854,-0.12195121951219513,-0.010498046875,-0.9287109375,-0.314697265625,0.3460410557184751,0.36656891495601174,0.26392961876832843,0.03225806451612903,0.05278592375366569,0.06451612903225806,42.3,-83.7,0.3,[0.48292861 0.55763792 0.67514436],[ 0.02635782 -0.90911353 -0.41571366],[ 0.19183003  0.19043592 -0.96277484],[0.4040646  0.2734554  0.87289973],-31.362035796818528,53.23817671405731,114.88183580226388,[0.66028311 0.43581305 0.23354434 0.56528776],[0.66700719 0.42650563 0.22351128 0.56853941]
1718050171.434429,0.7333333333333334,-26.200000000000003,-12.013333333333334,-2.804878048780488,-1.8902439024390245,0.0,-0.0166015625,-0.9248046875,-0.32080078125,0.3460410557184751,0.36656891495601174,0.26392961876832843,0.02932551319648094,0.05278592375366569,0.06744868035190615,42.3,-83.7,0.3,[0.48292861 0.55763792 0.67514436],[ 0.02543449 -0.90870504 -0.41666323],[ 0.19183003  0.19043592 -0.96277484],[0.4040646  0.2734554  0.87289973],-31.379374552464892,53.185933656529485,114.87463797658533,[0.66040665 0.43576293 0.23307096 0.56537745],[0.6712885  0.4281298  0.21469598 0.56566975]
1718050171.4614875,0.7466666666666667,-26.213333333333335,-12.040000000000001,-3.414634146341464,-4.146341463414634,-0.1829268292682927,-0.01611328125,-0.92822265625,-0.320556640625,0.3460410557184751,0.36656891495601174,0.26392961876832843,0.02932551319648094,0.05278592375366569,0.06744868035190615,42.3,-83.7,0.3,[0.48292861 0.55763792 0.67514436],[ 0.02587578 -0.9084247  -0.41724695],[ 0.19183003  0.19043592 -0.96277484],[0.4040646  0.2734554  0.87289973],-31.415357110733446,53.13708064656746,114.95034126848839,[0.66085353 0.43566253 0.23284415 0.56502599],[0.67750225 0.43287159 0.2020339  0.55928097]
1718050171.4884186,0.76,-26.200000000000003,-12.08,-3.2926829268292686,-5.2439024390243905,-0.1829268292682927,-0.01318359375,-0.923583984375,-0.326416015625,0.34310850439882695,0.36363636363636365,0.2668621700879765,0.03225806451612903,0.05278592375366569,0.06451612903225806,42.3,-83.7,0.3,[0.47622433 0.53614908 0.69696094],[ 0.02633332 -0.90780671 -0.41856126],[ 0.19183003  0.19043592 -0.96277484],[0.4040646  0.2734554  0.87289973],-28.087508700329373,53.625867525180155,111.12349841196254,[0.65216176 0.42608393 0.23842603 0.57990563],[0.67563973 0.43241309 0.19732414 0.56355396]
1718050171.5155048,0.7466666666666667,-26.213333333333335,-12.106666666666667,-3.414634146341464,-8.414634146341465,-1.1585365853658538,-0.0146484375,-0.932373046875,-0.3125,0.34310850439882695,0.36363636363636365,0.26392961876832843,0.03225806451612903,0.05278592375366569,0.06451612903225806,42.3,-83.7,0.3,[0.48071288 0.54831017 0.68430336],[ 0.0258508  -0.90754784 -0.41915231],[ 0.19183003  0.19043592 -0.96277484],[0.4040646  0.2734554  0.87289973],-30.104728511558115,53.25731634642445,113.44792185577465,[0.65785035 0.43157135 0.23448267 0.57096144],[0.68425525 0.44333802 0.18388148 0.54902983]
1718050171.5434813,0.7733333333333334,-26.22666666666667,-12.093333333333334,-3.4756097560975614,-10.30487804878049,-2.25609756097561,-0.010986328125,-0.908447265625,-0.34375,0.34310850439882695,0.36070381231671556,0.26392961876832843,0.02932551319648094,0.05278592375366569,0.06451612903225806,42.3,-83.7,0.3,[0.46304602 0.55524408 0.69086351],[ 0.02676736 -0.90778258 -0.41858607],[ 0.19183003  0.19043592 -0.96277484],[0.4040646  0.2734554  0.87289973],-28.34610190305914,53.876390339997286,111.76572140870586,[0.65338029 0.42707908 0.2412103  0.57664135],[0.69011741 0.44862244 0.17893839 0.53894056]
1718050171.569448,0.8,-26.293333333333337,-12.106666666666667,-0.6707317073170732,-11.76829268292683,-5.548780487804878,0.022705078125,-0.908935546875,-0.313232421875,0.34310850439882695,0.35777126099706746,0.26392961876832843,0.02932551319648094,0.04985337243401759,0.06451612903225806,42.3,-83.7,0.3,[0.44474035 0.56212022 0.69729971],[ 0.02762646 -0.9079898  -0.4180805 ],[ 0.19183003  0.19043592 -0.96277484],[0.4040646  0.2734554  0.87289973],-26.425478554321643,54.48659214210602,109.90782066408708,[0.64852251 0.42227711 0.24815911 0.58268143],[0.69362526 0.45839985 0.19181077 0.52149995]
1718050171.5965993,0.88,-26.32,-12.053333333333335,0.0,-9.51219512195122,-4.634146341463415,-0.01953125,-0.9296875,-0.29638671875,0.34310850439882695,0.3548387096774194,0.26392961876832843,0.02932551319648094,0.04985337243401759,0.06158357771260997,42.3,-83.7,0.3,[0.42578836 0.56891859 0.70358788],[ 0.0303846  -0.90877583 -0.41617697],[ 0.19183003  0.19043592 -0.96277484],[0.4040646  0.2734554  0.87289973],-24.316375410781188,55.14458775168833,107.92041190975813,[0.64334043 0.41717893 0.2560439  0.5886564 ],[0.68678938 0.45543984 0.20951024 0.52630824]
1718050171.623794,0.9333333333333333,-26.32,-12.040000000000001,-2.439024390243903,-9.756097560975611,-3.1097560975609757,-0.033935546875,-0.953125,-0.293701171875,0.34310850439882695,0.3519061583577713,0.26099706744868034,0.02932551319648094,0.04985337243401759,0.06158357771260997,42.3,-83.7,0.3,[0.41193972 0.58758866 0.69645189],[ 0.03223041 -0.90889748 -0.41577225],[ 0.19183003  0.19043592 -0.96277484],[0.4040646  0.2734554  0.87289973],-24.53963658763458,55.43722259351193,108.58719154016208,[0.64472288 0.41802696 0.25926888 0.5851201 ],[0.68717422 0.44787442 0.20726312 0.53314359]
1718050171.6509445,0.9466666666666668,-26.373333333333335,-12.053333333333335,-4.451219512195122,-10.121951219512196,-0.24390243902439027,-0.0087890625,-0.935791015625,-0.30615234375,0.34310850439882695,0.3519061583577713,0.26392961876832843,0.02932551319648094,0.04985337243401759,0.06158357771260997,42.3,-83.7,0.3,[0.40618495 0.57561789 0.70970263],[ 0.03262949 -0.90902991 -0.41545149],[ 0.19183003  0.19043592 -0.96277484],[0.4040646  0.2734554  0.87289973],-22.069480819296782,55.71002246532785,105.78356489667935,[0.6381017  0.41163977 0.2636318  0.59487578],[0.68038458 0.43841564 0.19556614 0.55373499]
1718050171.6776547,0.9466666666666668,-26.346666666666668,-12.120000000000001,-5.0,-7.195121951219513,1.6463414634146343,0.00732421875,-0.92822265625,-0.2919921875,0.34310850439882695,0.3519061583577713,0.26392961876832843,0.02932551319648094,0.04985337243401759,0.06158357771260997,42.3,-83.7,0.3,[0.40618495 0.57561789 0.70970263],[ 0.0326255  -0.90799984 -0.41769831],[ 0.19183003  0.19043592 -0.96277484],[0.4040646  0.2734554  0.87289973],-22.220310768058045,55.56629264698637,105.98929912514791,[0.63921429 0.41144164 0.26265154 0.59425166],[0.67023591 0.42733719 0.19449955 0.57474923]
1718050171.708842,0.8933333333333334,-26.373333333333335,-12.173333333333334,-3.780487804878049,-2.25609756097561,1.524390243902439,0.025634765625,-0.90625,-0.3359375,0.34310850439882695,0.3519061583577713,0.26099706744868034,0.02932551319648094,0.0469208211143695,0.06158357771260997,42.3,-83.7,0.3,[0.41193972 0.58758866 0.69645189],[ 0.03073995 -0.90751687 -0.41888923],[ 0.19183003  0.19043592 -0.96277484],[0.4040646  0.2734554  0.87289973],-24.677409352170507,55.253840345961216,108.72054216436041,[0.64566718 0.41782295 0.25783465 0.58485825],[0.66190419 0.41710105 0.21156911 0.58578841]
1718050171.7320445,0.8933333333333334,-26.346666666666668,-12.16,-1.2804878048780488,0.24390243902439027,-0.6707317073170732,0.01513671875,-0.908935546875,-0.323974609375,0.34310850439882695,0.3519061583577713,0.26392961876832843,0.02932551319648094,0.04985337243401759,0.06158357771260997,42.3,-83.7,0.3,[0.40618495 0.57561789 0.70970263],[ 0.03077149 -0.90752942 -0.41885973],[ 0.19183003  0.19043592 -0.96277484],[0.4040646  0.2734554  0.87289973],-22.21240298697329,55.52199714365351,105.9032544685268,[0.63897706 0.41142014 0.26209479 0.59476727],[0.65254077 0.4079266  0.24131084 0.5912322 ]
1718050171.758774,1.0666666666666667,-26.333333333333336,-12.146666666666668,0.5487804878048781,-6.585365853658537,-3.2926829268292686,0.019287109375,-0.939453125,-0.286865234375,0.34310850439882695,0.3489736070381232,0.26392961876832843,0.02932551319648094,0.04985337243401759,0.05865102639296188,42.3,-83.7,0.3,[0.38592787 0.58219549 0.71561728],[ 0.03675706 -0.90743992 -0.41857102],[ 0.19183003  0.19043592 -0.96277484],[0.4040646  0.2734554  0.87289973],-20.00344384910297,55.9760112562032,104.01529884663981,[0.63517524 0.40534847 0.26981584 0.59953686],[0.65883156 0.42411995 0.24542968 0.57081302]
1718050171.7857304,1.4133333333333333,-26.373333333333335,-12.146666666666668,-2.804878048780488,0.6097560975609757,-2.073170731707317,0.013671875,-0.92919921875,-0.291015625,0.34310850439882695,0.3489736070381232,0.26392961876832843,0.02932551319648094,0.04985337243401759,0.06158357771260997,42.3,-83.7,0.3,[0.38592787 0.58219549 0.71561728],[ 0.04861751 -0.90722101 -0.41783536],[ 0.19183003  0.19043592 -0.96277484],[0.4040646  0.2734554  0.87289973],-20.553914870451845,55.83488486250222,105.23918402433702,[0.64017075 0.4049528  0.27036611 0.5942195 ],[0.65881395 0.39834886 0.25921766 0.58317113]
1718050171.8158321,1.4533333333333334,-26.346666666666668,-12.186666666666667,-3.658536585365854,2.682926829268293,0.7926829268292683,-0.052490234375,-0.927734375,-0.310302734375,0.34310850439882695,0.3489736070381232,0.26392961876832843,0.02932551319648094,0.04985337243401759,0.06158357771260997,42.3,-83.7,0.3,[0.38592787 0.58219549 0.71561728],[ 0.05000288 -0.90647419 -0.41929019],[ 0.19183003  0.19043592 -0.96277484],[0.4040646  0.2734554  0.87289973],-20.725071614012084,55.721695946579054,105.52678340218415,[0.64151241 0.40477742 0.26976214 0.59316562],[0.64954038 0.38282217 0.26217699 0.60233522]
1718050171.8396678,1.4133333333333333,-25.94666666666667,-12.48,-5.975609756097562,1.0365853658536586,3.963414634146342,-0.02587890625,-0.939453125,-0.326904296875,0.34310850439882695,0.3519061583577713,0.26392961876832843,0.02932551319648094,0.04985337243401759,0.06158357771260997,42.3,-83.7,0.3,[0.40618495 0.57561789 0.70970263],[ 0.04902866 -0.90009212 -0.43293228],[ 0.19183003  0.19043592 -0.96277484],[0.4040646  0.2734554  0.87289973],-23.91971822591467,54.29879056085164,109.02672691821087,[0.6539158  0.40928819 0.25644416 0.5823347 ],[0.65030273 0.38134725 0.23574738 0.61327302]
1718050171.869153,1.0,-26.666666666666668,-12.293333333333335,-7.134146341463415,-1.402439024390244,4.451219512195122,-0.002685546875,-0.92529296875,-0.336181640625,0.34310850439882695,0.3548387096774194,0.26392961876832843,0.02932551319648094,0.04985337243401759,0.06158357771260997,42.3,-83.7,0.3,[0.42578836 0.56891859 0.70358788],[ 0.03403572 -0.90761919 -0.41841245],[ 0.19183003  0.19043592 -0.96277484],[0.4040646  0.2734554  0.87289973],-24.599084523261702,54.93670937907393,108.46639248364262,[0.64597449 0.41677321 0.25520339 0.58641989],[0.64953981 0.389423   0.21198321 0.61766567]
1718050171.8937943,0.4266666666666667,-26.48,-12.573333333333334,-7.317073170731708,-1.0365853658536586,3.231707317073171,0.005615234375,-0.91552734375,-0.334716796875,0.34310850439882695,0.3548387096774194,0.26392961876832843,0.02932551319648094,0.04985337243401759,0.06158357771260997,42.3,-83.7,0.3,[0.42578836 0.56891859 0.70358788],[ 0.01455377 -0.90324352 -0.42888149],[ 0.19183003  0.19043592 -0.96277484],[0.4040646  0.2734554  0.87289973],-24.454409003614092,54.56639927072851,107.4791195660161,[0.64295712 0.41674194 0.24990283 0.59201425],[0.6515318  0.38904733 0.20246454 0.61899645]
1718050171.920774,1.2133333333333334,-26.22666666666667,-12.493333333333334,-6.219512195121951,-0.30487804878048785,3.1707317073170733,-0.005126953125,-0.927978515625,-0.33154296875,0.34310850439882695,0.3548387096774194,0.2668621700879765,0.02932551319648094,0.05278592375366569,0.06451612903225806,42.3,-83.7,0.3,[0.42012647 0.55646148 0.71682939],[ 0.04173022 -0.90201471 -0.42968367],[ 0.19183003  0.19043592 -0.96277484],[0.4040646  0.2734554  0.87289973],-23.22321584823452,54.33326576378231,107.46435434767241,[0.64827201 0.40894574 0.25465662 0.58962428],[0.65297602 0.38525038 0.20783812 0.61806777]
1718050171.947938,0.9866666666666667,-26.293333333333337,-12.933333333333334,-7.073170731707318,-1.0365853658536586,2.987804878048781,0.01171875,-0.9111328125,-0.34228515625,0.34310850439882695,0.35777126099706746,0.2668621700879765,0.02932551319648094,0.05278592375366569,0.06451612903225806,42.3,-83.7,0.3,[0.43948765 0.54976634 0.71035736],[ 0.03365319 -0.89681215 -0.44112971],[ 0.19183003  0.19043592 -0.96277484],[0.4040646  0.2734554  0.87289973],-25.669446759739635,53.136216360001185,109.75008119370823,[0.65608965 0.41340944 0.2423606  0.58300973],[0.661123   0.38576617 0.19750267 0.61244881]
1718050171.9751859,0.44,-26.506666666666668,-13.053333333333335,-7.073170731707318,0.6097560975609757,0.6707317073170732,0.01806640625,-0.90576171875,-0.341064453125,0.3460410557184751,0.36070381231671556,0.26392961876832843,0.02932551319648094,0.05278592375366569,0.06451612903225806,42.3,-83.7,0.3,[0.44776019 0.57145303 0.68771524],[ 0.01489015 -0.89701894 -0.44174122],[ 0.19183003  0.19043592 -0.96277484],[0.4040646  0.2734554  0.87289973],-28.87914204472813,52.79974849427325,112.55834716477302,[0.65992628 0.4248145  0.23414824 0.57376349],[0.67250361 0.38509805 0.19887757 0.59990508]
1718050172.0019443,0.8533333333333334,-26.42666666666667,-12.72,-8.963414634146343,1.829268292682927,0.426829268292683,0.011962890625,-0.9140625,-0.337158203125,0.3460410557184751,0.36363636363636365,0.2668621700879765,0.03225806451612903,0.05571847507331378,0.06451612903225806,42.3,-83.7,0.3,[0.46104082 0.55283962 0.69412514],[ 0.02908329 -0.90067316 -0.4335228 ],[ 0.19183003  0.19043592 -0.96277484],[0.4040646  0.2734554  0.87289973],-28.57598128417551,52.9128073508651,112.44932006194915,[0.6600273  0.42367707 0.23603466 0.57371539],[0.68003337 0.3732321  0.19996882 0.59855233]
1718050172.0290017,1.2533333333333334,-26.62666666666667,-12.920000000000002,-10.609756097560977,2.804878048780488,0.9756097560975611,-0.00439453125,-0.9208984375,-0.34033203125,0.3489736070381232,0.36656891495601174,0.2668621700879765,0.03225806451612903,0.05571847507331378,0.06451612903225806,42.3,-83.7,0.3,[0.46370118 0.5622078  0.68476537],[ 0.04231056 -0.89887443 -0.4361589 ],[ 0.19183003  0.19043592 -0.96277484],[0.4040646  0.2734554  0.87289973],-30.50978975835531,52.24372009089321,115.44965349140465,[0.67052696 0.42655897 0.23299041 0.56049666],[0.68965567 0.36230373 0.1961271  0.59552097]
1718050172.0565112,0.8666666666666667,-26.173333333333336,-13.333333333333334,-12.195121951219512,2.1341463414634148,1.0365853658536586,0.000244140625,-0.92236328125,-0.3525390625,0.3519061583577713,0.3724340175953079,0.2668621700879765,0.03225806451612903,0.05571847507331378,0.06451612903225806,42.3,-83.7,0.3,[0.4830551  0.56426985 0.66952021],[ 0.0294919  -0.89065537 -0.45372154],[ 0.19183003  0.19043592 -0.96277484],[0.4040646  0.2734554  0.87289973],-33.76698106580882,50.218649265860336,118.74831402992353,[0.68282547 0.43315559 0.2154461  0.54745647],[0.70418142 0.35856461 0.17694193 0.5867295 ]
1718050172.0832295,0.7733333333333334,-26.28,-13.64,-14.02439024390244,1.5853658536585367,-0.24390243902439027,0.009033203125,-0.90673828125,-0.358154296875,0.3548387096774194,0.375366568914956,0.2697947214076246,0.03225806451612903,0.05865102639296188,0.06744868035190615,42.3,-83.7,0.3,[0.48113618 0.5620283  0.67277944],[ 0.02610935 -0.88726786 -0.46051498],[ 0.19183003  0.19043592 -0.96277484],[0.4040646  0.2734554  0.87289973],-33.46726049317233,49.90229926012493,118.40356859773378,[0.68363726 0.43108101 0.21334868 0.54890036],[0.71807196 0.34913412 0.16412582 0.57925879]
1718050172.1102462,1.1466666666666667,-26.520000000000003,-13.933333333333334,-12.926829268292684,2.25609756097561,-0.7926829268292683,-0.008056640625,-0.901611328125,-0.34326171875,0.36070381231671556,0.3812316715542522,0.2697947214076246,0.03519061583577713,0.06158357771260997,0.06451612903225806,42.3,-83.7,0.3,[0.48500418 0.5787024  0.65564814],[ 0.03824852 -0.88460812 -0.46476394],[ 0.19183003  0.19043592 -0.96277484],[0.4040646  0.2734554  0.87289973],-36.233785921982935,48.658325500519,122.49234358746,[0.69760976 0.4367602  0.20697249 0.52890788],[0.73153672 0.35008347 0.16277158 0.56196174]
1718050172.1372597,1.3333333333333335,-26.386666666666667,-13.813333333333334,-14.634146341463415,2.0121951219512195,0.24390243902439027,-0.009765625,-0.91796875,-0.353271484375,0.36363636363636365,0.39002932551319647,0.2727272727272727,0.03519061583577713,0.06158357771260997,0.06744868035190615,42.3,-83.7,0.3,[0.5138665  0.56308836 0.64720377],[ 0.04472254 -0.88505898 -0.46332547],[ 0.19183003  0.19043592 -0.96277484],[0.4040646  0.2734554  0.87289973],-37.855349928118095,47.695448227429075,124.18353010902631,[0.70316373 0.44118232 0.19910355 0.52084231],[0.74032092 0.34791463 0.15107646 0.55502815]
1718050172.1641924,1.5333333333333334,-26.12,-14.360000000000001,-15.060975609756099,0.9146341463414634,0.5487804878048781,0.005615234375,-0.91357421875,-0.35595703125,0.36656891495601174,0.39296187683284456,0.2727272727272727,0.03519061583577713,0.06158357771260997,0.06744868035190615,42.3,-83.7,0.3,[0.51504466 0.57093345 0.63934654],[ 0.05137393 -0.87514373 -0.48112802],[ 0.19183003  0.19043592 -0.96277484],[0.4040646  0.2734554  0.87289973],-39.30660450871844,45.793150309501115,126.86929265161072,[0.71743195 0.44098038 0.18915974 0.50502109],[0.75336668 0.34820346 0.13518031 0.54122018]
1718050172.193474,1.6666666666666667,-26.346666666666668,-14.546666666666667,-15.000000000000002,0.6707317073170732,0.6097560975609757,0.00390625,-0.90966796875,-0.374267578125,0.375366568914956,0.40175953079178883,0.2785923753665689,0.03812316715542522,0.06451612903225806,0.06744868035190615,42.3,-83.7,0.3,[0.51263609 0.57453113 0.63805817],[ 0.05529414 -0.87408971 -0.48260722],[ 0.19183003  0.19043592 -0.96277484],[0.4040646  0.2734554  0.87289973],-39.49513548282917,45.60657287432707,127.41143304381207,[0.71984626 0.44083014 0.18905767 0.5017443 ],[0.76026598 0.34836747 0.12940696 0.5328129 ]
1718050172.2183652,1.8133333333333335,-26.30666666666667,-15.146666666666668,-15.54878048780488,0.853658536585366,-0.3658536585365854,0.000732421875,-0.898193359375,-0.375244140625,0.3812316715542522,0.40762463343108507,0.2785923753665689,0.03812316715542522,0.06451612903225806,0.06744868035190615,42.3,-83.7,0.3,[0.51469751 0.58871468 0.62329888],[ 0.05963008 -0.86507459 -0.49808654],[ 0.19183003  0.19043592 -0.96277484],[0.4040646  0.2734554  0.87289973],-41.54135163459873,43.45120489704341,130.77014135759396,[0.73498396 0.44365987 0.17743592 0.48112472],[0.77581252 0.34645498 0.12161366 0.51312181]
1718050172.2458806,1.9333333333333333,-26.413333333333334,-14.866666666666667,-15.609756097560977,1.1585365853658538,0.30487804878048785,-0.008056640625,-0.90380859375,-0.371337890625,0.3870967741935484,0.41642228739002934,0.2785923753665689,0.04105571847507331,0.06451612903225806,0.06744868035190615,42.3,-83.7,0.3,[0.52947347 0.59529426 0.60438612],[ 0.06365645 -0.86967887 -0.48949618],[ 0.19183003  0.19043592 -0.96277484],[0.4040646  0.2734554  0.87289973],-43.506060888607486,42.90684756121921,132.89519238728042,[0.73826375 0.45193478 0.17357191 0.46967476],[0.78253341 0.34951441 0.11786362 0.5015868 ]
1718050172.2724397,2.04,-26.453333333333337,-15.346666666666668,-17.804878048780488,0.06097560975609757,1.4634146341463417,-0.01123046875,-0.9130859375,-0.383544921875,0.39589442815249265,0.4252199413489736,0.28152492668621704,0.04105571847507331,0.06158357771260997,0.06744868035190615,42.3,-83.7,0.3,[0.5289927  0.60565164 0.59443487],[ 0.06655656 -0.86306025 -0.50069675],[ 0.19183003  0.19043592 -0.96277484],[0.4040646  0.2734554  0.87289973],-44.666583067220316,41.31596132396624,135.0246901993234,[0.74842811 0.45333954 0.16551593 0.45490999],[0.79288232 0.34611215 0.10047464 0.49137446]
1718050172.299316,2.106666666666667,-26.413333333333334,-15.680000000000001,-12.560975609756099,3.9024390243902443,8.170731707317074,0.088134765625,-0.858154296875,-0.381103515625,0.40175953079178883,0.4310850439882698,0.28152492668621704,0.04398826979472141,0.06158357771260997,0.07038123167155426,42.3,-83.7,0.3,[0.52986276 0.61684784 0.58201735],[ 0.06842263 -0.85788119 -0.50927223],[ 0.19183003  0.19043592 -0.96277484],[0.4040646  0.2734554  0.87289973],-45.96250320894104,39.74118324015538,137.2005647846453,[0.75770825 0.45604604 0.1573712  0.43947074],[0.77498828 0.3603066  0.10643759 0.50817651]
1718050172.3264902,2.3333333333333335,-26.46666666666667,-16.213333333333335,-17.31707317073171,1.2195121951219514,1.3414634146341464,-0.107177734375,-0.85595703125,-0.487548828125,0.41055718475073316,0.44281524926686217,0.28152492668621704,0.0469208211143695,0.06158357771260997,0.06744868035190615,42.3,-83.7,0.3,[0.54214135 0.6260109  0.56052931],[ 0.07496516 -0.85031912 -0.52090078],[ 0.19183003  0.19043592 -0.96277484],[0.4040646  0.2734554  0.87289973],-47.84433266144461,37.16168425992729,140.3688817999645,[0.77134561 0.4603391  0.14372852 0.4152782 ],[0.80419775 0.35395057 0.08782463 0.46933123]
1718050172.35335,2.4000000000000004,-26.44,-16.62666666666667,-25.0609756097561,-0.30487804878048785,-0.5487804878048781,-0.014892578125,-0.865478515625,-0.427001953125,0.4222873900293255,0.45454545454545453,0.2844574780058651,0.05278592375366569,0.06158357771260997,0.06744868035190615,42.3,-83.7,0.3,[0.5410542  0.63833722 0.54752712],[ 0.07661518 -0.84404394 -0.53077297],[ 0.19183003  0.19043592 -0.96277484],[0.4040646  0.2734554  0.87289973],-48.932143441605,35.3313149854924,142.50374563884822,[0.78087234 0.46246302 0.13472183 0.39776423],[0.83861001 0.32364174 0.05870659 0.43421516]
1718050172.380326,2.506666666666667,-26.44,-17.026666666666667,-22.98780487804878,-1.5853658536585367,0.1829268292682927,0.029296875,-0.891845703125,-0.41552734375,0.4340175953079179,0.4662756598240469,0.2844574780058651,0.05865102639296188,0.06158357771260997,0.06744868035190615,42.3,-83.7,0.3,[0.54101418 0.65466119 0.52794165],[ 0.07945612 -0.83809302 -0.53970993],[ 0.19183003  0.19043592 -0.96277484],[0.4040646  0.2734554  0.87289973],-50.40539334917971,33.0621142108225,145.24623700244496,[0.79163421 0.46647869 0.12378205 0.37468775],[0.85404812 0.32317788 0.0429937  0.40535096]
1718050172.4099545,2.6933333333333334,-26.44,-17.493333333333336,-23.10975609756098,-0.30487804878048785,-0.5487804878048781,0.02197265625,-0.880859375,-0.429443359375,0.44574780058651026,0.4780058651026393,0.2873900293255132,0.06744868035190615,0.06158357771260997,0.07038123167155426,42.3,-83.7,0.3,[0.53973794 0.66423804 0.51717578],[ 0.08464981 -0.83099291 -0.54980469],[ 0.19183003  0.19043592 -0.96277484],[0.4040646  0.2734554  0.87289973],-51.06340773647856,31.299452799495683,147.1123459641016,[0.80044359 0.46696085 0.11597165 0.35747475],[0.86711947 0.31814621 0.04190318 0.38096054]
1718050172.436575,2.9066666666666667,-26.400000000000002,-17.96,-24.390243902439025,1.0975609756097562,-2.0121951219512195,0.002685546875,-0.889404296875,-0.457275390625,0.4633431085043988,0.49266862170087977,0.2873900293255132,0.0967741935483871,0.06158357771260997,0.06744868035190615,42.3,-83.7,0.3,[0.52993554 0.68840645 0.49524224],[ 0.09065775 -0.82340527 -0.5601651 ],[ 0.19183003  0.19043592 -0.96277484],[0.4040646  0.2734554  0.87289973],-52.47936987964179,28.54576707604814,150.45224912404095,[0.81273147 0.47070472 0.10455973 0.32706558],[0.88380593 0.30910639 0.04333735 0.34851427]
1718050172.4614365,3.0933333333333337,-26.413333333333334,-18.32,-19.512195121951223,1.7682926829268295,-2.0121951219512195,-0.0146484375,-0.87255859375,-0.442138671875,0.4750733137829912,0.501466275659824,0.2903225806451613,0.10850439882697947,0.06158357771260997,0.06744868035190615,42.3,-83.7,0.3,[0.51993238 0.70042723 0.4889499 ],[ 0.09578879 -0.81792068 -0.56730086],[ 0.19183003  0.19043592 -0.96277484],[0.4040646  0.2734554  0.87289973],-52.840244940269976,27.256323449040302,152.02484717958654,[0.81919345 0.47060389 0.10023234 0.31210184],[0.88628803 0.3229123  0.05622633 0.3271999 ]
1718050172.4883378,3.266666666666667,-26.400000000000002,-18.693333333333335,-18.29268292682927,0.853658536585366,-2.0121951219512195,0.007568359375,-0.863037109375,-0.4580078125,0.4868035190615836,0.5131964809384164,0.2903225806451613,0.10557184750733138,0.06158357771260997,0.06744868035190615,42.3,-83.7,0.3,[0.52008193 0.71004891 0.47470552],[ 0.10047374 -0.81199187 -0.57495586],[ 0.19183003  0.19043592 -0.96277484],[0.4040646  0.2734554  0.87289973],-53.47824723099355,25.440355594964355,153.82782538775095,[0.82609228 0.47201192 0.09216661 0.29373732],[0.88927705 0.33485389 0.05597331 0.30647381]
1718050172.5154233,3.4800000000000004,-26.42666666666667,-19.026666666666667,-16.34146341463415,2.378048780487805,-2.378048780487805,-0.007080078125,-0.859130859375,-0.458251953125,0.49853372434017595,0.5219941348973607,0.2932551319648094,0.10263929618768329,0.06158357771260997,0.06744868035190615,42.3,-83.7,0.3,[0.51089093 0.72025852 0.46927403],[ 0.10626298 -0.80694721 -0.5809857 ],[ 0.19183003  0.19043592 -0.96277484],[0.4040646  0.2734554  0.87289973],-53.713781906215516,24.328847436807237,155.20928351489124,[0.83134324 0.47167888 0.08881075 0.2801787 ],[0.89039201 0.34445168 0.06627752 0.29010758]
1718050172.542442,3.6,-26.373333333333335,-19.240000000000002,-7.560975609756098,1.0975609756097562,-0.5487804878048781,-0.0166015625,-0.841796875,-0.453125,0.501466275659824,0.5278592375366569,0.2932551319648094,0.10263929618768329,0.06451612903225806,0.06744868035190615,42.3,-83.7,0.3,[0.51934141 0.71759916 0.46404304],[ 0.10961099 -0.80300201 -0.58580986],[ 0.19183003  0.19043592 -0.96277484],[0.4040646  0.2734554  0.87289973],-53.71937713245757,23.680405270892845,155.5526622919593,[0.83371152 0.47092539 0.08527171 0.2754689 ],[0.87349283 0.38825251 0.07312064 0.2844708 ]
1718050172.5694807,3.6533333333333338,-26.373333333333335,-19.333333333333336,-6.7682926829268295,0.0,0.1829268292682927,-0.0048828125,-0.851318359375,-0.462158203125,0.5043988269794721,0.530791788856305,0.2932551319648094,0.09970674486803519,0.06451612903225806,0.06744868035190615,42.3,-83.7,0.3,[0.51933665 0.71961397 0.46091775],[ 0.11102986 -0.8015221  -0.58756676],[ 0.19183003  0.19043592 -0.96277484],[0.4040646  0.2734554  0.87289973],-53.823633442039366,23.29406946589594,155.9355570608729,[0.83510866 0.47108717 0.08365319 0.27142686],[0.86505036 0.41013499 0.06952749 0.28043378]
1718050172.5965264,3.666666666666667,-26.386666666666667,-19.44,-4.207317073170732,0.48780487804878053,0.853658536585366,-0.01220703125,-0.857177734375,-0.466064453125,0.5073313782991202,0.533724340175953,0.2961876832844575,0.10263929618768329,0.06451612903225806,0.06744868035190615,42.3,-83.7,0.3,[0.51860511 0.71860032 0.46331664],[ 0.11118187 -0.8001052  -0.58946608],[ 0.19183003  0.19043592 -0.96277484],[0.4040646  0.2734554  0.87289973],-53.661034747397665,23.27892483173389,155.8652358068654,[0.83564511 0.46994083 0.08363439 0.27176857],[0.85541223 0.42848566 0.07262838 0.28177132]
1718050172.6238046,3.6533333333333338,-26.360000000000003,-19.453333333333333,-2.7439024390243905,0.12195121951219513,1.402439024390244,-0.006103515625,-0.861572265625,-0.473388671875,0.5073313782991202,0.533724340175953,0.2932551319648094,0.09970674486803519,0.06451612903225806,0.06744868035190615,42.3,-83.7,0.3,[0.51932505 0.72157481 0.45785509],[ 0.1108278  -0.79965901 -0.59013783],[ 0.19183003  0.19043592 -0.96277484],[0.4040646  0.2734554  0.87289973],-53.92201773415299,22.801877464276814,156.30650511978212,[0.83671866 0.47114213 0.08119582 0.26708467],[0.84836443 0.44337288 0.07141896 0.28035266]
1718050172.6514626,3.64,-26.373333333333335,-19.493333333333336,-2.804878048780488,-0.24390243902439027,1.402439024390244,-0.010009765625,-0.8564453125,-0.4736328125,0.5073313782991202,0.533724340175953,0.2932551319648094,0.09970674486803519,0.06451612903225806,0.06744868035190615,42.3,-83.7,0.3,[0.51932505 0.72157481 0.45785509],[ 0.11031355 -0.79926812 -0.5907634 ],[ 0.19183003  0.19043592 -0.96277484],[0.4040646  0.2734554  0.87289973],-53.91322705364672,22.729947049939664,156.3229315518475,[0.83695838 0.47100874 0.08073548 0.26670812],[0.84607432 0.44920349 0.06887014 0.27862409]
1718050172.6777172,3.626666666666667,-26.346666666666668,-19.48,-2.682926829268293,-0.30487804878048785,0.6097560975609757,0.001708984375,-0.85107421875,-0.470458984375,0.5102639296187683,0.5366568914956011,0.2932551319648094,0.09970674486803519,0.06158357771260997,0.06744868035190615,42.3,-83.7,0.3,[0.51930705 0.72348369 0.45485332],[ 0.11001169 -0.79920256 -0.59090837],[ 0.19183003  0.19043592 -0.96277484],[0.4040646  0.2734554  0.87289973],-54.066638106600536,22.478266746578054,156.56994221246532,[0.83747444 0.47175648 0.07947768 0.26413193],[0.84642557 0.45220527 0.06884449 0.27264371]
1718050172.705045,3.6,-26.373333333333335,-19.506666666666668,-3.4756097560975614,-0.3658536585365854,0.30487804878048785,-0.0146484375,-0.862060546875,-0.468994140625,0.5102639296187683,0.5366568914956011,0.2932551319648094,0.09970674486803519,0.06158357771260997,0.06744868035190615,42.3,-83.7,0.3,[0.51930705 0.72348369 0.45485332],[ 0.10908977 -0.79918357 -0.59110494],[ 0.19183003  0.19043592 -0.96277484],[0.4040646  0.2734554  0.87289973],-54.07381243408105,22.439603040406745,156.55610461532262,[0.83750087 0.47178786 0.07910948 0.26410262],[0.84887344 0.44984521 0.06800767 0.26912476]
1718050172.7317212,3.626666666666667,-26.373333333333335,-19.546666666666667,-2.073170731707317,1.3414634146341464,2.1341463414634148,0.03173828125,-0.854736328125,-0.46533203125,0.5073313782991202,0.5366568914956011,0.2961876832844575,0.09970674486803519,0.06451612903225806,0.06744868035190615,42.3,-83.7,0.3,[0.52670959 0.71396435 0.46133709],[ 0.1098094  -0.79854045 -0.59184039],[ 0.19183003  0.19043592 -0.96277484],[0.4040646  0.2734554  0.87289973],-53.6046568461418,23.04605867573738,155.6911971814579,[0.83600753 0.46946204 0.08127909 0.27219571],[0.84235595 0.45181345 0.07426178 0.28422922]
1718050172.758752,3.64,-26.333333333333336,-19.546666666666667,-4.085365853658537,0.9756097560975611,0.7317073170731708,-0.049560546875,-0.860595703125,-0.493408203125,0.5102639296187683,0.5366568914956011,0.2932551319648094,0.09970674486803519,0.06158357771260997,0.06744868035190615,42.3,-83.7,0.3,[0.51930705 0.72348369 0.45485332],[ 0.11031487 -0.79806546 -0.59238682],[ 0.19183003  0.19043592 -0.96277484],[0.4040646  0.2734554  0.87289973],-54.02497515697943,22.339646193349772,156.6469033083217,[0.83813725 0.47128901 0.07883341 0.26305497],[0.84799765 0.44505684 0.0736499  0.2782087 ]
1718050172.7857738,3.6533333333333338,-26.386666666666667,-19.613333333333333,-5.609756097560976,0.12195121951219513,2.0121951219512195,-0.01123046875,-0.880126953125,-0.458251953125,0.5102639296187683,0.5395894428152492,0.2961876832844575,0.10263929618768329,0.06158357771260997,0.06744868035190615,42.3,-83.7,0.3,[0.52662424 0.71598081 0.45829946],[ 0.11043937 -0.79766243 -0.59290623],[ 0.19183003  0.19043592 -0.96277484],[0.4040646  0.2734554  0.87289973],-53.72745409086346,22.722411342751958,156.01290572368802,[0.83701394 0.46986292 0.07983934 0.26881625],[0.85128233 0.43656696 0.0653712  0.28364465]
1718050172.8127878,3.986666666666667,-26.32,-19.64,-4.451219512195122,-1.0365853658536586,3.1097560975609757,0.003173828125,-0.85888671875,-0.469482421875,0.5131964809384164,0.5425219941348973,0.2932551319648094,0.10263929618768329,0.06158357771260997,0.06744868035190615,42.3,-83.7,0.3,[0.52713634 0.72081073 0.45006574],[ 0.12051156 -0.79561816 -0.59369075],[ 0.19183003  0.19043592 -0.96277484],[0.4040646  0.2734554  0.87289973],-53.98003130695083,22.24742315061222,156.94298375081468,[0.83920629 0.47068328 0.07944965 0.26053369],[0.85011899 0.44096616 0.05606542 0.28231758]
1718050172.839728,3.7733333333333334,-26.30666666666667,-19.706666666666667,-4.878048780487806,-0.6097560975609757,2.5,0.0078125,-0.838623046875,-0.486083984375,0.5131964809384164,0.5425219941348973,0.2932551319648094,0.10263929618768329,0.06158357771260997,0.06744868035190615,42.3,-83.7,0.3,[0.52713634 0.72081073 0.45006574],[ 0.11404893 -0.7951185  -0.59563362],[ 0.19183003  0.19043592 -0.96277484],[0.4040646  0.2734554  0.87289973],-54.01442026675679,21.924238220727798,156.86999971037145,[0.83962242 0.47073147 0.07660615 0.25995689],[0.85174582 0.43987927 0.05335689 0.27962176]
1718050172.8669252,3.3600000000000003,-26.346666666666668,-19.706666666666667,-3.9024390243902443,-0.853658536585366,0.9756097560975611,0.005615234375,-0.847900390625,-0.480712890625,0.5161290322580645,0.5425219941348973,0.2961876832844575,0.10263929618768329,0.06158357771260997,0.06744868035190615,42.3,-83.7,0.3,[0.51858908 0.72437309 0.45425652],[ 0.10159503 -0.79663406 -0.59586292],[ 0.19183003  0.19043592 -0.96277484],[0.4040646  0.2734554  0.87289973],-54.09111378908327,21.74409039716024,156.68369190902126,[0.83928487 0.47127172 0.07429198 0.26073851],[0.85219453 0.44389814 0.05474391 0.271518  ]
1718050172.8939128,3.506666666666667,-26.78666666666667,-19.76,-3.048780487804878,-0.7926829268292683,0.30487804878048785,-0.005615234375,-0.8525390625,-0.481689453125,0.5161290322580645,0.5454545454545454,0.2961876832844575,0.10263929618768329,0.06158357771260997,0.06744868035190615,42.3,-83.7,0.3,[0.52643909 0.7198573  0.45240176],[ 0.10476862 -0.80030479 -0.59036919],[ 0.19183003  0.19043592 -0.96277484],[0.4040646  0.2734554  0.87289973],-54.169037172998735,22.39876863689897,156.24528228516326,[0.83648202 0.47266271 0.07729707 0.26629485],[0.84964863 0.44968127 0.06026158 0.26879826]
1718050172.9234734,3.5733333333333337,-26.62666666666667,-19.8,-2.0121951219512195,-0.12195121951219513,0.3658536585365854,0.0078125,-0.8486328125,-0.474365234375,0.5161290322580645,0.5454545454545454,0.2961876832844575,0.10263929618768329,0.06158357771260997,0.07038123167155426,42.3,-83.7,0.3,[0.52643909 0.7198573  0.45240176],[ 0.1070711  -0.79783947 -0.59328573],[ 0.19183003  0.19043592 -0.96277484],[0.4040646  0.2734554  0.87289973],-54.063372981422866,22.16276939334106,156.4375498618667,[0.8378975  0.47156997 0.0765353  0.26399222],[0.84679214 0.45478281 0.06616209 0.26783997]
1718050172.949629,3.506666666666667,-26.666666666666668,-19.413333333333334,-1.3414634146341464,0.30487804878048785,-0.24390243902439027,0.00830078125,-0.856201171875,-0.47705078125,0.5161290322580645,0.5425219941348973,0.2961876832844575,0.10263929618768329,0.06158357771260997,0.07038123167155426,42.3,-83.7,0.3,[0.51858908 0.72437309 0.45425652],[ 0.10571627 -0.80392599 -0.58525812],[ 0.19183003  0.19043592 -0.96277484],[0.4040646  0.2734554  0.87289973],-54.305160232977705,22.882547652957644,156.28311666928752,[0.83489801 0.4740174  0.08081959 0.2678078 ],[0.84295713 0.46037736 0.07528412 0.26797065]
1718050172.9748588,3.3733333333333335,-26.613333333333333,-19.360000000000003,-1.1585365853658538,1.0365853658536586,-0.3658536585365854,-0.002197265625,-0.854736328125,-0.477783203125,0.5131964809384164,0.5425219941348973,0.2961876832844575,0.10263929618768329,0.06158357771260997,0.06744868035190615,42.3,-83.7,0.3,[0.52653394 0.71794449 0.45532156],[ 0.10196699 -0.80445106 -0.58520187],[ 0.19183003  0.19043592 -0.96277484],[0.4040646  0.2734554  0.87289973],-54.18513421383722,23.074620698339444,155.6911207741398,[0.83355174 0.47371455 0.08011622 0.27270389],[0.8400491  0.46203222 0.08205228 0.27223366]
1718050173.0019994,3.226666666666667,-26.42666666666667,-20.093333333333334,-1.3414634146341464,0.6707317073170732,0.06097560975609757,-0.005126953125,-0.862548828125,-0.456787109375,0.5131964809384164,0.5425219941348973,0.2961876832844575,0.10263929618768329,0.06158357771260997,0.07038123167155426,42.3,-83.7,0.3,[0.52653394 0.71794449 0.45532156],[ 0.09673859 -0.79229708 -0.60241761],[ 0.19183003  0.19043592 -0.96277484],[0.4040646  0.2734554  0.87289973],-53.81474084858632,21.264757472791914,156.37477632627642,[0.84077546 0.46904191 0.06999603 0.2611453 ],[0.8433766  0.45965921 0.07548276 0.26782769]
1718050173.028977,3.4800000000000004,-26.360000000000003,-19.62666666666667,-2.1341463414634148,1.0365853658536586,1.1585365853658538,-0.00732421875,-0.8603515625,-0.471923828125,0.5161290322580645,0.5425219941348973,0.2932551319648094,0.10263929618768329,0.06158357771260997,0.06744868035190615,42.3,-83.7,0.3,[0.51925354 0.72715306 0.44902582],[ 0.10530159 -0.79762925 -0.5938848 ],[ 0.19183003  0.19043592 -0.96277484],[0.4040646  0.2734554  0.87289973],-54.342696088697885,21.633040537908652,157.0690780489077,[0.83936625 0.47277588 0.07446367 0.25768666],[0.84402519 0.45753807 0.07367284 0.2699124 ]
1718050173.0561075,3.7733333333333334,-26.173333333333336,-19.76,-2.682926829268293,0.6097560975609757,1.2195121951219514,0.001708984375,-0.8515625,-0.479248046875,0.5131964809384164,0.5425219941348973,0.2961876832844575,0.10263929618768329,0.06158357771260997,0.07038123167155426,42.3,-83.7,0.3,[0.52653394 0.71794449 0.45532156],[ 0.11430466 -0.79286233 -0.59858481],[ 0.19183003  0.19043592 -0.96277484],[0.4040646  0.2734554  0.87289973],-53.68088580579764,22.025234221875763,156.62138661744987,[0.84019758 0.46853452 0.07711766 0.26190895],[0.84609892 0.45228813 0.07184619 0.27274564]
1718050173.0830991,3.3466666666666667,-25.973333333333336,-19.933333333333334,-2.1951219512195124,0.6707317073170732,0.9756097560975611,-0.000244140625,-0.86083984375,-0.470947265625,0.5161290322580645,0.5425219941348973,0.2961876832844575,0.10263929618768329,0.06158357771260997,0.06744868035190615,42.3,-83.7,0.3,[0.51858908 0.72437309 0.45425652],[ 0.10168754 -0.78919257 -0.60566883],[ 0.19183003  0.19043592 -0.96277484],[0.4040646  0.2734554  0.87289973],-53.82954939715521,20.773217251033564,157.16142814805693,[0.84354962 0.46826181 0.06942488 0.25364366],[0.84817053 0.45207484 0.06792328 0.26762196]
1718050173.1102126,3.0933333333333337,-26.32,-19.666666666666668,-2.8658536585365857,0.48780487804878053,1.524390243902439,0.002197265625,-0.853271484375,-0.4755859375,0.5161290322580645,0.5425219941348973,0.2961876832844575,0.10263929618768329,0.06158357771260997,0.06744868035190615,42.3,-83.7,0.3,[0.51858908 0.72437309 0.45425652],[ 0.09373355 -0.79754321 -0.59593528],[ 0.19183003  0.19043592 -0.96277484],[0.4040646  0.2734554  0.87289973],-54.192850568860855,21.55981705193091,156.49745132761367,[0.83885093 0.47198473 0.07188856 0.2615178 ],[0.84694167 0.45177282 0.06500739 0.27269976]
1718050173.137114,3.2933333333333334,-26.42666666666667,-19.933333333333334,-2.6219512195121952,-0.06097560975609757,1.0975609756097562,-0.001953125,-0.850341796875,-0.482421875,0.5190615835777126,0.5454545454545454,0.2961876832844575,0.10263929618768329,0.06158357771260997,0.06744868035190615,42.3,-83.7,0.3,[0.51857137 0.72619775 0.45135414],[ 0.0990033  -0.79443134 -0.5992305 ],[ 0.19183003  0.19043592 -0.96277484],[0.4040646  0.2734554  0.87289973],-54.179745778656496,21.123760195959296,157.02090274140394,[0.84104467 0.47120664 0.07074683 0.25613092],[0.84805851 0.45287716 0.06205468 0.26804526]
1718050173.1642368,3.2933333333333334,-26.493333333333336,-19.506666666666668,4.390243902439025,-7.682926829268293,-5.670731707317073,-0.006103515625,-0.83837890625,-0.570068359375,0.5161290322580645,0.5454545454545454,0.2932551319648094,0.10557184750733138,0.06158357771260997,0.06744868035190615,42.3,-83.7,0.3,[0.52702538 0.72266083 0.44721982],[ 0.09960368 -0.80126524 -0.58996027],[ 0.19183003  0.19043592 -0.96277484],[0.4040646  0.2734554  0.87289973],-54.49714989261072,21.943099321275866,156.4873470688413,[0.83671583 0.47452902 0.07406983 0.26313968],[0.839585   0.49329857 0.05519833 0.22069594]
1718050173.1912231,3.4933333333333336,-25.986666666666668,-19.720000000000002,-5.731707317073171,3.8414634146341466,-0.1829268292682927,-0.075927734375,-0.7939453125,-0.5380859375,0.5161290322580645,0.5425219941348973,0.2961876832844575,0.10557184750733138,0.06158357771260997,0.06744868035190615,42.3,-83.7,0.3,[0.51858908 0.72437309 0.45425652],[ 0.10647692 -0.79207449 -0.60106628],[ 0.19183003  0.19043592 -0.96277484],[0.4040646  0.2734554  0.87289973],-53.889497011542716,21.339082675573458,157.05177558615847,[0.84183552 0.46922939 0.07316642 0.25648276],[0.85364366 0.44868024 0.07678687 0.25314487]
1718050173.21845,3.466666666666667,-26.093333333333334,-20.133333333333333,-1.524390243902439,0.48780487804878053,2.073170731707317,-0.033935546875,-0.581787109375,-0.691650390625,0.5161290322580645,0.5425219941348973,0.2932551319648094,0.10263929618768329,0.06158357771260997,0.07038123167155426,42.3,-83.7,0.3,[0.51925354 0.72715306 0.44902582],[ 0.10460808 -0.787377   -0.60753157],[ 0.19183003  0.19043592 -0.96277484],[0.4040646  0.2734554  0.87289973],-53.979095084204914,20.273962318647346,157.70341951746272,[0.84518322 0.46863718 0.06749677 0.24796914],[0.84910044 0.4545188  0.06640647 0.26082808]
1718050173.2453222,3.4533333333333336,-26.080000000000002,-19.92,-2.6219512195121952,0.7317073170731708,-2.8658536585365857,-0.0556640625,-0.8740234375,-0.46533203125,0.5161290322580645,0.5454545454545454,0.2932551319648094,0.10557184750733138,0.06158357771260997,0.06744868035190615,42.3,-83.7,0.3,[0.52702538 0.72266083 0.44721982],[ 0.10465135 -0.79033993 -0.60366455],[ 0.19183003  0.19043592 -0.96277484],[0.4040646  0.2734554  0.87289973],-54.05976776577847,20.717803433789147,157.2465140602069,[0.84291404 0.46985949 0.0688409  0.25296028],[0.85497345 0.45053065 0.07430222 0.24601162]
1718050173.2722964,3.4400000000000004,-26.293333333333337,-19.693333333333335,-4.024390243902439,-0.48780487804878053,3.1097560975609757,0.00634765625,-0.859619140625,-0.468505859375,0.5190615835777126,0.5454545454545454,0.2932551319648094,0.10263929618768329,0.06158357771260997,0.07038123167155426,42.3,-83.7,0.3,[0.51921879 0.72891712 0.44619691],[ 0.10414682 -0.7960369  -0.59622034],[ 0.19183003  0.19043592 -0.96277484],[0.4040646  0.2734554  0.87289973],-54.433364706187604,21.157343124539235,157.37925389708667,[0.84072435 0.47287128 0.07191485 0.2537786 ],[0.85168305 0.44839182 0.05834744 0.26490814]
1718050173.2992568,3.4000000000000004,-26.240000000000002,-19.6,-3.048780487804878,-1.5853658536585367,2.439024390243903,-0.0087890625,-0.82177734375,-0.501220703125,0.5161290322580645,0.5454545454545454,0.2932551319648094,0.10557184750733138,0.06158357771260997,0.06744868035190615,42.3,-83.7,0.3,[0.52702538 0.72266083 0.44721982],[ 0.10325538 -0.79688856 -0.59523688],[ 0.19183003  0.19043592 -0.96277484],[0.4040646  0.2734554  0.87289973],-54.309277818250685,21.507530140492914,156.82023147300893,[0.83921987 0.47259113 0.07255588 0.25904299],[0.84837778 0.45297795 0.05037993 0.2693102 ]
1718050173.3264349,3.3733333333333335,-26.253333333333334,-19.78666666666667,-4.085365853658537,-0.48780487804878053,0.426829268292683,0.025390625,-0.834716796875,-0.492919921875,0.5190615835777126,0.5483870967741935,0.2932551319648094,0.10557184750733138,0.06158357771260997,0.06744868035190615,42.3,-83.7,0.3,[0.52691087 0.72446394 0.44442878],[ 0.10207568 -0.79441506 -0.59873639],[ 0.19183003  0.19043592 -0.96277484],[0.4040646  0.2734554  0.87289973],-54.36564387582834,20.922660780779935,157.18165294270844,[0.84107287 0.47231104 0.06946058 0.25435002],[0.85315743 0.44796461 0.05338853 0.26191558]
1718050173.3533156,3.3866666666666667,-26.240000000000002,-19.893333333333334,-2.804878048780488,0.24390243902439027,0.6707317073170732,0.00634765625,-0.863037109375,-0.482421875,0.5190615835777126,0.5483870967741935,0.2961876832844575,0.10263929618768329,0.06158357771260997,0.07038123167155426,42.3,-83.7,0.3,[0.52634003 0.72172108 0.4495385 ],[ 0.10230959 -0.79269794 -0.60096815],[ 0.19183003  0.19043592 -0.96277484],[0.4040646  0.2734554  0.87289973],-54.06418173271868,21.0857542906218,156.91632666108262,[0.84136808 0.47039176 0.07028573 0.25669294],[0.85161056 0.44946112 0.05958408 0.2630473 ]
1718050173.3806145,3.3866666666666667,-26.240000000000002,-19.96,-3.8414634146341466,0.24390243902439027,0.7926829268292683,-0.00146484375,-0.8583984375,-0.489501953125,0.5219941348973607,0.5542521994134897,0.2961876832844575,0.10263929618768329,0.06158357771260997,0.07331378299120235,42.3,-83.7,0.3,[0.53378992 0.71909542 0.44493831],[ 0.10218578 -0.79173865 -0.60225242],[ 0.19183003  0.19043592 -0.96277484],[0.4040646  0.2734554  0.87289973],-54.14176988555864,20.798158319086703,156.94033915319307,[0.84172561 0.47071077 0.06801588 0.25554492],[0.85342292 0.44573164 0.0588323  0.26368806]
1718050173.4074502,3.4000000000000004,-26.253333333333334,-20.053333333333335,-7.926829268292684,0.06097560975609757,0.12195121951219513,0.004638671875,-0.8623046875,-0.47998046875,0.5249266862170088,0.5542521994134897,0.2961876832844575,0.10263929618768329,0.06158357771260997,0.07331378299120235,42.3,-83.7,0.3,[0.52613059 0.7253084  0.44397559],[ 0.10237743 -0.79051434 -0.60382609],[ 0.19183003  0.19043592 -0.96277484],[0.4040646  0.2734554  0.87289973],-54.25182954503857,20.378242809823824,157.50381300688247,[0.84341212 0.47084696 0.06688266 0.24997167],[0.8652273  0.42645387 0.05305653 0.25827082]
1718050173.4368143,3.4533333333333336,-26.213333333333335,-20.186666666666667,-5.609756097560976,5.670731707317073,11.402439024390246,0.07568359375,-1.17333984375,-0.28857421875,0.530791788856305,0.5601173020527859,0.2961876832844575,0.10263929618768329,0.06158357771260997,0.07331378299120235,42.3,-83.7,0.3,[0.52590801 0.72871952 0.43862128],[ 0.10381255 -0.78801342 -0.60684248],[ 0.19183003  0.19043592 -0.96277484],[0.4040646  0.2734554  0.87289973],-54.39664895675693,19.70790061911605,158.1050272962291,[0.84550571 0.47104054 0.06392295 0.24321754],[0.84792272 0.42467892 0.05260046 0.31290267]
1718050173.4615734,3.4933333333333336,-26.22666666666667,-20.44,-16.402439024390244,2.439024390243903,3.231707317073171,-0.0673828125,-0.80126953125,-0.58740234375,0.5395894428152492,0.5689149560117303,0.2991202346041056,0.10263929618768329,0.06158357771260997,0.07038123167155426,42.3,-83.7,0.3,[0.52505234 0.73110021 0.43567479],[ 0.10448433 -0.78443008 -0.61135298],[ 0.19183003  0.19043592 -0.96277484],[0.4040646  0.2734554  0.87289973],-54.39777015220361,19.042341849397946,158.60198363157494,[0.84788792 0.47026078 0.06087618 0.23713912],[0.87800246 0.37965914 0.0352422  0.28935896]
1718050173.4884665,3.546666666666667,-26.173333333333336,-20.693333333333335,-15.426829268292684,1.5853658536585367,2.6219512195121952,0.078857421875,-0.869873046875,-0.43505859375,0.5542521994134897,0.5806451612903226,0.2961876832844575,0.10263929618768329,0.06158357771260997,0.07038123167155426,42.3,-83.7,0.3,[0.51801586 0.74487002 0.42050948],[ 0.10570189 -0.78004816 -0.61672682],[ 0.19183003  0.19043592 -0.96277484],[0.4040646  0.2734554  0.87289973],-54.958916592604965,17.215063188441203,160.3803195186676,[0.85259181 0.47218541 0.05310565 0.21750387],[0.8914345  0.36798189 0.02577056 0.26319146]
1718050173.5154374,3.6933333333333334,-26.133333333333336,-21.080000000000002,-19.207317073170735,2.987804878048781,0.48780487804878053,-0.028564453125,-0.806396484375,-0.561279296875,0.5689149560117303,0.5953079178885631,0.3020527859237537,0.09970674486803519,0.06158357771260997,0.07038123167155426,42.3,-83.7,0.3,[0.51672813 0.74720131 0.41795005],[ 0.10934115 -0.77367745 -0.62407349],[ 0.19183003  0.19043592 -0.96277484],[0.4040646  0.2734554  0.87289973],-54.785868774035954,16.39196497371177,161.05300559783814,[0.85602275 0.47001344 0.04989495 0.20933922],[0.90763085 0.34275088 0.02798319 0.24071771]
1718050173.542443,3.8800000000000003,-26.10666666666667,-21.506666666666668,-25.000000000000004,3.4756097560975614,-1.7682926829268295,0.005859375,-0.848876953125,-0.50048828125,0.5865102639296188,0.6099706744868035,0.30498533724340177,0.0967741935483871,0.06158357771260997,0.06744868035190615,42.3,-83.7,0.3,[0.50939425 0.75625434 0.41060549],[ 0.11396253 -0.7667994  -0.63168919],[ 0.19183003  0.19043592 -0.96277484],[0.4040646  0.2734554  0.87289973],-54.84007160526232,15.044526984611299,162.4217859284188,[0.8604701  0.46894182 0.04508011 0.19404268],[0.92715256 0.30643419 0.02766187 0.2138248 ]
1718050173.5695343,4.053333333333334,-26.013333333333335,-21.973333333333336,-25.426829268292686,3.780487804878049,1.7682926829268295,0.014404296875,-0.828369140625,-0.531982421875,0.6041055718475073,0.6304985337243402,0.31085043988269795,0.09090909090909091,0.06158357771260997,0.06744868035190615,42.3,-83.7,0.3,[0.51470543 0.75550505 0.40532756],[ 0.11820009 -0.7585802  -0.64076893],[ 0.19183003  0.19043592 -0.96277484],[0.4040646  0.2734554  0.87289973],-54.578614274008736,14.136642075193901,162.98444790791996,[0.863897   0.46617111 0.04083972 0.18627558],[0.93241136 0.28883153 0.02388851 0.21590449]
1718050173.5972981,4.2,-25.986666666666668,-22.44,-20.121951219512198,6.097560975609756,1.5853658536585367,0.003662109375,-0.781982421875,-0.530517578125,0.6217008797653959,0.6451612903225806,0.31378299120234604,0.08211143695014662,0.06158357771260997,0.06451612903225806,42.3,-83.7,0.3,[0.50793438 0.76343518 0.39896039],[ 0.12142074 -0.75126671 -0.64873364],[ 0.19183003  0.19043592 -0.96277484],[0.4040646  0.2734554  0.87289973],-54.539309062739804,12.844001267802243,164.220446666496,[0.86788665 0.46464097 0.03597979 0.17200868],[0.9294196  0.30159858 0.03633783 0.20951626]
1718050173.6236207,4.306666666666667,-25.90666666666667,-22.78666666666667,-21.82926829268293,7.500000000000001,2.0121951219512195,0.01123046875,-0.81298828125,-0.541748046875,0.6363636363636364,0.6627565982404692,0.3196480938416422,0.07038123167155426,0.06158357771260997,0.06451612903225806,42.3,-83.7,0.3,[0.5129347  0.76151054 0.39623185],[ 0.12386249 -0.7450923  -0.6553591 ],[ 0.19183003  0.19043592 -0.96277484],[0.4040646  0.2734554  0.87289973],-54.27538324658117,12.317369175243309,164.4632951313618,[0.87004254 0.4622408  0.03329732 0.16807949],[0.93064817 0.29630011 0.04382642 0.21018912]
1718050173.6512895,4.48,-25.893333333333334,-23.173333333333336,-15.30487804878049,6.402439024390245,2.439024390243903,-0.0048828125,-0.79638671875,-0.540771484375,0.6510263929618768,0.6744868035190615,0.3196480938416422,0.07038123167155426,0.06158357771260997,0.06451612903225806,42.3,-83.7,0.3,[0.50702183 0.76926508 0.38879313],[ 0.12786758 -0.73904418 -0.66141029],[ 0.19183003  0.19043592 -0.96277484],[0.4040646  0.2734554  0.87289973],-54.29140604798977,11.218817937626229,165.62081372767386,[0.87304352 0.46138562 0.02946737 0.15508061],[0.92305629 0.32389453 0.0455882  0.20243798]
1718050173.6775599,4.5600000000000005,-25.813333333333336,-23.373333333333335,-9.756097560975611,5.548780487804878,1.8902439024390245,-0.017333984375,-0.79736328125,-0.56396484375,0.656891495601173,0.6803519061583577,0.3255131964809384,0.06451612903225806,0.06158357771260997,0.06451612903225806,42.3,-83.7,0.3,[0.50619976 0.76801781 0.39231422],[ 0.12983949 -0.73499781 -0.66552229],[ 0.19183003  0.19043592 -0.96277484],[0.4040646  0.2734554  0.87289973],-53.986572829422144,11.132434329492247,165.68727220646196,[0.87446486 0.45899391 0.02947857 0.15416488],[0.91175319 0.35863127 0.04889372 0.19416265]
1718050173.7046328,4.586666666666667,-25.813333333333336,-23.453333333333333,-4.451219512195122,2.0121951219512195,1.2195121951219514,-0.03076171875,-0.80908203125,-0.559326171875,0.6598240469208211,0.6832844574780058,0.3255131964809384,0.06451612903225806,0.06158357771260997,0.06451612903225806,42.3,-83.7,0.3,[0.50620029 0.76885513 0.39067001],[ 0.13038806 -0.73381186 -0.66672266],[ 0.19183003  0.19043592 -0.96277484],[0.4040646  0.2734554  0.87289973],-53.981727555208614,10.938837515895143,165.85375871851724,[0.87494496 0.45880226 0.02865573 0.15215339],[0.89829416 0.39921855 0.03924497 0.17930976]
1718050173.7316349,4.586666666666667,-25.8,-23.506666666666668,-2.804878048780488,-0.30487804878048785,0.7317073170731708,-0.0009765625,-0.80859375,-0.565185546875,0.6598240469208211,0.6862170087976539,0.3255131964809384,0.06158357771260997,0.06451612903225806,0.06451612903225806,42.3,-83.7,0.3,[0.51182197 0.76561507 0.38970737],[ 0.13029247 -0.73289513 -0.6677489 ],[ 0.19183003  0.19043592 -0.96277484],[0.4040646  0.2734554  0.87289973],-53.90510884017614,10.980420563069012,165.62999487194605,[0.87490166 0.45829712 0.02818406 0.15400159],[0.88988616 0.42359736 0.02691908 0.1671624 ]
