Time,MagX,MagY,MagZ,GyroX,GyroY,GyroZ,AccelX,AccelY,AccelZ,Tri11,Tri12,Tri13,Tri21,Tri22,Tri23,Lat,Lon,Alt,SunVect,MagVect,MagRef,SunRef,Roll,Pitch,Yaw,static_q,dynamic_q
1718050144.0159376,10.08,2.6,-51.733333333333334,-15.060975609756099,3.048780487804878,1.0365853658536586,-0.005615234375,0.085693359375,-1.01318359375,1.5689149560117301,1.7390029325513197,1.4076246334310851,0.07917888563049853,0.0967741935483871,0.10263929618768329,42.3,-83.7,0.3,[0.49631477 0.27649317 0.82293571],[ 0.19101655  0.04927014 -0.98034949],[ 0.19183003  0.19043592 -0.96277484],[0.4040646  0.2734554  0.87289973],-6.274837204352809,-1.1471544630700072,168.0922896817854,[ 0.99312205  0.05339614 -0.01561854  0.10302186],[ 0.99480604  0.03243494 -0.01098729  0.09585503]
1718050144.0316484,9.84,2.7866666666666666,-51.82666666666667,-1.707317073170732,0.30487804878048785,0.3658536585365854,-0.001220703125,0.08251953125,-1.01025390625,1.5689149560117301,1.7390029325513197,1.4076246334310851,0.07917888563049853,0.0967741935483871,0.10263929618768329,42.3,-83.7,0.3,[0.49631477 0.27649317 0.82293571],[ 0.18627164  0.05275172 -0.9810811 ],[ 0.19183003  0.19043592 -0.96277484],[0.4040646  0.2734554  0.87289973],-6.159745946205103,-1.3872831193765065,168.43603433485487,[ 0.99346812  0.05223294 -0.0174394   0.09994343],[ 0.99415542  0.03742904 -0.01463753  0.10019883]
1718050144.0563507,10.026666666666667,2.7866666666666666,-51.733333333333334,-1.8902439024390245,0.30487804878048785,0.30487804878048785,-0.007568359375,0.0947265625,-1.01416015625,1.563049853372434,1.7390029325513197,1.4076246334310851,0.07917888563049853,0.0967741935483871,0.10263929618768329,42.3,-83.7,0.3,[0.50245805 0.26661845 0.82246612],[ 0.19000816  0.05280812 -0.98036126],[ 0.19183003  0.19043592 -0.96277484],[0.4040646  0.2734554  0.87289973],-5.992034809940945,-1.3428938444857088,167.43265765515193,[ 0.99263245  0.0506681  -0.0173526   0.10868511],[ 0.99348754  0.03595565 -0.01581181  0.10695642]
1718050144.0834484,10.026666666666667,2.8000000000000003,-51.693333333333335,-1.707317073170732,0.6707317073170732,0.06097560975609757,0.001220703125,0.08349609375,-1.0126953125,1.5718475073313782,1.7390029325513197,1.4193548387096775,0.07917888563049853,0.0967741935483871,0.10263929618768329,42.3,-83.7,0.3,[0.48622029 0.26380861 0.83306354],[ 0.19014692  0.05309954 -0.98031862],[ 0.19183003  0.19043592 -0.96277484],[0.4040646  0.2734554  0.87289973],-5.812019885948647,-1.0215573840742789,167.78227046768706,[ 0.99305147  0.04946035 -0.01424756  0.10582746],[ 0.99360582  0.03520661 -0.01236441  0.10656028]
1718050144.1100094,10.040000000000001,2.7600000000000002,-51.733333333333334,-1.5853658536585367,0.48780487804878053,0.30487804878048785,-0.00146484375,0.0888671875,-1.010986328125,1.5718475073313782,1.7419354838709677,1.4164222873900294,0.07917888563049853,0.0967741935483871,0.10263929618768329,42.3,-83.7,0.3,[0.4922281  0.26737216 0.82838616],[ 0.19025675  0.05230166 -0.9803402 ],[ 0.19183003  0.19043592 -0.96277484],[0.4040646  0.2734554  0.87289973],-5.9530262763657165,-1.1269913209231364,167.78512558377815,[ 0.99298901  0.05058443 -0.01529005  0.10573668],[ 0.99345036  0.03630148 -0.01260037  0.10760954]
1718050144.137213,10.040000000000001,2.7600000000000002,-51.68000000000001,-1.9512195121951221,0.6707317073170732,0.0,-0.006591796875,0.0849609375,-1.014404296875,1.5718475073313782,1.7419354838709677,1.4193548387096775,0.07917888563049853,0.0967741935483871,0.10263929618768329,42.3,-83.7,0.3,[0.49046452 0.2629434  0.83084615],[ 0.19044543  0.05235353 -0.98030079],[ 0.19183003  0.19043592 -0.96277484],[0.4040646  0.2734554  0.87289973],-5.8534471185128325,-1.0812500669635028,167.52369837674965,[ 0.99279036  0.04973022 -0.01491531  0.10803582],[ 0.99350612  0.034229   -0.01167701  0.10787774]
1718050144.1646106,10.053333333333335,2.7866666666666666,-51.693333333333335,-1.7682926829268295,0.426829268292683,0.30487804878048785,-0.001220703125,0.085205078125,-1.01171875,1.5718475073313782,1.7419354838709677,1.4164222873900294,0.07917888563049853,0.0967741935483871,0.10263929618768329,42.3,-83.7,0.3,[0.4922281  0.26737216 0.82838616],[ 0.19063683  0.0528423  -0.98023736],[ 0.19183003  0.19043592 -0.96277484],[0.4040646  0.2734554  0.87289973],-5.928331979737406,-1.1187091444452253,167.80781680768925,[ 0.99302112  0.05038117 -0.01518552  0.10554713],[ 0.99345957  0.03489347 -0.01269662  0.10797839]
1718050144.1921186,10.040000000000001,2.7866666666666666,-51.70666666666667,-1.829268292682927,0.426829268292683,0.12195121951219513,-0.008056640625,0.088134765625,-1.01416015625,1.5718475073313782,1.7419354838709677,1.4164222873900294,0.07917888563049853,0.0967741935483871,0.10263929618768329,42.3,-83.7,0.3,[0.4922281  0.26737216 0.82838616],[ 0.19034598  0.05283175 -0.98029445],[ 0.19183003  0.19043592 -0.96277484],[0.4040646  0.2734554  0.87289973],-5.930653671854938,-1.1303994137655018,167.8152788354487,[ 0.99302653  0.05039141 -0.01528568  0.10547681],[ 0.99355855  0.03485129 -0.01315095  0.10702269]
1718050144.2181861,10.040000000000001,2.7733333333333334,-51.693333333333335,-1.7682926829268295,0.6707317073170732,0.24390243902439027,-0.00048828125,0.081298828125,-1.01171875,1.5718475073313782,1.7419354838709677,1.4193548387096775,0.07917888563049853,0.0967741935483871,0.10263929618768329,42.3,-83.7,0.3,[0.49046452 0.2629434  0.83084615],[ 0.1903957   0.0525927  -0.98029765],[ 0.19183003  0.19043592 -0.96277484],[0.4040646  0.2734554  0.87289973],-5.843968848677414,-1.0864682647353638,167.5399332185928,[ 0.99280959  0.04964526 -0.01494454  0.10789404],[ 0.99339053  0.03454417 -0.01184177  0.10881973]
1718050144.2451565,10.026666666666667,2.7866666666666666,-51.74666666666667,-1.707317073170732,0.426829268292683,0.24390243902439027,-0.00439453125,0.0888671875,-1.01025390625,1.5718475073313782,1.7419354838709677,1.4164222873900294,0.07917888563049853,0.0967741935483871,0.10263929618768329,42.3,-83.7,0.3,[0.4922281  0.26737216 0.82838616],[ 0.18996111  0.05279504 -0.98037108],[ 0.19183003  0.19043592 -0.96277484],[0.4040646  0.2734554  0.87289973],-5.934656955737485,-1.14556824212391,167.82375940569437,[ 0.993032    0.05041315 -0.01541706  0.10539583],[ 0.99344605  0.03534833 -0.01286684  0.10793466]
1718050144.2722292,10.053333333333335,2.7866666666666666,-51.68000000000001,-1.8902439024390245,0.6097560975609757,0.24390243902439027,-0.00048828125,0.0859375,-1.01220703125,1.5747800586510263,1.7448680351906158,1.4134897360703813,0.07917888563049853,0.0967741935483871,0.10263929618768329,42.3,-83.7,0.3,[0.49506302 0.27579583 0.8239231 ],[ 0.19068408  0.0528554  -0.98022747],[ 0.19183003  0.19043592 -0.96277484],[0.4040646  0.2734554  0.87289973],-6.1072219950581275,-1.182793442801737,168.311324914892,[ 0.99339279  0.05194111 -0.01567743  0.10112917],[ 0.99375932  0.03556155 -0.01257666  0.1049744 ]
1718050144.2991931,10.053333333333335,2.7866666666666666,-51.720000000000006,-1.829268292682927,0.48780487804878053,0.3658536585365854,-0.0048828125,0.077392578125,-1.01025390625,1.5718475073313782,1.7419354838709677,1.4193548387096775,0.07917888563049853,0.0967741935483871,0.10263929618768329,42.3,-83.7,0.3,[0.49046452 0.2629434  0.83084615],[ 0.19054238  0.05281612 -0.98025714],[ 0.19183003  0.19043592 -0.96277484],[0.4040646  0.2734554  0.87289973],-5.833817306235074,-1.0835028680006888,167.54972052127923,[ 0.9928233   0.0495614  -0.01490506  0.1078119 ],[ 0.99340747  0.0345478  -0.01257306  0.10858164]
1718050144.3262398,10.413333333333334,2.7866666666666666,-51.70666666666667,-1.7682926829268295,0.6097560975609757,0.24390243902439027,-0.005615234375,0.08740234375,-1.01025390625,1.5718475073313782,1.7419354838709677,1.4164222873900294,0.07917888563049853,0.0967741935483871,0.10263929618768329,42.3,-83.7,0.3,[0.4922281  0.26737216 0.82838616],[ 0.19715355  0.0527594  -0.97895195],[ 0.19183003  0.19043592 -0.96277484],[0.4040646  0.2734554  0.87289973],-5.888518772063614,-0.8525995180123687,167.62231489298128,[ 0.99287337  0.0502626  -0.01292437  0.10728053],[ 0.99337007  0.03484099 -0.01069936  0.10902997]
1718050144.3538623,10.186666666666667,2.7600000000000002,-51.70666666666667,-1.8902439024390245,0.48780487804878053,0.30487804878048785,-0.0029296875,0.08349609375,-1.010498046875,1.5747800586510263,1.7448680351906158,1.4164222873900294,0.07917888563049853,0.0967741935483871,0.10263929618768329,42.3,-83.7,0.3,[0.49334284 0.27142778 0.82640172],[ 0.19302885  0.0522997  -0.97979825],[ 0.19183003  0.19043592 -0.96277484],[0.4040646  0.2734554  0.87289973],-6.020191074417816,-1.0404652259433786,167.96002622922435,[ 0.99312234  0.05126926 -0.0145241   0.10425221],[ 0.99350512  0.03501752 -0.01168231  0.10763307]
1718050144.380279,10.200000000000001,2.4266666666666667,-51.720000000000006,-1.8902439024390245,0.30487804878048785,-0.06097560975609757,-0.005126953125,0.08837890625,-1.01123046875,1.5747800586510263,1.7448680351906158,1.4193548387096775,0.07917888563049853,0.0967741935483871,0.10263929618768329,42.3,-83.7,0.3,[0.49160048 0.26703125 0.82886867],[ 0.19328421  0.04598396 -0.98006464],[ 0.19183003  0.19043592 -0.96277484],[0.4040646  0.2734554  0.87289973],-6.180559346967875,-0.9053831206269459,167.30794735782098,[ 0.99244333  0.05270537 -0.01379961  0.10994524],[ 0.9933406   0.036097   -0.01246805  0.10870147]
1718050144.4161594,10.106666666666667,2.2800000000000002,-51.693333333333335,-1.8902439024390245,0.5487804878048781,0.24390243902439027,0.001953125,0.086669921875,-1.008056640625,1.5806451612903225,1.750733137829912,1.4222873900293256,0.07917888563049853,0.0967741935483871,0.10263929618768329,42.3,-83.7,0.3,[0.49209355 0.27074045 0.82737147],[ 0.19169959  0.04324621 -0.9805004 ],[ 0.19183003  0.19043592 -0.96277484],[0.4040646  0.2734554  0.87289973],-6.377844526528725,-0.9464108381274368,167.43322689779333,[ 0.99247001  0.0543899  -0.01428468  0.10881623],[ 0.99315516  0.03739474 -0.0118848   0.11001461]
1718050144.4343479,10.293333333333335,3.186666666666667,-51.62666666666667,-1.7682926829268295,0.30487804878048785,0.30487804878048785,-0.00341796875,0.087158203125,-1.013916015625,1.5806451612903225,1.750733137829912,1.4193548387096775,0.07917888563049853,0.0967741935483871,0.10263929618768329,42.3,-83.7,0.3,[0.49381608 0.27510117 0.82490304],[ 0.19517434  0.06042315 -0.97890552],[ 0.19183003  0.19043592 -0.96277484],[0.4040646  0.2734554  0.87289973],-5.746638604719956,-1.07060078835983,168.63457540808832,[ 0.99383748  0.0489554  -0.01424844  0.09842468],[ 0.99382921  0.03528774 -0.01284679  0.10437069]
1718050144.4613476,10.093333333333334,2.72,-51.89333333333334,-1.6463414634146343,0.5487804878048781,0.1829268292682927,-0.00537109375,0.08740234375,-1.00927734375,1.5777126099706744,1.747800586510264,1.4222873900293256,0.07917888563049853,0.0967741935483871,0.10263929618768329,42.3,-83.7,0.3,[0.49097411 0.26669101 0.82934934],[ 0.19067146  0.05138306 -0.9803082 ],[ 0.19183003  0.19043592 -0.96277484],[0.4040646  0.2734554  0.87289973],-5.966413717759223,-1.0727427767734985,167.70977436364842,[ 0.99291523  0.05074121 -0.01486573  0.1064128 ],[ 0.99357511  0.03609042 -0.01220101  0.10656978]
1718050144.4883435,10.293333333333335,2.6,-52.17333333333334,-1.9512195121951221,0.3658536585365854,0.12195121951219513,-0.005615234375,0.082763671875,-1.010009765625,1.5835777126099706,1.7536656891495601,1.4281524926686218,0.07917888563049853,0.0967741935483871,0.10263929618768329,42.3,-83.7,0.3,[0.48972505 0.26601254 0.83030519],[ 0.19332907  0.04883312 -0.97991795],[ 0.19183003  0.19043592 -0.96277484],[0.4040646  0.2734554  0.87289973],-6.031358037242,-0.9052853841496991,167.47086761525654,[ 0.99266645  0.0514326  -0.01358249  0.10855194],[ 0.99340524  0.03536274 -0.01227575  0.10837347]
1718050144.5153134,9.986666666666668,2.666666666666667,-51.64,-1.9512195121951221,0.3658536585365854,0.06097560975609757,-0.005126953125,0.08740234375,-1.015869140625,1.5835777126099706,1.750733137829912,1.4252199413489737,0.08504398826979472,0.10263929618768329,0.11143695014662756,42.3,-83.7,0.3,[0.4872734  0.27128002 0.83004324],[ 0.18962858  0.05063513 -0.98054938],[ 0.19183003  0.19043592 -0.96277484],[0.4040646  0.2734554  0.87289973],-6.065880186249603,-1.0393278210902885,168.14621800334456,[ 0.99326993  0.05168985 -0.01447184  0.10263318],[ 0.99375465  0.03524651 -0.01286116  0.10509033]
1718050144.5424533,10.280000000000001,2.8400000000000003,-51.74666666666667,-2.0121951219512195,0.48780487804878053,0.3658536585365854,-0.00390625,0.0859375,-1.014892578125,1.5835777126099706,1.750733137829912,1.4252199413489737,0.08211143695014662,0.0967741935483871,0.10263929618768329,42.3,-83.7,0.3,[0.4872734  0.27128002 0.83004324],[ 0.19457063  0.05375298 -0.97941456],[ 0.19183003  0.19043592 -0.96277484],[0.4040646  0.2734554  0.87289973],-5.907002290055205,-0.878364622415509,168.19791565415753,[ 0.99339109  0.05046394 -0.01291157  0.10227819],[ 0.9938019   0.03404758 -0.01154938  0.10519103]
1718050144.5694597,9.933333333333334,3.1333333333333337,-51.89333333333334,-1.524390243902439,0.48780487804878053,0.5487804878048781,-0.002685546875,0.0888671875,-1.013671875,1.5835777126099706,1.7536656891495601,1.4281524926686218,0.07917888563049853,0.0967741935483871,0.10263929618768329,42.3,-83.7,0.3,[0.48972505 0.26601254 0.83030519],[ 0.18767521  0.05919956 -0.98044552],[ 0.19183003  0.19043592 -0.96277484],[0.4040646  0.2734554  0.87289973],-5.642188340632883,-1.2711343051381827,168.27048435238024,[ 0.99355494  0.0478248  -0.01604985  0.10150748],[ 0.99371602  0.03444962 -0.01275406  0.10573094]
1718050144.6039443,9.813333333333334,2.72,-51.57333333333334,-1.6463414634146343,0.6097560975609757,0.1829268292682927,-0.009033203125,0.08984375,-1.01416015625,1.5835777126099706,1.7536656891495601,1.4281524926686218,0.07917888563049853,0.09970674486803519,0.10263929618768329,42.3,-83.7,0.3,[0.48972505 0.26601254 0.83030519],[ 0.18667499  0.05174144 -0.98105824],[ 0.19183003  0.19043592 -0.96277484],[0.4040646  0.2734554  0.87289973],-5.956179337762355,-1.2150653397628717,167.83696565952332,[ 0.99303179  0.05053695 -0.01603321  0.1052465 ],[ 0.99360821  0.03560836 -0.01258575  0.10637845]
1718050144.633347,9.946666666666667,2.9333333333333336,-52.080000000000005,-1.7682926829268295,0.3658536585365854,0.1829268292682927,-0.01123046875,0.0869140625,-1.016357421875,1.5806451612903225,1.7536656891495601,1.4193548387096775,0.08211143695014662,0.0967741935483871,0.10263929618768329,42.3,-83.7,0.3,[0.49795664 0.27420082 0.82271082],[ 0.18731099  0.05523916 -0.98074626],[ 0.19183003  0.19043592 -0.96277484],[0.4040646  0.2734554  0.87289973],-6.0187812958038585,-1.4057801459444659,168.3401607588245,[ 0.99344654  0.0509798  -0.01751945  0.10078739],[ 0.99384057  0.03583245 -0.01476493  0.10382175]
1718050144.6633973,10.040000000000001,2.7600000000000002,-51.70666666666667,-2.1951219512195124,0.06097560975609757,0.1829268292682927,-0.00341796875,0.07861328125,-1.014892578125,1.5865102639296187,1.7565982404692082,1.4252199413489737,0.08211143695014662,0.09970674486803519,0.10263929618768329,42.3,-83.7,0.3,[0.49257394 0.27440918 0.8258756 ],[ 0.19035104  0.05232758 -0.98032051],[ 0.19183003  0.19043592 -0.96277484],[0.4040646  0.2734554  0.87289973],-6.087550892359102,-1.139118351626023,168.27411748784587,[ 0.99337057  0.05180457 -0.01529831  0.10147493],[ 0.99394081  0.03440384 -0.01599304  0.10316137]
1718050144.6860795,10.0,2.746666666666667,-51.50666666666667,-2.0121951219512195,0.30487804878048785,0.24390243902439027,-0.003662109375,0.08642578125,-1.011962890625,1.5865102639296187,1.7536656891495601,1.4252199413489737,0.08211143695014662,0.09970674486803519,0.10263929618768329,42.3,-83.7,0.3,[0.48839808 0.27530276 0.82805538],[ 0.19033017  0.05227735 -0.98032724],[ 0.19183003  0.19043592 -0.96277484],[0.4040646  0.2734554  0.87289973],-6.078592857294669,-1.0596414811287818,168.47662840786893,[ 0.99355532  0.05182373 -0.01450992  0.09975769],[ 0.99405118  0.03467145 -0.01462843  0.10220644]
1718050144.7091844,10.026666666666667,2.8266666666666667,-51.50666666666667,-1.6463414634146343,0.24390243902439027,-0.06097560975609757,0.002685546875,0.087890625,-1.01904296875,1.5865102639296187,1.7565982404692082,1.4281524926686218,0.08211143695014662,0.09970674486803519,0.10557184750733138,42.3,-83.7,0.3,[0.49084912 0.27005579 0.82833388],[ 0.19080385  0.05379045 -0.98015329],[ 0.19183003  0.19043592 -0.96277484],[0.4040646  0.2734554  0.87289973],-5.929834741098202,-1.1005502869046646,168.0991215934402,[ 0.99328624  0.05044912 -0.01490137  0.10303053],[ 0.99399969  0.03585617 -0.01440446  0.10233018]
1718050144.7316923,10.0,2.8133333333333335,-51.42666666666667,-1.9512195121951221,0.6097560975609757,0.426829268292683,-0.000732421875,0.08642578125,-1.015380859375,1.5865102639296187,1.7595307917888563,1.4281524926686218,0.08211143695014662,0.09970674486803519,0.10263929618768329,42.3,-83.7,0.3,[0.49500629 0.2691762  0.82614341],[ 0.19060185  0.05362265 -0.98020179],[ 0.19183003  0.19043592 -0.96277484],[0.4040646  0.2734554  0.87289973],-5.9499361006157665,-1.1866097115428575,167.8928720761187,[ 0.99308699  0.05051695 -0.01575627  0.10477597],[ 0.99367687  0.03455807 -0.01322249  0.10600562]
1718050144.7586174,10.053333333333335,2.8000000000000003,-51.52,-1.707317073170732,0.48780487804878053,0.1829268292682927,-0.003173828125,0.084228515625,-1.01123046875,1.5894428152492668,1.7653958944281525,1.4310850439882699,0.08211143695014662,0.09970674486803519,0.10557184750733138,42.3,-83.7,0.3,[0.49850173 0.26796114 0.82443487],[ 0.1912504   0.05326603 -0.9800949 ],[ 0.19183003  0.19043592 -0.96277484],[0.4040646  0.2734554  0.87289973],-5.961936869259138,-1.222489907820069,167.65137804592106,[ 0.99285717  0.05055381 -0.01618473  0.1068504 ],[ 0.99348814  0.03541322 -0.01351966  0.10744503]
1718050144.7855887,10.053333333333335,2.7866666666666666,-51.57333333333334,-1.5853658536585367,0.3658536585365854,0.06097560975609757,-0.00927734375,0.0869140625,-1.016357421875,1.5894428152492668,1.7653958944281525,1.4281524926686218,0.08211143695014662,0.0967741935483871,0.10557184750733138,42.3,-83.7,0.3,[0.50018866 0.27228211 0.82199377],[ 0.19106298  0.05296043 -0.98014801],[ 0.19183003  0.19043592 -0.96277484],[0.4040646  0.2734554  0.87289973],-6.069436273798381,-1.2639802499264705,167.888306329533,[ 0.9930262   0.05148041 -0.01653798  0.10476274],[ 0.99356582  0.03701144 -0.01440084  0.10606475]
1718050144.8127522,10.026666666666667,2.7866666666666666,-51.720000000000006,-1.9512195121951221,0.30487804878048785,0.30487804878048785,-0.001220703125,0.08447265625,-1.01171875,1.5923753665689149,1.7653958944281525,1.4281524926686218,0.08211143695014662,0.09970674486803519,0.10557184750733138,42.3,-83.7,0.3,[0.49715694 0.27713598 0.82221081],[ 0.19005524  0.0528212  -0.98035143],[ 0.19183003  0.19043592 -0.96277484],[0.4040646  0.2734554  0.87289973],-6.152344057073291,-1.2508188660212132,168.35107427408212,[ 0.99340425  0.05227723 -0.01628875  0.10074607],[ 0.99377359  0.03625633 -0.01513202  0.10426191]
1718050144.839725,10.026666666666667,2.7600000000000002,-51.70666666666667,-1.8902439024390245,0.1829268292682927,0.3658536585365854,-0.0009765625,0.087158203125,-1.015869140625,1.595307917888563,1.7683284457478006,1.4398826979472141,0.08211143695014662,0.09970674486803519,0.10557184750733138,42.3,-83.7,0.3,[0.49141366 0.26380779 0.83001088],[ 0.19010739  0.05233009 -0.98036766],[ 0.19183003  0.19043592 -0.96277484],[0.4040646  0.2734554  0.87289973],-5.87965540087883,-1.1139289659515348,167.56241189242803,[ 0.99281427  0.04993134 -0.01520623  0.10768216],[ 0.99340452  0.03488983 -0.01532608  0.10814465]
1718050144.8682885,9.986666666666668,2.7600000000000002,-51.720000000000006,-1.6463414634146343,0.3658536585365854,0.3658536585365854,-0.001708984375,0.08349609375,-1.01171875,1.595307917888563,1.7624633431085044,1.436950146627566,0.08211143695014662,0.09970674486803519,0.10557184750733138,42.3,-83.7,0.3,[0.48480097 0.26990354 0.83193755],[ 0.1893293   0.05232465 -0.98051851],[ 0.19183003  0.19043592 -0.96277484],[0.4040646  0.2734554  0.87289973],-5.955505537662373,-1.0240122566157892,168.24439788152873,[ 0.99340732  0.05075914 -0.01419674  0.10180301],[ 0.99361341  0.03602815 -0.0137383   0.10604539]
1718050144.893743,10.040000000000001,2.7600000000000002,-51.70666666666667,-1.6463414634146343,0.3658536585365854,0.426829268292683,-0.001708984375,0.087890625,-1.011962890625,1.5923753665689149,1.7653958944281525,1.4252199413489737,0.08211143695014662,0.09970674486803519,0.10557184750733138,42.3,-83.7,0.3,[0.49882131 0.28141188 0.8197467 ],[ 0.19035104  0.05232758 -0.98032051],[ 0.19183003  0.19043592 -0.96277484],[0.4040646  0.2734554  0.87289973],-6.263842049804999,-1.271566542602266,168.55769332305954,[ 0.99353193  0.05325512 -0.0164706   0.09892886],[ 0.99376571  0.03800741 -0.01453298  0.10379757]
1718050144.921226,10.013333333333334,2.746666666666667,-51.733333333333334,-1.7682926829268295,0.6707317073170732,0.1829268292682927,-0.006591796875,0.0869140625,-1.01513671875,1.5923753665689149,1.7624633431085044,1.4310850439882699,0.08211143695014662,0.09970674486803519,0.10557184750733138,42.3,-83.7,0.3,[0.49133659 0.27371986 0.82684085],[ 0.18977214  0.05205467 -0.98044727],[ 0.19183003  0.19043592 -0.96277484],[0.4040646  0.2734554  0.87289973],-6.080765176622741,-1.1342011366364144,168.26650349967457,[ 0.99336708  0.05174913 -0.01525312  0.10154415],[ 0.99387568  0.03706181 -0.01252209  0.10334773]
1718050144.947862,10.026666666666667,2.7733333333333334,-51.693333333333335,-1.7682926829268295,0.5487804878048781,0.426829268292683,-0.003662109375,0.0810546875,-1.01220703125,1.598240469208211,1.7741935483870968,1.4398826979472141,0.08211143695014662,0.09970674486803519,0.10557184750733138,42.3,-83.7,0.3,[0.49663854 0.26695961 0.825883  ],[ 0.190152    0.05259523 -0.98034482],[ 0.19183003  0.19043592 -0.96277484],[0.4040646  0.2734554  0.87289973],-5.96469932321339,-1.2206845285787313,167.63056912489228,[ 0.99283661  0.05057651 -0.01618085  0.10703113],[ 0.9934335   0.03602744 -0.01299434  0.10781027]
1718050144.974843,10.0,2.7733333333333334,-51.733333333333334,-1.7682926829268295,0.426829268292683,0.1829268292682927,-0.001708984375,0.0869140625,-1.01025390625,1.6011730205278591,1.7712609970674487,1.4428152492668622,0.08211143695014662,0.09970674486803519,0.10557184750733138,42.3,-83.7,0.3,[0.48775923 0.26835578 0.8307082 ],[ 0.18952352  0.05256119 -0.98046834],[ 0.19183003  0.19043592 -0.96277484],[0.4040646  0.2734554  0.87289973],-5.935058362851329,-1.0745730128238442,168.0420051803586,[ 0.99323337  0.05051065 -0.01470609  0.10353683],[ 0.99363477  0.03566659 -0.01288285  0.10607484]
1718050145.0020015,10.040000000000001,2.7600000000000002,-51.70666666666667,-2.1951219512195124,0.5487804878048781,0.24390243902439027,-0.005859375,0.08740234375,-1.01123046875,1.6011730205278591,1.7771260997067448,1.4398826979472141,0.08211143695014662,0.09970674486803519,0.10557184750733138,42.3,-83.7,0.3,[0.49771148 0.27093364 0.82394068],[ 0.19035104  0.05232758 -0.98032051],[ 0.19183003  0.19043592 -0.96277484],[0.4040646  0.2734554  0.87289973],-6.057116776536879,-1.2345009585094844,167.8559071353131,[ 0.99300341  0.05139629 -0.01628581  0.10505909],[ 0.99362946  0.03382073 -0.01342007  0.10666098]
1718050145.0289075,10.040000000000001,2.7733333333333334,-51.720000000000006,-1.5853658536585367,0.3658536585365854,0.24390243902439027,-0.003173828125,0.08251953125,-1.01123046875,1.6041055718475072,1.7771260997067448,1.436950146627566,0.08211143695014662,0.09970674486803519,0.10557184750733138,42.3,-83.7,0.3,[0.49636429 0.28002575 0.82171046],[ 0.19030136  0.05256664 -0.98031737],[ 0.19183003  0.19043592 -0.96277484],[0.4040646  0.2734554  0.87289973],-6.210969905653172,-1.226578166407886,168.5589958872708,[ 0.99355965  0.05283619 -0.01603433  0.09894675],[ 0.99387326  0.03723041 -0.01407677  0.10311003]
1718050145.0560236,10.053333333333335,2.6133333333333333,-51.720000000000006,-1.8902439024390245,0.30487804878048785,0.3658536585365854,-0.004638671875,0.08935546875,-1.009765625,1.6011730205278591,1.7741935483870968,1.4398826979472141,0.08211143695014662,0.09970674486803519,0.10557184750733138,42.3,-83.7,0.3,[0.4936193  0.27181245 0.82611015],[ 0.19057442  0.04953924 -0.98042198],[ 0.19183003  0.19043592 -0.96277484],[0.4040646  0.2734554  0.87289973],-6.158570260892344,-1.109656638598609,167.87770799818136,[ 0.99298237  0.052394   -0.01528718  0.10491509],[ 0.9935811   0.03672195 -0.01433831  0.10603073]
1718050145.0832515,10.026666666666667,2.7333333333333334,-51.70666666666667,-1.9512195121951221,0.426829268292683,0.30487804878048785,-0.002685546875,0.08447265625,-1.01025390625,1.6041055718475072,1.780058651026393,1.4398826979472141,0.08211143695014662,0.09970674486803519,0.10557184750733138,42.3,-83.7,0.3,[0.49876657 0.27487379 0.82199532],[ 0.1901124   0.05182585 -0.98039347],[ 0.19183003  0.19043592 -0.96277484],[0.4040646  0.2734554  0.87289973],-6.1613661131008355,-1.2633927164880447,168.07594341615706,[ 0.9931548   0.05230472 -0.0165313   0.10312363],[ 0.99363053  0.03609608 -0.01463191  0.10574187]
1718050145.1135595,10.053333333333335,2.7733333333333334,-51.733333333333334,-1.6463414634146343,0.48780487804878053,0.24390243902439027,-0.002197265625,0.08642578125,-1.0087890625,1.6041055718475072,1.782991202346041,1.4428152492668622,0.08211143695014662,0.09970674486803519,0.10557184750733138,42.3,-83.7,0.3,[0.50114849 0.26972207 0.82225312],[ 0.19049772  0.0525511  -0.98028006],[ 0.19183003  0.19043592 -0.96277484],[0.4040646  0.2734554  0.87289973],-6.048402496164708,-1.2972276693948406,167.66642972398276,[ 0.99282934  0.05123476 -0.01690606  0.10667277],[ 0.99341631  0.0367289  -0.01448102  0.10754217]
1718050145.1372218,10.56,2.746666666666667,-51.66666666666667,-1.707317073170732,0.30487804878048785,0.24390243902439027,0.00048828125,0.0859375,-1.01123046875,1.6041055718475072,1.782991202346041,1.4428152492668622,0.08211143695014662,0.09970674486803519,0.10557184750733138,42.3,-83.7,0.3,[0.50114849 0.26972207 0.82225312],[ 0.19997625  0.05201402 -0.97841915],[ 0.19183003  0.19043592 -0.96277484],[0.4040646  0.2734554  0.87289973],-6.0069723344679895,-0.9044181752638893,167.37882836366833,[ 0.99258988  0.05121128 -0.01359302  0.10935251],[ 0.99317908  0.03674221 -0.01336373  0.1098487 ]
1718050145.1643836,10.013333333333334,2.7733333333333334,-51.733333333333334,-1.5853658536585367,0.12195121951219513,0.1829268292682927,-0.00537109375,0.08642578125,-1.005615234375,1.6041055718475072,1.780058651026393,1.4428152492668622,0.08211143695014662,0.09970674486803519,0.10557184750733138,42.3,-83.7,0.3,[0.49709511 0.27059811 0.8244229 ],[ 0.18976712  0.05255867 -0.98042135],[ 0.19183003  0.19043592 -0.96277484],[0.4040646  0.2734554  0.87289973],-6.040633261097486,-1.2489290822902117,167.88270709839753,[ 0.99303469  0.05124392 -0.01638373  0.10482245],[ 0.99336512  0.03750025 -0.01553983  0.10760103]
1718050145.1991289,10.013333333333334,2.746666666666667,-51.720000000000006,-1.829268292682927,0.3658536585365854,0.426829268292683,-0.005126953125,0.083740234375,-1.009765625,1.6099706744868034,1.782991202346041,1.4486803519061584,0.08211143695014662,0.09970674486803519,0.10557184750733138,42.3,-83.7,0.3,[0.49177815 0.27079862 0.82753995],[ 0.18981917  0.05206757 -0.98043748],[ 0.19183003  0.19043592 -0.96277484],[0.4040646  0.2734554  0.87289973],-6.027392855868677,-1.1370629505956378,168.04288485703754,[ 0.9931909   0.05125407 -0.01533068  0.10348826],[ 0.99346595  0.036389   -0.01463433  0.10717778]
1718050145.219575,9.733333333333334,2.2533333333333334,-51.62666666666667,-1.9512195121951221,0.30487804878048785,0.426829268292683,-0.00244140625,0.085205078125,-1.010009765625,1.6070381231671553,1.782991202346041,1.4486803519061584,0.08211143695014662,0.09970674486803519,0.10557184750733138,42.3,-83.7,0.3,[0.49478601 0.26596381 0.82731497],[ 0.18509896  0.04285168 -0.98178516],[ 0.19183003  0.19043592 -0.96277484],[0.4040646  0.2734554  0.87289973],-6.367721352685991,-1.2545186609661576,167.1556784006235,[ 0.99219942  0.05396579 -0.01707402  0.11106974],[ 0.99292713  0.03705262 -0.0157401   0.11169185]
1718050145.2451565,9.96,2.68,-51.74666666666667,-1.6463414634146343,0.3658536585365854,0.426829268292683,-0.002685546875,0.087890625,-1.009521484375,1.6070381231671553,1.7859237536656891,1.4486803519061584,0.08211143695014662,0.09970674486803519,0.10557184750733138,42.3,-83.7,0.3,[0.498857   0.26510492 0.82514306],[ 0.18876297  0.05079164 -0.98070829],[ 0.19183003  0.19043592 -0.96277484],[0.4040646  0.2734554  0.87289973],-6.029221333940627,-1.294008042103017,167.35271706083338,[ 0.9925423   0.05102525 -0.01700007  0.10939475],[ 0.99284957  0.03700946 -0.01567572  0.11240244]
1718050145.2721589,10.173333333333334,2.7733333333333334,-51.720000000000006,-1.829268292682927,0.5487804878048781,0.30487804878048785,-0.007080078125,0.087646484375,-1.01171875,1.6070381231671553,1.782991202346041,1.4486803519061584,0.08211143695014662,0.09970674486803519,0.10557184750733138,42.3,-83.7,0.3,[0.49478601 0.26596381 0.82731497],[ 0.19273532  0.05254121 -0.97984311],[ 0.19183003  0.19043592 -0.96277484],[0.4040646  0.2734554  0.87289973],-5.917873213852291,-1.077837678670746,167.54616021453182,[ 0.99278351  0.05029456 -0.01493663  0.10783437],[ 0.99308212  0.03550755 -0.01352717  0.11110411]
1718050145.299171,10.013333333333334,2.6533333333333333,-51.720000000000006,-1.707317073170732,0.426829268292683,0.426829268292683,-0.00390625,0.082763671875,-1.01171875,1.6099706744868034,1.782991202346041,1.4457478005865103,0.08211143695014662,0.09970674486803519,0.10557184750733138,42.3,-83.7,0.3,[0.49347099 0.27508128 0.82511616],[ 0.18983636  0.05030284 -0.98052628],[ 0.19183003  0.19043592 -0.96277484],[0.4040646  0.2734554  0.87289973],-6.193047442781362,-1.151892309858802,168.18271696722996,[ 0.99324072  0.05269527 -0.01554448  0.10224696],[ 0.99338732  0.03711083 -0.01364522  0.10778786]
1718050145.3262415,10.106666666666667,2.2800000000000002,-51.693333333333335,-1.8902439024390245,0.426829268292683,0.3658536585365854,-0.003662109375,0.08740234375,-1.0126953125,1.6099706744868034,1.7859237536656891,1.4486803519061584,0.08211143695014662,0.09970674486803519,0.10557184750733138,42.3,-83.7,0.3,[0.49586587 0.26992896 0.82538197],[ 0.19169959  0.04324621 -0.9805004 ],[ 0.19183003  0.19043592 -0.96277484],[0.4040646  0.2734554  0.87289973],-6.389052709285285,-1.0177252429091381,167.25232093595704,[ 0.99229022  0.05439506 -0.0149988   0.11034644],[ 0.9929862   0.03784447 -0.01341648  0.11120344]
1718050145.3532076,10.32,2.7600000000000002,-51.70666666666667,-1.8902439024390245,0.426829268292683,0.426829268292683,-0.00537109375,0.081298828125,-1.01025390625,1.6129032258064515,1.7888563049853372,1.4516129032258065,0.08211143695014662,0.09970674486803519,0.10557184750733138,42.3,-83.7,0.3,[0.49525299 0.26959533 0.82585885],[ 0.19545948  0.05227405 -0.97931763],[ 0.19183003  0.19043592 -0.96277484],[0.4040646  0.2734554  0.87289973],-5.983371869390989,-0.9762494538152745,167.69827212645188,[ 0.99289979  0.05097714 -0.01405059  0.10655476],[ 0.9931441   0.03600332 -0.01279006  0.11047612]
1718050145.4012952,10.040000000000001,2.7600000000000002,-51.70666666666667,-1.6463414634146343,0.24390243902439027,0.1829268292682927,-0.00341796875,0.08837890625,-1.013916015625,1.6129032258064515,1.7888563049853372,1.4486803519061584,0.08211143695014662,0.09970674486803519,0.10557184750733138,42.3,-83.7,0.3,[0.49692795 0.27386051 0.82344583],[ 0.19035104  0.05232758 -0.98032051],[ 0.19183003  0.19043592 -0.96277484],[0.4040646  0.2734554  0.87289973],-6.107116468924721,-1.2230475853335592,168.08930598024688,[ 0.99319331  0.05187313 -0.01612679  0.10303468],[ 0.99348073  0.03722621 -0.01457631  0.10676036]
1718050145.4218314,10.040000000000001,2.746666666666667,-51.733333333333334,-1.9512195121951221,0.12195121951219513,0.30487804878048785,-0.00146484375,0.086181640625,-1.012939453125,1.6187683284457477,1.7947214076246334,1.4604105571847508,0.08211143695014662,0.09970674486803519,0.10557184750733138,42.3,-83.7,0.3,[0.49233247 0.26464496 0.82919948],[ 0.19025925  0.05204968 -0.98035312],[ 0.19183003  0.19043592 -0.96277484],[0.4040646  0.2734554  0.87289973],-5.912419446693752,-1.1227014047680752,167.57058012088225,[ 0.99280732  0.05020797 -0.01530944  0.10760304],[ 0.99332827  0.0351583  -0.01553856  0.1087262 ]
1718050145.437655,9.84,2.68,-51.34666666666667,-1.5853658536585367,0.3658536585365854,0.24390243902439027,-0.00390625,0.087158203125,-1.009521484375,1.6187683284457477,1.7947214076246334,1.4574780058651027,0.08211143695014662,0.09970674486803519,0.10557184750733138,42.3,-83.7,0.3,[0.49403071 0.26892998 0.8268073 ],[ 0.18796679  0.05119421 -0.98084027],[ 0.19183003  0.19043592 -0.96277484],[0.4040646  0.2734554  0.87289973],-6.055423371422553,-1.2423206067356765,167.83214813456863,[ 0.99298202  0.05137098 -0.01636267  0.10526156],[ 0.9933771   0.0368301  -0.0151075   0.10778331]
1718050145.4628475,10.346666666666668,2.68,-51.34666666666667,-1.707317073170732,0.24390243902439027,0.06097560975609757,-0.005859375,0.087890625,-1.009033203125,1.6158357771260996,1.7917888563049853,1.4516129032258065,0.08211143695014662,0.09970674486803519,0.10557184750733138,42.3,-83.7,0.3,[0.49631737 0.27352402 0.82392577],[ 0.19727751  0.05109894 -0.97901506],[ 0.19183003  0.19043592 -0.96277484],[0.4040646  0.2734554  0.87289973],-6.102637629276544,-0.9116690498294737,167.82069247512248,[ 0.99296088  0.05208556 -0.01354636  0.10550967],[ 0.99350168  0.03736894 -0.01385445  0.10661157]
1718050145.5138159,9.92,2.746666666666667,-51.70666666666667,-1.7682926829268295,0.30487804878048785,0.12195121951219513,-0.003173828125,0.08544921875,-1.01123046875,1.6187683284457477,1.7976539589442815,1.4633431085043989,0.08211143695014662,0.10263929618768329,0.10557184750733138,42.3,-83.7,0.3,[0.49469718 0.25950031 0.82941804],[ 0.18815943  0.05209791 -0.98075575],[ 0.19183003  0.19043592 -0.96277484],[0.4040646  0.2734554  0.87289973],-5.844644625661209,-1.2499876259379175,167.18353586980044,[ 0.99246261  0.0494446  -0.01651559  0.1109073 ],[ 0.99320075  0.03559169 -0.01493324  0.10982946]
1718050145.5692217,10.013333333333334,2.7866666666666666,-51.62666666666667,-1.707317073170732,0.426829268292683,0.3658536585365854,-0.0029296875,0.086669921875,-1.008544921875,1.6246334310850439,1.7976539589442815,1.466275659824047,0.08211143695014662,0.10263929618768329,0.10850439882697947,42.3,-83.7,0.3,[0.48701376 0.26483    0.83227559],[ 0.19014141  0.05291552 -0.98032963],[ 0.19183003  0.19043592 -0.96277484],[0.4040646  0.2734554  0.87289973],-5.844426273314377,-1.0357646188409109,167.8179993542553,[ 0.99306996  0.04973244 -0.01438509  0.10550739],[ 0.99332475  0.0353132  -0.01344244  0.10898725]
1718050145.614322,10.506666666666668,2.8400000000000003,-51.68000000000001,-2.0121951219512195,0.5487804878048781,0.30487804878048785,-0.004150390625,0.08154296875,-1.007080078125,1.6246334310850439,1.8005865102639296,1.466275659824047,0.08504398826979472,0.10263929618768329,0.10850439882697947,42.3,-83.7,0.3,[0.49111274 0.26398931 0.83013127],[ 0.1989386   0.05377401 -0.97853553],[ 0.19183003  0.19043592 -0.96277484],[0.4040646  0.2734554  0.87289973],-5.761799721836477,-0.7691559447397062,167.4306377594388,[ 0.99274859  0.04922299 -0.0121651   0.10899242],[ 0.99325575  0.03326883 -0.0110277   0.11051965]
1718050145.6312308,10.026666666666667,2.7600000000000002,-51.68000000000001,-1.7682926829268295,0.426829268292683,0.30487804878048785,0.000244140625,0.0849609375,-1.009521484375,1.6217008797653958,1.8005865102639296,1.4633431085043989,0.08504398826979472,0.10263929618768329,0.10850439882697947,42.3,-83.7,0.3,[0.49578571 0.26347276 0.82751353],[ 0.19020167  0.05235605 -0.98034798],[ 0.19183003  0.19043592 -0.96277484],[0.4040646  0.2734554  0.87289973],-5.902413105404805,-1.1953765447989038,167.39339211539118,[ 0.99264134  0.0500277  -0.016007    0.10910623],[ 0.99312186  0.03430588 -0.01297966  0.11119172]
1718050145.6505558,10.053333333333335,2.8266666666666667,-51.373333333333335,-1.707317073170732,0.48780487804878053,0.30487804878048785,-0.004150390625,0.0888671875,-1.009033203125,1.6246334310850439,1.8035190615835777,1.4633431085043989,0.08504398826979472,0.10263929618768329,0.10850439882697947,42.3,-83.7,0.3,[0.49685653 0.2674121  0.82560545],[ 0.19176956  0.05391929 -0.97995773],[ 0.19183003  0.19043592 -0.96277484],[0.4040646  0.2734554  0.87289973],-5.909644235300266,-1.1773524879791624,167.69209181068751,[ 0.99291996  0.05014883 -0.0157271   0.10652563],[ 0.99324192  0.03505068 -0.01321256  0.10985155]
1718050145.6775582,10.053333333333335,2.7733333333333334,-51.58666666666667,-1.707317073170732,0.48780487804878053,0.1829268292682927,-0.003173828125,0.08056640625,-1.011474609375,1.6304985337243403,1.8093841642228738,1.469208211143695,0.08504398826979472,0.10263929618768329,0.10850439882697947,42.3,-83.7,0.3,[0.49564058 0.26675766 0.8265475 ],[ 0.19101809  0.05269465 -0.98017109],[ 0.19183003  0.19043592 -0.96277484],[0.4040646  0.2734554  0.87289973],-5.944054690824504,-1.1671273529614243,167.63131795393505,[ 0.99284863  0.05044827 -0.01569726  0.10705217],[ 0.9933139   0.03553016 -0.01324994  0.10903915]
1718050145.7048118,10.053333333333335,2.7733333333333334,-51.6,-1.829268292682927,0.3658536585365854,0.06097560975609757,-0.00634765625,0.088134765625,-1.009765625,1.6304985337243403,1.8093841642228738,1.469208211143695,0.08504398826979472,0.10263929618768329,0.10850439882697947,42.3,-83.7,0.3,[0.49564058 0.26675766 0.8265475 ],[ 0.19097067  0.05268156 -0.98018103],[ 0.19183003  0.19043592 -0.96277484],[0.4040646  0.2734554  0.87289973],-5.944905839632078,-1.1688793649046554,167.63182132859345,[ 0.99284866  0.05045406 -0.01571301  0.10704689],[ 0.9934232   0.03517006 -0.01393849  0.10806999]
1718050145.7316225,10.040000000000001,2.7733333333333334,-51.70666666666667,-1.829268292682927,0.48780487804878053,0.24390243902439027,-0.007080078125,0.08740234375,-1.00830078125,1.6304985337243403,1.8093841642228738,1.469208211143695,0.08504398826979472,0.10263929618768329,0.10850439882697947,42.3,-83.7,0.3,[0.49564058 0.26675766 0.8265475 ],[ 0.19034852  0.05257967 -0.98030751],[ 0.19183003  0.19043592 -0.96277484],[0.4040646  0.2734554  0.87289973],-5.9531981399546705,-1.192799310416973,167.64270769089725,[ 0.9928542   0.05050486 -0.01592318  0.10694042],[ 0.99337629  0.03498358 -0.01372991  0.10858722]
1718050145.758582,10.013333333333334,2.7866666666666666,-51.653333333333336,-1.524390243902439,0.6097560975609757,0.24390243902439027,-0.00439453125,0.085693359375,-1.011962890625,1.6304985337243403,1.812316715542522,1.469208211143695,0.08504398826979472,0.10263929618768329,0.10850439882697947,42.3,-83.7,0.3,[0.49964486 0.26590819 0.82440758],[ 0.19004707  0.05288927 -0.98034934],[ 0.19183003  0.19043592 -0.96277484],[0.4040646  0.2734554  0.87289973],-5.9548456760443615,-1.2865977870834966,167.4778696607844,[ 0.99269446  0.05040657 -0.01680984  0.10832506],[ 0.9932111   0.03634504 -0.01340687  0.1096859 ]
1718050145.785618,10.013333333333334,2.7733333333333334,-51.693333333333335,-1.7682926829268295,0.30487804878048785,0.12195121951219513,-0.00537109375,0.0859375,-1.0126953125,1.6304985337243403,1.8064516129032258,1.469208211143695,0.08504398826979472,0.10557184750733138,0.10850439882697947,42.3,-83.7,0.3,[0.49160005 0.26760682 0.82868328],[ 0.18990826  0.05259776 -0.98039193],[ 0.19183003  0.19043592 -0.96277484],[0.4040646  0.2734554  0.87289973],-5.943210661778771,-1.1331412624214434,167.85082296114595,[ 0.99305357  0.05050243 -0.01530533  0.10516585],[ 0.99346358  0.03585336 -0.01404237  0.10745912]
1718050145.8132048,10.066666666666666,2.8000000000000003,-51.653333333333336,-1.707317073170732,0.24390243902439027,0.1829268292682927,-0.009033203125,0.08642578125,-1.015625,1.6304985337243403,1.812316715542522,1.4721407624633431,0.08504398826979472,0.10557184750733138,0.11143695014662756,42.3,-83.7,0.3,[0.49797965 0.26166521 0.82676937],[ 0.1910199   0.05313136 -0.98014716],[ 0.19183003  0.19043592 -0.96277484],[0.4040646  0.2734554  0.87289973],-5.8465488112123865,-1.2141203699111243,167.21793001024847,[ 0.9924966   0.04950102 -0.01619197  0.11062538],[ 0.99315531  0.03538891 -0.01510208  0.11028182]
1718050145.839946,10.066666666666666,2.7866666666666666,-51.733333333333334,-1.6463414634146343,0.3658536585365854,0.3658536585365854,-0.00048828125,0.082275390625,-1.00927734375,1.6304985337243403,1.8064516129032258,1.469208211143695,0.08504398826979472,0.10557184750733138,0.11143695014662756,42.3,-83.7,0.3,[0.49160005 0.26760682 0.82868328],[ 0.19073865  0.0528005  -0.98021981],[ 0.19183003  0.19043592 -0.96277484],[0.4040646  0.2734554  0.87289973],-5.929505325099598,-1.1020398350718745,167.84009745033035,[ 0.9930509   0.05041107 -0.01502797  0.10527487],[ 0.9932873   0.03600174 -0.01418599  0.10900902]
1718050145.8666868,10.066666666666666,2.7733333333333334,-51.68000000000001,-1.8902439024390245,0.24390243902439027,0.30487804878048785,-0.003662109375,0.081787109375,-1.01171875,1.6334310850439884,1.81524926686217,1.4721407624633431,0.08504398826979472,0.10557184750733138,0.11143695014662756,42.3,-83.7,0.3,[0.49903722 0.2655848  0.82487973],[ 0.19093031  0.05260067 -0.98019324],[ 0.19183003  0.19043592 -0.96277484],[0.4040646  0.2734554  0.87289973],-5.950407988824443,-1.2346407761034333,167.43303914388804,[ 0.99265633  0.05041136 -0.01637533  0.108738  ],[ 0.99315813  0.03506189 -0.01541     0.11031826]
1718050145.8937743,10.08,2.7866666666666666,-51.693333333333335,-1.6463414634146343,0.426829268292683,0.24390243902439027,0.000244140625,0.08837890625,-1.0126953125,1.6422287390029326,1.8181818181818181,1.4809384164222874,0.08504398826979472,0.10557184750733138,0.11143695014662756,42.3,-83.7,0.3,[0.48918779 0.26629369 0.83053174],[ 0.19112405  0.0528372  -0.98014276],[ 0.19183003  0.19043592 -0.96277484],[0.4040646  0.2734554  0.87289973],-5.883928222247023,-1.0385244907807722,167.81796226055036,[ 0.99305264  0.0500722  -0.01444539  0.1055015 ],[ 0.99335913  0.03564157 -0.01360851  0.10854546]
1718050145.920798,10.093333333333334,2.7733333333333334,-51.720000000000006,-1.7682926829268295,0.426829268292683,0.1829268292682927,-0.008544921875,0.086181640625,-1.00927734375,1.6363636363636365,1.8181818181818181,1.4721407624633431,0.08504398826979472,0.10557184750733138,0.11143695014662756,42.3,-83.7,0.3,[0.50007754 0.26947191 0.82298685],[ 0.19127537  0.05255651 -0.98012833],[ 0.19183003  0.19043592 -0.96277484],[0.4040646  0.2734554  0.87289973],-6.030762911995651,-1.2444257624588297,167.66297091233267,[ 0.99283647  0.05113113 -0.01643376  0.10672998],[ 0.99336581  0.03590152 -0.01419199  0.10832379]
1718050145.9477854,10.093333333333334,2.7733333333333334,-51.66666666666667,-1.7682926829268295,0.24390243902439027,0.1829268292682927,-0.006103515625,0.08544921875,-1.01171875,1.6392961876832846,1.8181818181818181,1.469208211143695,0.08504398826979472,0.10557184750733138,0.11143695014662756,42.3,-83.7,0.3,[0.49876268 0.27836208 0.82082297],[ 0.19146503  0.05260862 -0.9800885 ],[ 0.19183003  0.19043592 -0.96277484],[0.4040646  0.2734554  0.87289973],-6.187065037504434,-1.223517051144987,168.33152638890235,[ 0.99337241  0.05259976 -0.0160916   0.10092364],[ 0.99370872  0.03701137 -0.01513965  0.10461325]
1718050145.980479,10.066666666666666,2.7600000000000002,-51.66666666666667,-1.829268292682927,0.48780487804878053,0.12195121951219513,-0.00537109375,0.08935546875,-1.010009765625,1.6392961876832846,1.8211143695014662,1.4721407624633431,0.08504398826979472,0.10557184750733138,0.11143695014662756,42.3,-83.7,0.3,[0.50110083 0.27332668 0.82109103],[ 0.19098019  0.05236146 -0.98019633],[ 0.19183003  0.19043592 -0.96277484],[0.4040646  0.2734554  0.87289973],-6.120921452651788,-1.2785385115251409,167.89801294116322,[ 0.99301115  0.05191452 -0.01670679  0.1046643 ],[ 0.99366791  0.03657199 -0.01461864  0.10522772]
1718050146.0033293,10.266666666666667,2.7733333333333334,-51.64,-1.829268292682927,0.3658536585365854,0.3658536585365854,-0.004150390625,0.085205078125,-1.012451171875,1.6392961876832846,1.8211143695014662,1.4721407624633431,0.08504398826979472,0.10557184750733138,0.11143695014662756,42.3,-83.7,0.3,[0.50110083 0.27332668 0.82109103],[ 0.19472595  0.05260129 -0.97944623],[ 0.19183003  0.19043592 -0.96277484],[0.4040646  0.2734554  0.87289973],-6.0870545474957165,-1.1290043079252352,167.81045566933724,[ 0.99295244  0.05174735 -0.01541971  0.10549829],[ 0.99346888  0.03634787 -0.01430112  0.10720955]
1718050146.033076,10.106666666666667,2.8000000000000003,-51.68000000000001,-1.7682926829268295,0.24390243902439027,0.12195121951219513,-0.0029296875,0.0869140625,-1.015380859375,1.6422287390029326,1.8211143695014662,1.4868035190615836,0.08504398826979472,0.10557184750733138,0.11143695014662756,42.3,-83.7,0.3,[0.48982623 0.25694519 0.83309629],[ 0.19165604  0.05309732 -0.98002481],[ 0.19183003  0.19043592 -0.96277484],[0.4040646  0.2734554  0.87289973],-5.696592054924744,-1.0253826493958043,167.12456000895466,[ 0.99247684  0.04837431 -0.01445199  0.1115383 ],[ 0.99318161  0.03457287 -0.01414573  0.11043052]
1718050146.0573766,10.053333333333335,2.7866666666666666,-51.68000000000001,-1.6463414634146343,0.6097560975609757,0.1829268292682927,-0.00146484375,0.08544921875,-1.01123046875,1.6392961876832846,1.8240469208211143,1.4721407624633431,0.08504398826979472,0.10557184750733138,0.11143695014662756,42.3,-83.7,0.3,[0.50502893 0.27245868 0.81897011],[ 0.19068408  0.0528554  -0.98022747],[ 0.19183003  0.19043592 -0.96277484],[0.4040646  0.2734554  0.87289973],-6.114006298888354,-1.3730253630527276,167.74578146658314,[ 0.99286959  0.05174398 -0.01758791  0.10593967],[ 0.9933198   0.03639055 -0.01412026  0.10859154]
1718050146.0864067,10.08,2.7866666666666666,-51.68000000000001,-1.4634146341463417,0.3658536585365854,0.30487804878048785,-0.004150390625,0.087890625,-1.019775390625,1.6392961876832846,1.8181818181818181,1.4721407624633431,0.08504398826979472,0.10557184750733138,0.11143695014662756,42.3,-83.7,0.3,[0.49713724 0.27419451 0.82320832],[ 0.19117142  0.0528503  -0.98013282],[ 0.19183003  0.19043592 -0.96277484],[0.4040646  0.2734554  0.87289973],-6.088253978113733,-1.2009899042804921,168.11487149357993,[ 0.99322577  0.05173325 -0.01590713  0.10282612],[ 0.99347219  0.0381472  -0.0142277   0.10656162]
1718050146.1105645,10.08,2.7866666666666666,-51.68000000000001,-2.073170731707317,0.48780487804878053,0.06097560975609757,-0.0087890625,0.086181640625,-1.005859375,1.6422287390029326,1.8269794721407624,1.4838709677419355,0.08504398826979472,0.10557184750733138,0.11143695014662756,42.3,-83.7,0.3,[0.49953281 0.25956486 0.82649444],[ 0.19117142  0.0528503  -0.98013282],[ 0.19183003  0.19043592 -0.96277484],[0.4040646  0.2734554  0.87289973],-5.828786569883953,-1.2330946346800504,166.99607876895016,[ 0.99228742  0.04929695 -0.01643461  0.11254062],[ 0.99318551  0.03413919 -0.01424358  0.11051777]
1718050146.1392472,10.440000000000001,2.7733333333333334,-51.653333333333336,-2.0121951219512195,0.30487804878048785,0.3658536585365854,0.00048828125,0.08544921875,-1.009765625,1.6451612903225807,1.8269794721407624,1.4809384164222874,0.08504398826979472,0.10557184750733138,0.11143695014662756,42.3,-83.7,0.3,[0.49826805 0.26849685 0.82440184],[ 0.19783688  0.05255437 -0.97882512],[ 0.19183003  0.19043592 -0.96277484],[0.4040646  0.2734554  0.87289973],-5.955697488264207,-0.9411478276269918,167.474789972475,[ 0.99270318  0.0507434  -0.01381973  0.10851047],[ 0.99314124  0.03389175 -0.01363222  0.1110675 ]
1718050146.1682978,9.933333333333334,2.52,-51.693333333333335,-1.707317073170732,0.30487804878048785,0.30487804878048785,-0.0048828125,0.08447265625,-1.016845703125,1.6451612903225807,1.8211143695014662,1.4838709677419355,0.08504398826979472,0.10557184750733138,0.11143695014662756,42.3,-83.7,0.3,[0.48858759 0.26596697 0.83098961],[ 0.1884906   0.04781842 -0.98091013],[ 0.19183003  0.19043592 -0.96277484],[0.4040646  0.2734554  0.87289973],-6.09672988968508,-1.066318415630553,167.57642284007068,[ 0.99273259  0.05185895 -0.01499144  0.10755418],[ 0.99313488  0.03605406 -0.01394311  0.11040296]
1718050146.1926508,10.226666666666667,2.9066666666666667,-52.120000000000005,-2.1341463414634148,0.6097560975609757,0.1829268292682927,-0.003173828125,0.089111328125,-1.008544921875,1.651026392961877,1.8328445747800586,1.4809384164222874,0.08504398826979472,0.10557184750733138,0.11143695014662756,42.3,-83.7,0.3,[0.50031137 0.27615799 0.82062494],[ 0.19225477  0.05464347 -0.97982253],[ 0.19183003  0.19043592 -0.96277484],[0.4040646  0.2734554  0.87289973],-6.066949121916298,-1.244950432148483,168.2254858907174,[ 0.99333218  0.05152439 -0.01621928  0.10184965],[ 0.99367984  0.0343222  -0.01347624  0.10602238]
1718050146.2183487,10.146666666666667,2.546666666666667,-51.693333333333335,-1.524390243902439,0.30487804878048785,0.3658536585365854,-0.001708984375,0.0830078125,-1.009521484375,1.6480938416422288,1.8299120234604105,1.4868035190615836,0.08504398826979472,0.10557184750733138,0.11143695014662756,42.3,-83.7,0.3,[0.49601593 0.26397689 0.82721485],[ 0.19238573  0.04828604 -0.9801307 ],[ 0.19183003  0.19043592 -0.96277484],[0.4040646  0.2734554  0.87289973],-6.065620556921525,-1.0559588524954016,167.1117780725611,[ 0.99230265  0.05153853 -0.01508161  0.11158757],[ 0.99300396  0.03695669 -0.01380507  0.11129582]
1718050146.2453084,10.226666666666667,2.56,-51.68000000000001,-2.0121951219512195,0.5487804878048781,0.24390243902439027,-0.010986328125,0.09130859375,-1.013427734375,1.651026392961877,1.8299120234604105,1.4838709677419355,0.08504398826979472,0.10557184750733138,0.11143695014662756,42.3,-83.7,0.3,[0.49474112 0.27287294 0.82508883],[ 0.19389143  0.04853605 -0.9798216 ],[ 0.19183003  0.19043592 -0.96277484],[0.4040646  0.2734554  0.87289973],-6.206298963667473,-0.9839164296022571,167.763459962095,[ 0.992859    0.05290959 -0.01429418  0.10595877],[ 0.99328074  0.036177   -0.01249852  0.10921717]
1718050146.2723205,10.213333333333335,2.9066666666666667,-51.653333333333336,-2.0121951219512195,0.30487804878048785,0.24390243902439027,0.001220703125,0.079833984375,-1.01025390625,1.653958944281525,1.8328445747800586,1.4897360703812317,0.08504398826979472,0.10557184750733138,0.11143695014662756,42.3,-83.7,0.3,[0.49249367 0.26836712 0.82790644],[ 0.19367808  0.05511987 -0.97951549],[ 0.19183003  0.19043592 -0.96277484],[0.4040646  0.2734554  0.87289973],-5.835862946693289,-1.0311730844754754,167.9247940673935,[ 0.99317172  0.04967583 -0.01429113  0.10458498],[ 0.99353073  0.03402131 -0.01322425  0.10753768]
1718050146.2992146,10.013333333333334,2.7600000000000002,-52.013333333333335,-1.5853658536585367,0.30487804878048785,0.24390243902439027,-0.005859375,0.08349609375,-1.01318359375,1.651026392961877,1.8357771260997067,1.4809384164222874,0.08504398826979472,0.10557184750733138,0.11143695014662756,42.3,-83.7,0.3,[0.50421663 0.27528844 0.8185242 ],[ 0.18878734  0.05203592 -0.98063837],[ 0.19183003  0.19043592 -0.96277484],[0.4040646  0.2734554  0.87289973],-6.207331357915657,-1.427281125329426,167.973597909345,[ 0.99303268  0.05253777 -0.01803978  0.10392519],[ 0.99349505  0.03715535 -0.0155618   0.1065124 ]
1718050146.3263175,10.186666666666667,2.6933333333333334,-51.92,-1.8902439024390245,0.6097560975609757,0.3658536585365854,-0.00537109375,0.08837890625,-1.0146484375,1.651026392961877,1.8328445747800586,1.4897360703812317,0.08504398826979472,0.10557184750733138,0.11143695014662756,42.3,-83.7,0.3,[0.49541504 0.2636571  0.82767679],[ 0.1922797   0.05083835 -0.98002244],[ 0.19183003  0.19043592 -0.96277484],[0.4040646  0.2734554  0.87289973],-5.951412970071834,-1.0834060345782182,167.2684533948716,[ 0.99250434  0.05054331 -0.01513896  0.11023304],[ 0.99313986  0.03537669 -0.01328401  0.11065826]
1718050146.3531988,10.093333333333334,3.0,-51.61333333333334,-1.5853658536585367,0.24390243902439027,0.1829268292682927,-0.000732421875,0.08349609375,-1.009765625,1.6598240469208212,1.8387096774193548,1.4926686217008798,0.08504398826979472,0.10557184750733138,0.11143695014662756,42.3,-83.7,0.3,[0.49295562 0.27188814 0.82648146],[ 0.19160987  0.05695141 -0.97981743],[ 0.19183003  0.19043592 -0.96277484],[0.4040646  0.2734554  0.87289973],-5.843917338525185,-1.151756510028827,168.32861455324806,[ 0.9935261   0.04968836 -0.01516846  0.10102903],[ 0.99365938  0.03594777 -0.01413857  0.10558837]
1718050146.3804214,10.426666666666668,3.0933333333333337,-51.653333333333336,-1.9512195121951221,0.5487804878048781,0.426829268292683,-0.009521484375,0.092529296875,-1.011474609375,1.656891495601173,1.8387096774193548,1.4926686217008798,0.08797653958944282,0.10557184750733138,0.11143695014662756,42.3,-83.7,0.3,[0.49587093 0.26720513 0.82626475],[ 0.19752751  0.05860151 -0.9785442 ],[ 0.19183003  0.19043592 -0.96277484],[0.4040646  0.2734554  0.87289973],-5.66867780597005,-0.9853472158418428,167.835974285611,[ 0.99316316  0.04825829 -0.01377877  0.10539559],[ 0.99356122  0.03322304 -0.01224502  0.10762155]
1718050146.4076214,9.96,3.1733333333333333,-52.053333333333335,-1.829268292682927,0.3658536585365854,0.1829268292682927,0.00146484375,0.081298828125,-1.01123046875,1.653958944281525,1.8416422287390029,1.4926686217008798,0.08504398826979472,0.10557184750733138,0.11143695014662756,42.3,-83.7,0.3,[0.50269543 0.261684   0.8239046 ],[ 0.18759687  0.05976982 -0.98042592],[ 0.19183003  0.19043592 -0.96277484],[0.4040646  0.2734554  0.87289973],-5.629272219903935,-1.5340577117927874,167.5649488493954,[ 0.99290083  0.04736361 -0.01860974  0.1075096 ],[ 0.99345665  0.03237146 -0.01535161  0.10844491]
1718050146.434347,9.893333333333334,2.586666666666667,-51.96,-1.4634146341463417,0.30487804878048785,0.3658536585365854,-0.000244140625,0.08056640625,-1.016845703125,1.656891495601173,1.8357771260997067,1.4897360703812317,0.08504398826979472,0.10557184750733138,0.11143695014662756,42.3,-83.7,0.3,[0.49354969 0.2722158  0.82601893],[ 0.18681935  0.04884495 -0.98117924],[ 0.19183003  0.19043592 -0.96277484],[0.4040646  0.2734554  0.87289973],-6.218150054705981,-1.25286102004247,167.97080852325075,[ 0.99303421  0.05279128 -0.01653958  0.10403161],[ 0.99338146  0.03729432 -0.01540476  0.10754114]
1718050146.4615767,9.853333333333333,2.5733333333333337,-51.373333333333335,-2.073170731707317,0.3658536585365854,0.426829268292683,-0.01171875,0.08935546875,-1.010986328125,1.656891495601173,1.8328445747800586,1.4897360703812317,0.08504398826979472,0.10557184750733138,0.11143695014662756,42.3,-83.7,0.3,[0.48955907 0.2730658  0.82811049],[ 0.18813771  0.04913475 -0.98091283],[ 0.19183003  0.19043592 -0.96277484],[0.4040646  0.2734554  0.87289973],-6.186416370461008,-1.1271173529234495,168.14671672253073,[ 0.99321253  0.05265531 -0.01534039  0.10257172],[ 0.99354665  0.03592784 -0.01472334  0.1065714 ]
1718050146.488353,10.026666666666667,3.146666666666667,-51.54666666666667,-1.524390243902439,0.06097560975609757,0.24390243902439027,-0.001708984375,0.0771484375,-1.01171875,1.656891495601173,1.8387096774193548,1.4926686217008798,0.08797653958944282,0.10557184750733138,0.11143695014662756,42.3,-83.7,0.3,[0.49587093 0.26720513 0.82626475],[ 0.19059575  0.05981462 -0.97984462],[ 0.19183003  0.19043592 -0.96277484],[0.4040646  0.2734554  0.87289973],-5.6631920951576715,-1.2822655112574823,168.10215213472947,[ 0.9933954   0.04797315 -0.01623544  0.10295904],[ 0.99365378  0.03550587 -0.01622972  0.10548982]
1718050146.515388,10.08,3.0133333333333336,-51.94666666666667,-1.707317073170732,0.30487804878048785,0.1829268292682927,-0.010498046875,0.093017578125,-1.01123046875,1.6686217008797655,1.847507331378299,1.498533724340176,0.08797653958944282,0.10557184750733138,0.11143695014662756,42.3,-83.7,0.3,[0.49281642 0.27504343 0.82551989],[ 0.19018385  0.0568539  -0.98010088],[ 0.19183003  0.19043592 -0.96277484],[0.4040646  0.2734554  0.87289973],-5.915617538758277,-1.20980801591774,168.59072060611717,[ 0.99372069  0.05029416 -0.01561992  0.09872031],[ 0.99400926  0.03571267 -0.01525353  0.10216425]
1718050146.5432587,10.08,2.9200000000000004,-51.70666666666667,-2.378048780487805,0.6097560975609757,0.30487804878048785,-0.004150390625,0.082275390625,-1.010986328125,1.6627565982404693,1.8416422287390029,1.4897360703812317,0.08504398826979472,0.10557184750733138,0.11143695014662756,42.3,-83.7,0.3,[0.4956115  0.27981787 0.82223549],[ 0.19105058  0.05534402 -0.98001873],[ 0.19183003  0.19043592 -0.96277484],[0.4040646  0.2734554  0.87289973],-6.082771403523301,-1.21658809020835,168.7157512544632,[ 0.99375306  0.05175496 -0.01576623  0.09761001],[ 0.9942565   0.03308967 -0.01375392  0.10084602]
1718050146.5694656,10.08,2.8000000000000003,-51.53333333333334,-1.524390243902439,0.426829268292683,0.30487804878048785,0.00244140625,0.076904296875,-1.01611328125,1.6627565982404693,1.844574780058651,1.4926686217008798,0.08504398826979472,0.10557184750733138,0.11143695014662756,42.3,-83.7,0.3,[0.49793188 0.27484457 0.82251097],[ 0.19169143  0.05324762 -0.98000974],[ 0.19183003  0.19043592 -0.96277484],[0.4040646  0.2734554  0.87289973],-6.086522507687037,-1.2013715096349356,168.14390084523274,[ 0.99325255  0.05172192 -0.01589579  0.10257456],[ 0.9938678   0.03654385 -0.01373443  0.10345392]
1718050146.5964909,10.053333333333335,2.7866666666666666,-51.6,-1.8902439024390245,0.12195121951219513,0.426829268292683,-0.0126953125,0.094970703125,-1.013427734375,1.6598240469208212,1.8416422287390029,1.4956011730205279,0.08797653958944282,0.10557184750733138,0.11143695014662756,42.3,-83.7,0.3,[0.49527441 0.26688369 0.82672629],[ 0.19096812  0.05293413 -0.98016792],[ 0.19183003  0.19043592 -0.96277484],[0.4040646  0.2734554  0.87289973],-5.934347748864895,-1.1653418273126945,167.66843852151487,[ 0.9928876   0.05037093 -0.0156564   0.10673269],[ 0.99345199  0.03530211 -0.01538743  0.10756451]
1718050146.6355946,10.08,2.7733333333333334,-51.53333333333334,-2.439024390243903,0.6097560975609757,0.30487804878048785,-0.00537109375,0.091552734375,-1.0126953125,1.6627565982404693,1.847507331378299,1.4956011730205279,0.08797653958944282,0.10557184750733138,0.11143695014662756,42.3,-83.7,0.3,[0.50023331 0.26987149 0.82276121],[ 0.19169658  0.05274192 -0.98003608],[ 0.19183003  0.19043592 -0.96277484],[0.4040646  0.2734554  0.87289973],-6.0290373547742115,-1.2332734854735845,167.68592963107957,[ 0.9928591   0.05112994 -0.01632529  0.10653651],[ 0.99348088  0.03222358 -0.01425181  0.10841712]
1718050146.6669803,10.280000000000001,2.7733333333333334,-51.70666666666667,-1.829268292682927,0.48780487804878053,0.48780487804878053,0.00146484375,0.080810546875,-1.0107421875,1.6656891495601174,1.847507331378299,1.501466275659824,0.08797653958944282,0.10557184750733138,0.11143695014662756,42.3,-83.7,0.3,[0.49408468 0.2662426  0.82764437],[ 0.19472808  0.05253365 -0.97944943],[ 0.19183003  0.19043592 -0.96277484],[0.4040646  0.2734554  0.87289973],-5.905199569625715,-0.9833583379501285,167.53388497255924,[ 0.99278026  0.05027293 -0.01411162  0.10798539],[ 0.99321059  0.03369606 -0.01277003  0.11060844]
1718050146.6828,10.026666666666667,2.68,-51.93333333333334,-1.8902439024390245,0.1829268292682927,0.24390243902439027,-0.0078125,0.0927734375,-1.020263671875,1.6656891495601174,1.847507331378299,1.501466275659824,0.08797653958944282,0.10557184750733138,0.11143695014662756,42.3,-83.7,0.3,[0.49408468 0.2662426  0.82764437],[ 0.1893244   0.050604   -0.98060976],[ 0.19183003  0.19043592 -0.96277484],[0.4040646  0.2734554  0.87289973],-6.020569547215239,-1.17697641433898,167.5638901900745,[ 0.99275118  0.05109258 -0.01588412  0.10762126],[ 0.99322395  0.03464329 -0.0148801   0.10993001]
